%time,field.header.seq,field.header.stamp,field.header.frame_id,field.status.status,field.status.service,field.latitude,field.longitude,field.altitude,field.position_covariance0,field.position_covariance1,field.position_covariance2,field.position_covariance3,field.position_covariance4,field.position_covariance5,field.position_covariance6,field.position_covariance7,field.position_covariance8,field.position_covariance_type
1704781114553752514,14911,1704781114553492443,gnss_link,0,1,36.90474509,118.16621988,5.749289088994521,0.0,0.0,0.0,0.0,0.0,0.0,0.0,0.0,0.0,2
1704781114653628370,14912,1704781114653322178,gnss_link,0,1,36.9047451,118.16621988,5.749289088994521,0.0,0.0,0.0,0.0,0.0,0.0,0.0,0.0,0.0,2
1704781114752976898,14913,1704781114752812937,gnss_link,0,1,36.90474511,118.16621988,5.749289088994521,0.0,0.0,0.0,0.0,0.0,0.0,0.0,0.0,0.0,2
1704781114854026666,14914,1704781114853797856,gnss_link,0,1,36.90474512,118.16621988,5.749289088994521,0.0,0.0,0.0,0.0,0.0,0.0,0.0,0.0,0.0,2
1704781114953836335,14915,1704781114953412958,gnss_link,0,1,36.90474513,118.16621987,5.749289088994521,0.0,0.0,0.0,0.0,0.0,0.0,0.0,0.0,0.0,2
1704781115053489251,14916,1704781115053161061,gnss_link,0,1,36.90474513,118.16621988,5.749289088994521,0.0,0.0,0.0,0.0,0.0,0.0,0.0,0.0,0.0,2
1704781115153099908,14917,1704781115152662899,gnss_link,0,1,36.90474514,118.16621987,5.749289088994521,0.0,0.0,0.0,0.0,0.0,0.0,0.0,0.0,0.0,2
1704781115253930400,14918,1704781115253571488,gnss_link,0,1,36.90474515,118.16621987,5.749289088994521,0.0,0.0,0.0,0.0,0.0,0.0,0.0,0.0,0.0,2
1704781115353426507,14919,1704781115353113313,gnss_link,0,1,36.90474516,118.16621986,5.749289088994521,0.0,0.0,0.0,0.0,0.0,0.0,0.0,0.0,0.0,2
1704781115454352463,14920,1704781115453873654,gnss_link,0,1,36.90474516,118.16621987,5.749289088994521,0.0,0.0,0.0,0.0,0.0,0.0,0.0,0.0,0.0,2
1704781115553466324,14921,1704781115553228217,gnss_link,0,1,36.90474517,118.16621986,5.749289088994521,0.0,0.0,0.0,0.0,0.0,0.0,0.0,0.0,0.0,2
1704781115653759432,14922,1704781115653267986,gnss_link,0,1,36.90474517,118.16621986,5.749289088994521,0.0,0.0,0.0,0.0,0.0,0.0,0.0,0.0,0.0,2
1704781115752862771,14923,1704781115752579033,gnss_link,0,1,36.90474518,118.16621985,5.749289088994521,0.0,0.0,0.0,0.0,0.0,0.0,0.0,0.0,0.0,2
1704781115853946870,14924,1704781115853571305,gnss_link,0,1,36.90474517,118.16621986,5.749289088994521,0.0,0.0,0.0,0.0,0.0,0.0,0.0,0.0,0.0,2
1704781115953195543,14925,1704781115952960593,gnss_link,0,1,36.90474518,118.16621985,5.749289088994521,0.0,0.0,0.0,0.0,0.0,0.0,0.0,0.0,0.0,2
1704781116053639037,14926,1704781116053220079,gnss_link,0,1,36.90474518,118.16621986,5.749289088994521,0.0,0.0,0.0,0.0,0.0,0.0,0.0,0.0,0.0,2
1704781116152424256,14927,1704781116152215792,gnss_link,0,1,36.90474518,118.16621985,5.749289088994521,0.0,0.0,0.0,0.0,0.0,0.0,0.0,0.0,0.0,2
1704781116253013220,14928,1704781116252851737,gnss_link,0,1,36.9047452,118.16621984,5.749114556069321,0.0,0.0,0.0,0.0,0.0,0.0,0.0,0.0,0.0,2
1704781116353505775,14929,1704781116353030230,gnss_link,0,1,36.90474526,118.16621979,5.749289088994521,0.0,0.0,0.0,0.0,0.0,0.0,0.0,0.0,0.0,2
1704781116453108986,14930,1704781116452690436,gnss_link,0,1,36.90474535,118.16621972,5.749463621919721,0.0,0.0,0.0,0.0,0.0,0.0,0.0,0.0,0.0,2
1704781116552960036,14931,1704781116552446690,gnss_link,0,1,36.90474549,118.16621961,5.74963815484492,0.0,0.0,0.0,0.0,0.0,0.0,0.0,0.0,0.0,2
1704781116653704528,14932,1704781116653260194,gnss_link,0,1,36.90474566,118.1662195,5.74963815484492,0.0,0.0,0.0,0.0,0.0,0.0,0.0,0.0,0.0,2
1704781116753070993,14933,1704781116752663341,gnss_link,0,1,36.90474591,118.16621933,5.749987220695319,0.0,0.0,0.0,0.0,0.0,0.0,0.0,0.0,0.0,2
1704781116852824792,14934,1704781116852467070,gnss_link,0,1,36.90474617,118.16621913,5.750161753620517,0.0,0.0,0.0,0.0,0.0,0.0,0.0,0.0,0.0,2
1704781116953260971,14935,1704781116952942746,gnss_link,0,1,36.9047465,118.16621889,5.750161753620517,0.0,0.0,0.0,0.0,0.0,0.0,0.0,0.0,0.0,2
1704781117052230406,14936,1704781117052069914,gnss_link,0,1,36.90474685,118.16621864,5.74963815484492,0.0,0.0,0.0,0.0,0.0,0.0,0.0,0.0,0.0,2
1704781117152482251,14937,1704781117152244432,gnss_link,0,1,36.90474725,118.16621833,5.750510819470917,0.0,0.0,0.0,0.0,0.0,0.0,0.0,0.0,0.0,2
1704781117252588047,14938,1704781117252376650,gnss_link,0,1,36.90474767,118.16621802,5.750685352396117,0.0,0.0,0.0,0.0,0.0,0.0,0.0,0.0,0.0,2
1704781117352803264,14939,1704781117352542848,gnss_link,0,1,36.90474816,118.16621769,5.74963815484492,0.0,0.0,0.0,0.0,0.0,0.0,0.0,0.0,0.0,2
1704781117452053537,14940,1704781117451585687,gnss_link,0,1,36.90474865,118.16621733,5.749987220695319,0.0,0.0,0.0,0.0,0.0,0.0,0.0,0.0,0.0,2
1704781117552873449,14941,1704781117552305755,gnss_link,0,1,36.9047492,118.16621692,5.749463621919721,0.0,0.0,0.0,0.0,0.0,0.0,0.0,0.0,0.0,2
1704781117652291047,14942,1704781117652051086,gnss_link,0,1,36.90474977,118.16621652,5.7485909572937235,0.0,0.0,0.0,0.0,0.0,0.0,0.0,0.0,0.0,2
1704781117752938126,14943,1704781117752472442,gnss_link,0,1,36.90475039,118.16621605,5.7489400231441214,0.0,0.0,0.0,0.0,0.0,0.0,0.0,0.0,0.0,2
1704781117852877093,14944,1704781117852535560,gnss_link,0,1,36.90475104,118.1662156,5.747718292667726,0.0,0.0,0.0,0.0,0.0,0.0,0.0,0.0,0.0,2
1704781117953076798,14945,1704781117952792521,gnss_link,0,1,36.90475172,118.16621511,5.7473692268173275,0.0,0.0,0.0,0.0,0.0,0.0,0.0,0.0,0.0,2
1704781118054512226,14946,1704781118051818845,gnss_link,0,1,36.90475243,118.16621459,5.7473692268173275,0.0,0.0,0.0,0.0,0.0,0.0,0.0,0.0,0.0,2
1704781118152309080,14947,1704781118152012826,gnss_link,0,1,36.90475318,118.16621403,5.747020160966928,0.0,0.0,0.0,0.0,0.0,0.0,0.0,0.0,0.0,2
1704781118252493164,14948,1704781118252194270,gnss_link,0,1,36.90475396,118.16621352,5.747194693892128,0.0,0.0,0.0,0.0,0.0,0.0,0.0,0.0,0.0,2
1704781118352556096,14949,1704781118352317398,gnss_link,0,1,36.90475478,118.1662129,5.747194693892128,0.0,0.0,0.0,0.0,0.0,0.0,0.0,0.0,0.0,2
1704781118451771673,14950,1704781118451542988,gnss_link,0,1,36.90475562,118.16621231,5.747718292667726,0.0,0.0,0.0,0.0,0.0,0.0,0.0,0.0,0.0,2
1704781118552162487,14951,1704781118551695745,gnss_link,0,1,36.9047565,118.16621168,5.747020160966928,0.0,0.0,0.0,0.0,0.0,0.0,0.0,0.0,0.0,2
1704781118652220986,14952,1704781118651931629,gnss_link,0,1,36.90475738,118.16621104,5.747543759742527,0.0,0.0,0.0,0.0,0.0,0.0,0.0,0.0,0.0,2
1704781118752050665,14953,1704781118751664398,gnss_link,0,1,36.90475827,118.16621039,5.748241891443325,0.0,0.0,0.0,0.0,0.0,0.0,0.0,0.0,0.0,2
1704781118852415864,14954,1704781118852211043,gnss_link,0,1,36.90475915,118.1662098,5.7485909572937235,0.0,0.0,0.0,0.0,0.0,0.0,0.0,0.0,0.0,2
1704781118952867595,14955,1704781118952451533,gnss_link,0,1,36.90476001,118.16620916,5.748765490218923,0.0,0.0,0.0,0.0,0.0,0.0,0.0,0.0,0.0,2
1704781119052800943,14956,1704781119052177645,gnss_link,0,1,36.90476086,118.16620857,5.747718292667726,0.0,0.0,0.0,0.0,0.0,0.0,0.0,0.0,0.0,2
1704781119151876434,14957,1704781119151640639,gnss_link,0,1,36.90476172,118.16620794,5.749289088994521,0.0,0.0,0.0,0.0,0.0,0.0,0.0,0.0,0.0,2
1704781119251709578,14958,1704781119251478544,gnss_link,0,1,36.90476255,118.16620737,5.748765490218923,0.0,0.0,0.0,0.0,0.0,0.0,0.0,0.0,0.0,2
1704781119352357503,14959,1704781119352112820,gnss_link,0,1,36.90476343,118.16620672,5.748416424368524,0.0,0.0,0.0,0.0,0.0,0.0,0.0,0.0,0.0,2
1704781119451376787,14960,1704781119451146205,gnss_link,0,1,36.90476436,118.16620607,5.748416424368524,0.0,0.0,0.0,0.0,0.0,0.0,0.0,0.0,0.0,2
1704781119551655933,14961,1704781119551341540,gnss_link,0,1,36.90476529,118.1662054,5.747892825592925,0.0,0.0,0.0,0.0,0.0,0.0,0.0,0.0,0.0,2
1704781119651819714,14962,1704781119651501397,gnss_link,0,1,36.90476626,118.16620473,5.747543759742527,0.0,0.0,0.0,0.0,0.0,0.0,0.0,0.0,0.0,2
1704781119751542604,14963,1704781119751300703,gnss_link,0,1,36.90476726,118.16620401,5.747194693892128,0.0,0.0,0.0,0.0,0.0,0.0,0.0,0.0,0.0,2
1704781119852519583,14964,1704781119852237271,gnss_link,0,1,36.9047683,118.16620328,5.747020160966928,0.0,0.0,0.0,0.0,0.0,0.0,0.0,0.0,0.0,2
1704781119952386533,14965,1704781119952074023,gnss_link,0,1,36.90476936,118.16620249,5.746845628041728,0.0,0.0,0.0,0.0,0.0,0.0,0.0,0.0,0.0,2
1704781120051555930,14966,1704781120051081654,gnss_link,0,1,36.90477043,118.16620176,5.747543759742527,0.0,0.0,0.0,0.0,0.0,0.0,0.0,0.0,0.0,2
1704781120151603800,14967,1704781120151456093,gnss_link,0,1,36.9047715,118.16620096,5.747194693892128,0.0,0.0,0.0,0.0,0.0,0.0,0.0,0.0,0.0,2
1704781120251926108,14968,1704781120251582249,gnss_link,0,1,36.90477257,118.16620021,5.745972963415732,0.0,0.0,0.0,0.0,0.0,0.0,0.0,0.0,0.0,2
1704781120352016928,14969,1704781120351730847,gnss_link,0,1,36.90477365,118.16619945,5.745100298789735,0.0,0.0,0.0,0.0,0.0,0.0,0.0,0.0,0.0,2
1704781120451166029,14970,1704781120450907511,gnss_link,0,1,36.90477478,118.16619865,5.745100298789735,0.0,0.0,0.0,0.0,0.0,0.0,0.0,0.0,0.0,2
1704781120552818787,14971,1704781120552473451,gnss_link,0,1,36.90477584,118.16619785,5.745798430490532,0.0,0.0,0.0,0.0,0.0,0.0,0.0,0.0,0.0,2
1704781120651817019,14972,1704781120651578791,gnss_link,0,1,36.90477696,118.1661971,5.745623897565332,0.0,0.0,0.0,0.0,0.0,0.0,0.0,0.0,0.0,2
1704781120752279871,14973,1704781120751973038,gnss_link,0,1,36.90477801,118.16619635,5.744925765864536,0.0,0.0,0.0,0.0,0.0,0.0,0.0,0.0,0.0,2
1704781120851801915,14974,1704781120851281160,gnss_link,0,1,36.90477909,118.16619559,5.746147496340932,0.0,0.0,0.0,0.0,0.0,0.0,0.0,0.0,0.0,2
1704781120951331578,14975,1704781120951085240,gnss_link,0,1,36.90478015,118.16619483,5.745449364640133,0.0,0.0,0.0,0.0,0.0,0.0,0.0,0.0,0.0,2
1704781121051866289,14976,1704781121051498279,gnss_link,0,1,36.90478124,118.1661941,5.745972963415732,0.0,0.0,0.0,0.0,0.0,0.0,0.0,0.0,0.0,2
1704781121151849273,14977,1704781121151485308,gnss_link,0,1,36.90478229,118.16619332,5.747020160966928,0.0,0.0,0.0,0.0,0.0,0.0,0.0,0.0,0.0,2
1704781121251038460,14978,1704781121250495508,gnss_link,0,1,36.90478338,118.16619259,5.74649656219133,0.0,0.0,0.0,0.0,0.0,0.0,0.0,0.0,0.0,2
1704781121351371223,14979,1704781121350989433,gnss_link,0,1,36.90478443,118.16619187,5.744925765864536,0.0,0.0,0.0,0.0,0.0,0.0,0.0,0.0,0.0,2
1704781121451561228,14980,1704781121451191594,gnss_link,0,1,36.90478552,118.16619113,5.74649656219133,0.0,0.0,0.0,0.0,0.0,0.0,0.0,0.0,0.0,2
1704781121551695113,14981,1704781121551261694,gnss_link,0,1,36.90478662,118.16619022,5.749987220695319,0.0,0.0,0.0,0.0,0.0,0.0,0.0,0.0,0.0,2
1704781121652146395,14982,1704781121651748451,gnss_link,0,1,36.9047878,118.16618944,5.74963815484492,0.0,0.0,0.0,0.0,0.0,0.0,0.0,0.0,0.0,2
1704781121752044229,14983,1704781121751624158,gnss_link,0,1,36.904789,118.16618863,5.749987220695319,0.0,0.0,0.0,0.0,0.0,0.0,0.0,0.0,0.0,2
1704781121851242456,14984,1704781121850819161,gnss_link,0,1,36.90479024,118.16618776,5.751383484096913,0.0,0.0,0.0,0.0,0.0,0.0,0.0,0.0,0.0,2
1704781121951328891,14985,1704781121950998318,gnss_link,0,1,36.90479152,118.16618689,5.750859885321316,0.0,0.0,0.0,0.0,0.0,0.0,0.0,0.0,0.0,2
1704781122051272672,14986,1704781122051054851,gnss_link,0,1,36.90479282,118.16618605,5.751383484096913,0.0,0.0,0.0,0.0,0.0,0.0,0.0,0.0,0.0,2
1704781122151890166,14987,1704781122151373135,gnss_link,0,1,36.90479406,118.16618505,5.75260521457331,0.0,0.0,0.0,0.0,0.0,0.0,0.0,0.0,0.0,2
1704781122250665901,14988,1704781122250378064,gnss_link,0,1,36.90479536,118.16618419,5.753303346274108,0.0,0.0,0.0,0.0,0.0,0.0,0.0,0.0,0.0,2
1704781122351721365,14989,1704781122350983173,gnss_link,0,1,36.90479656,118.16618335,5.75277974749851,0.0,0.0,0.0,0.0,0.0,0.0,0.0,0.0,0.0,2
1704781122451531821,14990,1704781122450914615,gnss_link,0,1,36.9047977,118.16618256,5.75277974749851,0.0,0.0,0.0,0.0,0.0,0.0,0.0,0.0,0.0,2
1704781122551798264,14991,1704781122551213996,gnss_link,0,1,36.90479881,118.16618176,5.7531288133489085,0.0,0.0,0.0,0.0,0.0,0.0,0.0,0.0,0.0,2
1704781122651702364,14992,1704781122651232894,gnss_link,0,1,36.90479992,118.16618104,5.7531288133489085,0.0,0.0,0.0,0.0,0.0,0.0,0.0,0.0,0.0,2
1704781122751862572,14993,1704781122751398454,gnss_link,0,1,36.90480102,118.16618027,5.756968537703297,0.0,0.0,0.0,0.0,0.0,0.0,0.0,0.0,0.0,2
1704781122851109874,14994,1704781122850548187,gnss_link,0,1,36.90480214,118.16617953,5.763251723010475,0.0,0.0,0.0,0.0,0.0,0.0,0.0,0.0,0.0,2
1704781122951704822,14995,1704781122950906451,gnss_link,0,1,36.90480322,118.16617879,5.7684877107664585,0.0,0.0,0.0,0.0,0.0,0.0,0.0,0.0,0.0,2
1704781123051474701,14996,1704781123050937249,gnss_link,0,1,36.90480433,118.16617809,5.774596363148439,0.0,0.0,0.0,0.0,0.0,0.0,0.0,0.0,0.0,2
1704781123152025931,14997,1704781123151396210,gnss_link,0,1,36.90480543,118.16617737,5.780705015530419,0.0,0.0,0.0,0.0,0.0,0.0,0.0,0.0,0.0,2
1704781123251022458,14998,1704781123250234113,gnss_link,0,1,36.90480657,118.16617663,5.787511799613197,0.0,0.0,0.0,0.0,0.0,0.0,0.0,0.0,0.0,2
1704781123351114332,14999,1704781123350620201,gnss_link,0,1,36.90480773,118.16617591,5.792747787369179,0.0,0.0,0.0,0.0,0.0,0.0,0.0,0.0,0.0,2
1704781123451283651,15000,1704781123450697594,gnss_link,0,1,36.90480896,118.16617516,5.797634709274764,0.0,0.0,0.0,0.0,0.0,0.0,0.0,0.0,0.0,2
1704781123551642817,15001,1704781123551028897,gnss_link,0,1,36.90481017,118.16617435,5.801299900703952,0.0,0.0,0.0,0.0,0.0,0.0,0.0,0.0,0.0,2
1704781123651028122,15002,1704781123650537810,gnss_link,0,1,36.90481141,118.16617362,5.800950834853553,0.0,0.0,0.0,0.0,0.0,0.0,0.0,0.0,0.0,2
1704781123751639086,15003,1704781123751198596,gnss_link,0,1,36.90481257,118.16617289,5.799380038526758,0.0,0.0,0.0,0.0,0.0,0.0,0.0,0.0,0.0,2
1704781123851066242,15004,1704781123850439476,gnss_link,0,1,36.90481372,118.1661722,5.800078170227556,0.0,0.0,0.0,0.0,0.0,0.0,0.0,0.0,0.0,2
1704781123951257546,15005,1704781123950563354,gnss_link,0,1,36.90481484,118.16617149,5.79885643975116,0.0,0.0,0.0,0.0,0.0,0.0,0.0,0.0,0.0,2
1704781124051325589,15006,1704781124050646675,gnss_link,0,1,36.90481602,118.16617079,5.798158308050362,0.0,0.0,0.0,0.0,0.0,0.0,0.0,0.0,0.0,2
1704781124151640183,15007,1704781124151021552,gnss_link,0,1,36.90481718,118.16617004,5.797460176349564,0.0,0.0,0.0,0.0,0.0,0.0,0.0,0.0,0.0,2
1704781124250141989,15008,1704781124249604394,gnss_link,0,1,36.90481836,118.16616934,5.796587511723567,0.0,0.0,0.0,0.0,0.0,0.0,0.0,0.0,0.0,2
1704781124351086378,15009,1704781124350188337,gnss_link,0,1,36.90481951,118.16616859,5.796063912947969,0.0,0.0,0.0,0.0,0.0,0.0,0.0,0.0,0.0,2
1704781124451500447,15010,1704781124450272837,gnss_link,0,1,36.90482069,118.16616788,5.7950167153967715,0.0,0.0,0.0,0.0,0.0,0.0,0.0,0.0,0.0,2
1704781124551106434,15011,1704781124550539859,gnss_link,0,1,36.90482187,118.16616711,5.795365781247171,0.0,0.0,0.0,0.0,0.0,0.0,0.0,0.0,0.0,2
1704781124651720281,15012,1704781124650873986,gnss_link,0,1,36.90482311,118.16616635,5.795540314172371,0.0,0.0,0.0,0.0,0.0,0.0,0.0,0.0,0.0,2
1704781124751819034,15013,1704781124751227000,gnss_link,0,1,36.90482437,118.16616555,5.794667649546374,0.0,0.0,0.0,0.0,0.0,0.0,0.0,0.0,0.0,2
1704781124850701069,15014,1704781124850021401,gnss_link,0,1,36.90482569,118.16616475,5.793620451995177,0.0,0.0,0.0,0.0,0.0,0.0,0.0,0.0,0.0,2
1704781124950886254,15015,1704781124950062216,gnss_link,0,1,36.90482698,118.16616391,5.792747787369179,0.0,0.0,0.0,0.0,0.0,0.0,0.0,0.0,0.0,2
1704781125050915020,15016,1704781125050291988,gnss_link,0,1,36.9048283,118.16616308,5.793096853219579,0.0,0.0,0.0,0.0,0.0,0.0,0.0,0.0,0.0,2
1704781125150909155,15017,1704781125150427296,gnss_link,0,1,36.90482962,118.16616223,5.792049655668382,0.0,0.0,0.0,0.0,0.0,0.0,0.0,0.0,0.0,2
1704781125250214506,15018,1704781125249634276,gnss_link,0,1,36.90483097,118.16616142,5.791875122743183,0.0,0.0,0.0,0.0,0.0,0.0,0.0,0.0,0.0,2
1704781125350465094,15019,1704781125349846142,gnss_link,0,1,36.90483228,118.16616056,5.791875122743183,0.0,0.0,0.0,0.0,0.0,0.0,0.0,0.0,0.0,2
1704781125450594679,15020,1704781125450091035,gnss_link,0,1,36.90483365,118.16615971,5.792224188593582,0.0,0.0,0.0,0.0,0.0,0.0,0.0,0.0,0.0,2
1704781125551294062,15021,1704781125550417836,gnss_link,0,1,36.90483497,118.16615885,5.792922320294379,0.0,0.0,0.0,0.0,0.0,0.0,0.0,0.0,0.0,2
1704781125650268829,15022,1704781125649702268,gnss_link,0,1,36.90483631,118.166158,5.794318583695975,0.0,0.0,0.0,0.0,0.0,0.0,0.0,0.0,0.0,2
1704781125749953411,15023,1704781125749426345,gnss_link,0,1,36.90483763,118.16615717,5.794493116621174,0.0,0.0,0.0,0.0,0.0,0.0,0.0,0.0,0.0,2
1704781125850279587,15024,1704781125849700235,gnss_link,0,1,36.90483896,118.16615635,5.795191248321972,0.0,0.0,0.0,0.0,0.0,0.0,0.0,0.0,0.0,2
1704781125950627562,15025,1704781125949834240,gnss_link,0,1,36.90484026,118.16615552,5.797460176349564,0.0,0.0,0.0,0.0,0.0,0.0,0.0,0.0,0.0,2
1704781126050782642,15026,1704781126050071003,gnss_link,0,1,36.90484159,118.16615473,5.800601769003155,0.0,0.0,0.0,0.0,0.0,0.0,0.0,0.0,0.0,2
1704781126151169526,15027,1704781126150240857,gnss_link,0,1,36.90484289,118.16615389,5.805314157983539,0.0,0.0,0.0,0.0,0.0,0.0,0.0,0.0,0.0,2
1704781126249743624,15028,1704781126249262460,gnss_link,0,1,36.90484421,118.1661531,5.809153882337926,0.0,0.0,0.0,0.0,0.0,0.0,0.0,0.0,0.0,2
1704781126350477068,15029,1704781126349738819,gnss_link,0,1,36.90484552,118.16615229,5.814389870093909,0.0,0.0,0.0,0.0,0.0,0.0,0.0,0.0,0.0,2
1704781126450261996,15030,1704781126449734656,gnss_link,0,1,36.90484686,118.16615151,5.820673055401089,0.0,0.0,0.0,0.0,0.0,0.0,0.0,0.0,0.0,2
1704781126550496923,15031,1704781126549905875,gnss_link,0,1,36.9048482,118.1661507,5.827479839483867,0.0,0.0,0.0,0.0,0.0,0.0,0.0,0.0,0.0,2
1704781126649555622,15032,1704781126649020247,gnss_link,0,1,36.90484954,118.16614997,5.8332394260154485,0.0,0.0,0.0,0.0,0.0,0.0,0.0,0.0,0.0,2
1704781126749800952,15033,1704781126749290871,gnss_link,0,1,36.90485089,118.1661492,5.8398716771730275,0.0,0.0,0.0,0.0,0.0,0.0,0.0,0.0,0.0,2
1704781126850155299,15034,1704781126849435391,gnss_link,0,1,36.90485222,118.16614847,5.843536868602214,0.0,0.0,0.0,0.0,0.0,0.0,0.0,0.0,0.0,2
1704781126950072876,15035,1704781126949578358,gnss_link,0,1,36.90485353,118.16614772,5.846154862480206,0.0,0.0,0.0,0.0,0.0,0.0,0.0,0.0,0.0,2
1704781127050285937,15036,1704781127049704496,gnss_link,0,1,36.90485475,118.16614708,5.845980329555006,0.0,0.0,0.0,0.0,0.0,0.0,0.0,0.0,0.0,2
1704781127150734177,15037,1704781127150022311,gnss_link,0,1,36.9048559,118.16614643,5.846329395405406,0.0,0.0,0.0,0.0,0.0,0.0,0.0,0.0,0.0,2
1704781127249560227,15038,1704781127249041683,gnss_link,0,1,36.90485704,118.16614585,5.847551125881802,0.0,0.0,0.0,0.0,0.0,0.0,0.0,0.0,0.0,2
1704781127349560702,15039,1704781127349110643,gnss_link,0,1,36.90485817,118.16614522,5.846678461255805,0.0,0.0,0.0,0.0,0.0,0.0,0.0,0.0,0.0,2
1704781127449842406,15040,1704781127449372586,gnss_link,0,1,36.90485939,118.16614455,5.847900191732201,0.0,0.0,0.0,0.0,0.0,0.0,0.0,0.0,0.0,2
1704781127549937656,15041,1704781127549482690,gnss_link,0,1,36.90486064,118.1661439,5.846852994181004,0.0,0.0,0.0,0.0,0.0,0.0,0.0,0.0,0.0,2
1704781127649443806,15042,1704781127648783652,gnss_link,0,1,36.90486199,118.16614312,5.846852994181004,0.0,0.0,0.0,0.0,0.0,0.0,0.0,0.0,0.0,2
1704781127749391122,15043,1704781127748916435,gnss_link,0,1,36.90486328,118.16614237,5.848772856358198,0.0,0.0,0.0,0.0,0.0,0.0,0.0,0.0,0.0,2
1704781127849531425,15044,1704781127849074228,gnss_link,0,1,36.9048647,118.16614167,5.848423790507798,0.0,0.0,0.0,0.0,0.0,0.0,0.0,0.0,0.0,2
1704781127950183487,15045,1704781127949386394,gnss_link,0,1,36.90486606,118.1661409,5.8498200539093945,0.0,0.0,0.0,0.0,0.0,0.0,0.0,0.0,0.0,2
1704781128049986343,15046,1704781128049441773,gnss_link,0,1,36.90486747,118.16614015,5.849470988058995,0.0,0.0,0.0,0.0,0.0,0.0,0.0,0.0,0.0,2
1704781128150299840,15047,1704781128149703668,gnss_link,0,1,36.90486884,118.1661394,5.850692718535392,0.0,0.0,0.0,0.0,0.0,0.0,0.0,0.0,0.0,2
1704781128249404222,15048,1704781128248744630,gnss_link,0,1,36.90487022,118.1661386,5.852263514862186,0.0,0.0,0.0,0.0,0.0,0.0,0.0,0.0,0.0,2
1704781128349442222,15049,1704781128348912993,gnss_link,0,1,36.90487158,118.16613786,5.851914449011788,0.0,0.0,0.0,0.0,0.0,0.0,0.0,0.0,0.0,2
1704781128449223022,15050,1704781128448776094,gnss_link,0,1,36.90487297,118.16613716,5.853310712413383,0.0,0.0,0.0,0.0,0.0,0.0,0.0,0.0,0.0,2
1704781128549760362,15051,1704781128549282052,gnss_link,0,1,36.90487431,118.16613641,5.853659778263782,0.0,0.0,0.0,0.0,0.0,0.0,0.0,0.0,0.0,2
1704781128649096901,15052,1704781128648402586,gnss_link,0,1,36.90487569,118.16613572,5.852088981936987,0.0,0.0,0.0,0.0,0.0,0.0,0.0,0.0,0.0,2
1704781128749292084,15053,1704781128748711192,gnss_link,0,1,36.90487702,118.16613497,5.852961646562984,0.0,0.0,0.0,0.0,0.0,0.0,0.0,0.0,0.0,2
1704781128849642121,15054,1704781128849098984,gnss_link,0,1,36.90487835,118.16613423,5.853834311188981,0.0,0.0,0.0,0.0,0.0,0.0,0.0,0.0,0.0,2
1704781128949464498,15055,1704781128948904872,gnss_link,0,1,36.90487955,118.16613357,5.85418337703938,0.0,0.0,0.0,0.0,0.0,0.0,0.0,0.0,0.0,2
1704781129049623689,15056,1704781129049103566,gnss_link,0,1,36.90488071,118.16613298,5.858023101393767,0.0,0.0,0.0,0.0,0.0,0.0,0.0,0.0,0.0,2
1704781129149872033,15057,1704781129149325404,gnss_link,0,1,36.90488179,118.16613241,5.865702550102543,0.0,0.0,0.0,0.0,0.0,0.0,0.0,0.0,0.0,2
1704781129249224668,15058,1704781129248571219,gnss_link,0,1,36.90488289,118.16613187,5.872509334185321,0.0,0.0,0.0,0.0,0.0,0.0,0.0,0.0,0.0,2
1704781129349205121,15059,1704781129348735012,gnss_link,0,1,36.90488392,118.16613134,5.878268920716902,0.0,0.0,0.0,0.0,0.0,0.0,0.0,0.0,0.0,2
1704781129449341133,15060,1704781129448869757,gnss_link,0,1,36.90488504,118.16613079,5.886122902350876,0.0,0.0,0.0,0.0,0.0,0.0,0.0,0.0,0.0,2
1704781129549577110,15061,1704781129549010900,gnss_link,0,1,36.90488615,118.16613024,5.896594877862843,0.0,0.0,0.0,0.0,0.0,0.0,0.0,0.0,0.0,2
1704781129648983750,15062,1704781129648310142,gnss_link,0,1,36.90488725,118.16612969,5.9070668533748085,0.0,0.0,0.0,0.0,0.0,0.0,0.0,0.0,0.0,2
1704781129748910512,15063,1704781129748365292,gnss_link,0,1,36.90488842,118.1661292,5.913873637457586,0.0,0.0,0.0,0.0,0.0,0.0,0.0,0.0,0.0,2
1704781129849106461,15064,1704781129848516163,gnss_link,0,1,36.9048896,118.16612874,5.918411493512772,0.0,0.0,0.0,0.0,0.0,0.0,0.0,0.0,0.0,2
1704781129949240750,15065,1704781129948640218,gnss_link,0,1,36.90489072,118.1661282,5.924869211745151,0.0,0.0,0.0,0.0,0.0,0.0,0.0,0.0,0.0,2
1704781130049405186,15066,1704781130048888954,gnss_link,0,1,36.90489189,118.16612769,5.9302797324263326,0.0,0.0,0.0,0.0,0.0,0.0,0.0,0.0,0.0,2
1704781130149602683,15067,1704781130149066267,gnss_link,0,1,36.90489303,118.16612724,5.932723193379125,0.0,0.0,0.0,0.0,0.0,0.0,0.0,0.0,0.0,2
1704781130248594188,15068,1704781130248137811,gnss_link,0,1,36.90489421,118.16612672,5.932548660453926,0.0,0.0,0.0,0.0,0.0,0.0,0.0,0.0,0.0,2
1704781130348956801,15069,1704781130348372336,gnss_link,0,1,36.90489536,118.16612622,5.93115239705233,0.0,0.0,0.0,0.0,0.0,0.0,0.0,0.0,0.0,2
1704781130449257679,15070,1704781130448553373,gnss_link,0,1,36.90489656,118.16612576,5.929756133650734,0.0,0.0,0.0,0.0,0.0,0.0,0.0,0.0,0.0,2
1704781130549198448,15071,1704781130548740168,gnss_link,0,1,36.90489772,118.16612523,5.930803331201932,0.0,0.0,0.0,0.0,0.0,0.0,0.0,0.0,0.0,2
1704781130648283337,15072,1704781130647842734,gnss_link,0,1,36.90489889,118.16612469,5.9302797324263326,0.0,0.0,0.0,0.0,0.0,0.0,0.0,0.0,0.0,2
1704781130748379810,15073,1704781130747919513,gnss_link,0,1,36.90490004,118.16612421,5.929232534875137,0.0,0.0,0.0,0.0,0.0,0.0,0.0,0.0,0.0,2
1704781130848827567,15074,1704781130848231201,gnss_link,0,1,36.90490115,118.16612371,5.93115239705233,0.0,0.0,0.0,0.0,0.0,0.0,0.0,0.0,0.0,2
1704781130948798092,15075,1704781130948278568,gnss_link,0,1,36.9049022,118.1661232,5.933072259229524,0.0,0.0,0.0,0.0,0.0,0.0,0.0,0.0,0.0,2
1704781131048992609,15076,1704781131048497179,gnss_link,0,1,36.90490342,118.16612279,5.927138139772744,0.0,0.0,0.0,0.0,0.0,0.0,0.0,0.0,0.0,2
1704781131149377715,15077,1704781131148792223,gnss_link,0,1,36.90490455,118.16612237,5.9302797324263326,0.0,0.0,0.0,0.0,0.0,0.0,0.0,0.0,0.0,2
1704781131248595961,15078,1704781131247967609,gnss_link,0,1,36.90490572,118.16612181,5.940228109162701,0.0,0.0,0.0,0.0,0.0,0.0,0.0,0.0,0.0,2
1704781131348534789,15079,1704781131348002237,gnss_link,0,1,36.90490685,118.16612134,5.949827420048669,0.0,0.0,0.0,0.0,0.0,0.0,0.0,0.0,0.0,2
1704781131448773369,15080,1704781131448215593,gnss_link,0,1,36.90490804,118.16612088,5.95907766508424,0.0,0.0,0.0,0.0,0.0,0.0,0.0,0.0,0.0,2
1704781131550558786,15081,1704781131549721554,gnss_link,0,1,36.90490918,118.16612033,5.970422305222202,0.0,0.0,0.0,0.0,0.0,0.0,0.0,0.0,0.0,2
1704781131648322700,15082,1704781131647922126,gnss_link,0,1,36.90491037,118.16611989,5.980021616108171,0.0,0.0,0.0,0.0,0.0,0.0,0.0,0.0,0.0,2
1704781131748435379,15083,1704781131748125413,gnss_link,0,1,36.90491153,118.16611957,5.990319058694938,0.0,0.0,0.0,0.0,0.0,0.0,0.0,0.0,0.0,2
1704781131848735074,15084,1704781131848287523,gnss_link,0,1,36.90491273,118.16611919,5.998347573254112,0.0,0.0,0.0,0.0,0.0,0.0,0.0,0.0,0.0,2
1704781131948919557,15085,1704781131948413432,gnss_link,0,1,36.90491387,118.16611874,6.0062015548880865,0.0,0.0,0.0,0.0,0.0,0.0,0.0,0.0,0.0,2
1704781132048423334,15086,1704781132047770147,gnss_link,0,1,36.90491506,118.16611836,6.015800865774056,0.0,0.0,0.0,0.0,0.0,0.0,0.0,0.0,0.0,2
1704781132148345250,15087,1704781132147851945,gnss_link,0,1,36.90491625,118.16611806,6.022258584006434,0.0,0.0,0.0,0.0,0.0,0.0,0.0,0.0,0.0,2
1704781132248537085,15088,1704781132248034311,gnss_link,0,1,36.90491743,118.16611771,6.0306361644160065,0.0,0.0,0.0,0.0,0.0,0.0,0.0,0.0,0.0,2
1704781132348233840,15089,1704781132347966753,gnss_link,0,1,36.90491861,118.16611735,6.036570283872788,0.0,0.0,0.0,0.0,0.0,0.0,0.0,0.0,0.0,2
1704781132447830994,15090,1704781132447360008,gnss_link,0,1,36.90491986,118.16611702,6.042504403329568,0.0,0.0,0.0,0.0,0.0,0.0,0.0,0.0,0.0,2
1704781132547672024,15091,1704781132547380499,gnss_link,0,1,36.90492104,118.16611671,6.050183852038343,0.0,0.0,0.0,0.0,0.0,0.0,0.0,0.0,0.0,2
1704781132647790752,15092,1704781132647522281,gnss_link,0,1,36.90492229,118.16611633,6.059608629999112,0.0,0.0,0.0,0.0,0.0,0.0,0.0,0.0,0.0,2
1704781132748004033,15093,1704781132747712119,gnss_link,0,1,36.90492346,118.166116,6.063971953129099,0.0,0.0,0.0,0.0,0.0,0.0,0.0,0.0,0.0,2
1704781132848850969,15094,1704781132848210000,gnss_link,0,1,36.90492472,118.16611571,6.067811677483487,0.0,0.0,0.0,0.0,0.0,0.0,0.0,0.0,0.0,2
1704781132948590412,15095,1704781132948168413,gnss_link,0,1,36.90492587,118.1661154,6.0679862104086855,0.0,0.0,0.0,0.0,0.0,0.0,0.0,0.0,0.0,2
1704781133048043012,15096,1704781133047533215,gnss_link,0,1,36.90492709,118.16611511,6.066415414081891,0.0,0.0,0.0,0.0,0.0,0.0,0.0,0.0,0.0,2
1704781133147474751,15097,1704781133147278195,gnss_link,0,1,36.90492827,118.16611487,6.066415414081891,0.0,0.0,0.0,0.0,0.0,0.0,0.0,0.0,0.0,2
1704781133248184778,15098,1704781133247748683,gnss_link,0,1,36.90492948,118.16611456,6.065368216530694,0.0,0.0,0.0,0.0,0.0,0.0,0.0,0.0,0.0,2
1704781133348022334,15099,1704781133347702775,gnss_link,0,1,36.90493064,118.16611422,6.066240881156691,0.0,0.0,0.0,0.0,0.0,0.0,0.0,0.0,0.0,2
1704781133447163636,15100,1704781133446693921,gnss_link,0,1,36.90493184,118.16611392,6.065193683605495,0.0,0.0,0.0,0.0,0.0,0.0,0.0,0.0,0.0,2
1704781133547818823,15101,1704781133547342642,gnss_link,0,1,36.90493302,118.16611361,6.065193683605495,0.0,0.0,0.0,0.0,0.0,0.0,0.0,0.0,0.0,2
1704781133648156537,15102,1704781133647513362,gnss_link,0,1,36.90493424,118.16611327,6.0679862104086855,0.0,0.0,0.0,0.0,0.0,0.0,0.0,0.0,0.0,2
1704781133747924994,15103,1704781133747441871,gnss_link,0,1,36.90493541,118.16611301,6.066415414081891,0.0,0.0,0.0,0.0,0.0,0.0,0.0,0.0,0.0,2
1704781133847436553,15104,1704781133846879095,gnss_link,0,1,36.90493666,118.16611273,6.066240881156691,0.0,0.0,0.0,0.0,0.0,0.0,0.0,0.0,0.0,2
1704781133947505633,15105,1704781133946922346,gnss_link,0,1,36.90493784,118.1661124,6.066939012857489,0.0,0.0,0.0,0.0,0.0,0.0,0.0,0.0,0.0,2
1704781134047672731,15106,1704781134047083838,gnss_link,0,1,36.90493907,118.16611212,6.066939012857489,0.0,0.0,0.0,0.0,0.0,0.0,0.0,0.0,0.0,2
1704781134147688719,15107,1704781134147194344,gnss_link,0,1,36.90494025,118.16611183,6.067113545782688,0.0,0.0,0.0,0.0,0.0,0.0,0.0,0.0,0.0,2
1704781134247982541,15108,1704781134247430095,gnss_link,0,1,36.90494147,118.16611151,6.068684342109483,0.0,0.0,0.0,0.0,0.0,0.0,0.0,0.0,0.0,2
1704781134348091015,15109,1704781134347552067,gnss_link,0,1,36.90494266,118.16611123,6.069382473810281,0.0,0.0,0.0,0.0,0.0,0.0,0.0,0.0,0.0,2
1704781134447507005,15110,1704781134446827240,gnss_link,0,1,36.90494389,118.16611097,6.069382473810281,0.0,0.0,0.0,0.0,0.0,0.0,0.0,0.0,0.0,2
1704781134547535919,15111,1704781134546994077,gnss_link,0,1,36.90494508,118.16611065,6.070953270137076,0.0,0.0,0.0,0.0,0.0,0.0,0.0,0.0,0.0,2
1704781134647257475,15112,1704781134646692532,gnss_link,0,1,36.90494632,118.16611036,6.0721750006134725,0.0,0.0,0.0,0.0,0.0,0.0,0.0,0.0,0.0,2
1704781134747834953,15113,1704781134747367272,gnss_link,0,1,36.90494752,118.16611009,6.072000467688272,0.0,0.0,0.0,0.0,0.0,0.0,0.0,0.0,0.0,2
1704781134847015213,15114,1704781134846508672,gnss_link,0,1,36.90494875,118.16610976,6.073047665239469,0.0,0.0,0.0,0.0,0.0,0.0,0.0,0.0,0.0,2
1704781134946989565,15115,1704781134946554691,gnss_link,0,1,36.90494995,118.16610948,6.073745796940266,0.0,0.0,0.0,0.0,0.0,0.0,0.0,0.0,0.0,2
1704781135046893336,15116,1704781135046387543,gnss_link,0,1,36.90495117,118.16610921,6.074618461566264,0.0,0.0,0.0,0.0,0.0,0.0,0.0,0.0,0.0,2
1704781135147552018,15117,1704781135147142275,gnss_link,0,1,36.90495237,118.16610889,6.0767128566686575,0.0,0.0,0.0,0.0,0.0,0.0,0.0,0.0,0.0,2
1704781135247872954,15118,1704781135247244315,gnss_link,0,1,36.90495358,118.16610863,6.077236455444256,0.0,0.0,0.0,0.0,0.0,0.0,0.0,0.0,0.0,2
1704781135347888687,15119,1704781135347350222,gnss_link,0,1,36.90495477,118.16610836,6.07863271884585,0.0,0.0,0.0,0.0,0.0,0.0,0.0,0.0,0.0,2
1704781135446980219,15120,1704781135446446270,gnss_link,0,1,36.90495597,118.16610807,6.081250712723842,0.0,0.0,0.0,0.0,0.0,0.0,0.0,0.0,0.0,2
1704781135547034820,15121,1704781135546522048,gnss_link,0,1,36.90495717,118.16610781,6.081599778574241,0.0,0.0,0.0,0.0,0.0,0.0,0.0,0.0,0.0,2
1704781135647300770,15122,1704781135646785908,gnss_link,0,1,36.90495839,118.16610756,6.081948844424641,0.0,0.0,0.0,0.0,0.0,0.0,0.0,0.0,0.0,2
1704781135747302734,15123,1704781135746895616,gnss_link,0,1,36.90495957,118.16610725,6.083170574901037,0.0,0.0,0.0,0.0,0.0,0.0,0.0,0.0,0.0,2
1704781135846792057,15124,1704781135846254930,gnss_link,0,1,36.90496078,118.16610698,6.0845668383026315,0.0,0.0,0.0,0.0,0.0,0.0,0.0,0.0,0.0,2
1704781135946763347,15125,1704781135946303516,gnss_link,0,1,36.90496198,118.16610672,6.0854395029286295,0.0,0.0,0.0,0.0,0.0,0.0,0.0,0.0,0.0,2
1704781136047010979,15126,1704781136046419629,gnss_link,0,1,36.90496318,118.16610644,6.086486700479826,0.0,0.0,0.0,0.0,0.0,0.0,0.0,0.0,0.0,2
1704781136147245179,15127,1704781136146715489,gnss_link,0,1,36.90496438,118.16610617,6.086835766330224,0.0,0.0,0.0,0.0,0.0,0.0,0.0,0.0,0.0,2
1704781136247405955,15128,1704781136246871911,gnss_link,0,1,36.9049656,118.16610591,6.087359365105822,0.0,0.0,0.0,0.0,0.0,0.0,0.0,0.0,0.0,2
1704781136347645842,15129,1704781136347066318,gnss_link,0,1,36.90496679,118.16610564,6.087882963881421,0.0,0.0,0.0,0.0,0.0,0.0,0.0,0.0,0.0,2
1704781136446803328,15130,1704781136446240726,gnss_link,0,1,36.90496797,118.16610538,6.088232029731819,0.0,0.0,0.0,0.0,0.0,0.0,0.0,0.0,0.0,2
1704781136546833786,15131,1704781136546334149,gnss_link,0,1,36.90496915,118.16610511,6.088581095582219,0.0,0.0,0.0,0.0,0.0,0.0,0.0,0.0,0.0,2
1704781136646992216,15132,1704781136646470891,gnss_link,0,1,36.90497034,118.16610489,6.089628293133416,0.0,0.0,0.0,0.0,0.0,0.0,0.0,0.0,0.0,2
1704781136747321583,15133,1704781136746769133,gnss_link,0,1,36.90497151,118.16610467,6.089104694357816,0.0,0.0,0.0,0.0,0.0,0.0,0.0,0.0,0.0,2
1704781136846686029,15134,1704781136846002129,gnss_link,0,1,36.90497276,118.16610436,6.0953878796649965,0.0,0.0,0.0,0.0,0.0,0.0,0.0,0.0,0.0,2
1704781136946481872,15135,1704781136946016472,gnss_link,0,1,36.90497396,118.16610407,6.101671064972177,0.0,0.0,0.0,0.0,0.0,0.0,0.0,0.0,0.0,2
1704781137046680719,15136,1704781137046175571,gnss_link,0,1,36.90497521,118.16610383,6.106383453952561,0.0,0.0,0.0,0.0,0.0,0.0,0.0,0.0,0.0,2
1704781137146890591,15137,1704781137146414185,gnss_link,0,1,36.90497641,118.16610355,6.113364770960538,0.0,0.0,0.0,0.0,0.0,0.0,0.0,0.0,0.0,2
1704781137247075414,15138,1704781137246509208,gnss_link,0,1,36.90497765,118.16610334,6.117204495314926,0.0,0.0,0.0,0.0,0.0,0.0,0.0,0.0,0.0,2
1704781137347234607,15139,1704781137346676700,gnss_link,0,1,36.90497889,118.16610318,6.122265950145708,0.0,0.0,0.0,0.0,0.0,0.0,0.0,0.0,0.0,2
1704781137446562181,15140,1704781137446009471,gnss_link,0,1,36.90498009,118.16610301,6.125756608649698,0.0,0.0,0.0,0.0,0.0,0.0,0.0,0.0,0.0,2
1704781137546464177,15141,1704781137546000647,gnss_link,0,1,36.9049813,118.16610273,6.129247267153687,0.0,0.0,0.0,0.0,0.0,0.0,0.0,0.0,0.0,2
1704781137646980215,15142,1704781137646342065,gnss_link,0,1,36.90498252,118.16610256,6.131167129330881,0.0,0.0,0.0,0.0,0.0,0.0,0.0,0.0,0.0,2
1704781137746951737,15143,1704781137746357000,gnss_link,0,1,36.90498374,118.16610238,6.132563392732476,0.0,0.0,0.0,0.0,0.0,0.0,0.0,0.0,0.0,2
1704781137846078301,15144,1704781137845502889,gnss_link,0,1,36.90498497,118.16610217,6.133785123208872,0.0,0.0,0.0,0.0,0.0,0.0,0.0,0.0,0.0,2
1704781137946247456,15145,1704781137945746530,gnss_link,0,1,36.90498617,118.166102,6.132214326882077,0.0,0.0,0.0,0.0,0.0,0.0,0.0,0.0,0.0,2
1704781138046445027,15146,1704781138045928227,gnss_link,0,1,36.90498738,118.1661019,6.124185812322903,0.0,0.0,0.0,0.0,0.0,0.0,0.0,0.0,0.0,2
1704781138146517370,15147,1704781138146040274,gnss_link,0,1,36.90498859,118.16610158,6.123836746472504,0.0,0.0,0.0,0.0,0.0,0.0,0.0,0.0,0.0,2
1704781138246746934,15148,1704781138246234489,gnss_link,0,1,36.90498982,118.16610133,6.128025536677291,0.0,0.0,0.0,0.0,0.0,0.0,0.0,0.0,0.0,2
1704781138346891156,15149,1704781138346394489,gnss_link,0,1,36.90499103,118.16610118,6.126803806200895,0.0,0.0,0.0,0.0,0.0,0.0,0.0,0.0,0.0,2
1704781138446469404,15150,1704781138445810996,gnss_link,0,1,36.90499227,118.166101,6.1250584769489,0.0,0.0,0.0,0.0,0.0,0.0,0.0,0.0,0.0,2
1704781138546425707,15151,1704781138545871966,gnss_link,0,1,36.90499349,118.16610075,6.12820006960249,0.0,0.0,0.0,0.0,0.0,0.0,0.0,0.0,0.0,2
1704781138646597910,15152,1704781138646021132,gnss_link,0,1,36.9049947,118.1661006,6.131690728106478,0.0,0.0,0.0,0.0,0.0,0.0,0.0,0.0,0.0,2
1704781138746580913,15153,1704781138746108868,gnss_link,0,1,36.90499585,118.16610039,6.142686302394043,0.0,0.0,0.0,0.0,0.0,0.0,0.0,0.0,0.0,2
1704781138846175641,15154,1704781138845645392,gnss_link,0,1,36.90499707,118.16610015,6.150016685252419,0.0,0.0,0.0,0.0,0.0,0.0,0.0,0.0,0.0,2
1704781138945960708,15155,1704781138945451143,gnss_link,0,1,36.90499829,118.16610002,6.156648936409997,0.0,0.0,0.0,0.0,0.0,0.0,0.0,0.0,0.0,2
1704781139046082112,15156,1704781139045628077,gnss_link,0,1,36.90499952,118.16609986,6.16520104974477,0.0,0.0,0.0,0.0,0.0,0.0,0.0,0.0,0.0,2
1704781139146370754,15157,1704781139145801616,gnss_link,0,1,36.9050007,118.16609971,6.174451294780339,0.0,0.0,0.0,0.0,0.0,0.0,0.0,0.0,0.0,2
1704781139246706643,15158,1704781139246088176,gnss_link,0,1,36.90500193,118.16609956,6.184923270292305,0.0,0.0,0.0,0.0,0.0,0.0,0.0,0.0,0.0,2
1704781139346794217,15159,1704781139346174242,gnss_link,0,1,36.90500313,118.16609944,6.190857389749086,0.0,0.0,0.0,0.0,0.0,0.0,0.0,0.0,0.0,2
1704781139445751266,15160,1704781139445298506,gnss_link,0,1,36.9050044,118.16609937,6.1978387067570635,0.0,0.0,0.0,0.0,0.0,0.0,0.0,0.0,0.0,2
1704781139546022956,15161,1704781139545524247,gnss_link,0,1,36.90500561,118.16609928,6.202725628662647,0.0,0.0,0.0,0.0,0.0,0.0,0.0,0.0,0.0,2
1704781139646274062,15162,1704781139645720036,gnss_link,0,1,36.90500687,118.16609918,6.2053436225406395,0.0,0.0,0.0,0.0,0.0,0.0,0.0,0.0,0.0,2
1704781139746293355,15163,1704781139745776622,gnss_link,0,1,36.90500808,118.16609905,6.211452274922619,0.0,0.0,0.0,0.0,0.0,0.0,0.0,0.0,0.0,2
1704781139845652349,15164,1704781139844987261,gnss_link,0,1,36.90500932,118.16609897,6.212324939548616,0.0,0.0,0.0,0.0,0.0,0.0,0.0,0.0,0.0,2
1704781139945713653,15165,1704781139945172495,gnss_link,0,1,36.90501054,118.1660989,6.212674005399015,0.0,0.0,0.0,0.0,0.0,0.0,0.0,0.0,0.0,2
1704781140046127831,15166,1704781140045504633,gnss_link,0,1,36.90501177,118.16609881,6.213721202950212,0.0,0.0,0.0,0.0,0.0,0.0,0.0,0.0,0.0,2
1704781140145938437,15167,1704781140145406293,gnss_link,0,1,36.90501298,118.16609875,6.214244801725811,0.0,0.0,0.0,0.0,0.0,0.0,0.0,0.0,0.0,2
1704781140246300750,15168,1704781140245734042,gnss_link,0,1,36.90501421,118.16609866,6.2152919992770075,0.0,0.0,0.0,0.0,0.0,0.0,0.0,0.0,0.0,2
1704781140346423133,15169,1704781140345888500,gnss_link,0,1,36.90501543,118.16609857,6.217735460229799,0.0,0.0,0.0,0.0,0.0,0.0,0.0,0.0,0.0,2
1704781140445377531,15170,1704781140444921074,gnss_link,0,1,36.90501667,118.1660985,6.220877052883389,0.0,0.0,0.0,0.0,0.0,0.0,0.0,0.0,0.0,2
1704781140545562208,15171,1704781140545037434,gnss_link,0,1,36.90501789,118.16609843,6.222796915060583,0.0,0.0,0.0,0.0,0.0,0.0,0.0,0.0,0.0,2
1704781140645860243,15172,1704781140645461415,gnss_link,0,1,36.90501913,118.16609837,6.225065843088175,0.0,0.0,0.0,0.0,0.0,0.0,0.0,0.0,0.0,2
1704781140746017195,15173,1704781140745457834,gnss_link,0,1,36.90502036,118.16609829,6.2306508966945575,0.0,0.0,0.0,0.0,0.0,0.0,0.0,0.0,0.0,2
1704781140845299943,15174,1704781140844799475,gnss_link,0,1,36.90502159,118.16609825,6.2339670222733465,0.0,0.0,0.0,0.0,0.0,0.0,0.0,0.0,0.0,2
1704781140945176255,15175,1704781140944555396,gnss_link,0,1,36.90502282,118.16609821,6.234839686899344,0.0,0.0,0.0,0.0,0.0,0.0,0.0,0.0,0.0,2
1704781141045993805,15176,1704781141045413098,gnss_link,0,1,36.90502406,118.16609815,6.236934082001737,0.0,0.0,0.0,0.0,0.0,0.0,0.0,0.0,0.0,2
1704781141145447780,15177,1704781141145130632,gnss_link,0,1,36.9050253,118.1660981,6.23885394417893,0.0,0.0,0.0,0.0,0.0,0.0,0.0,0.0,0.0,2
1704781141245774298,15178,1704781141245208956,gnss_link,0,1,36.90502653,118.1660981,6.240948339281323,0.0,0.0,0.0,0.0,0.0,0.0,0.0,0.0,0.0,2
1704781141345856189,15179,1704781141345344892,gnss_link,0,1,36.90502776,118.16609803,6.242519135608119,0.0,0.0,0.0,0.0,0.0,0.0,0.0,0.0,0.0,2
1704781141445167153,15180,1704781141444605989,gnss_link,0,1,36.90502899,118.16609803,6.242868201458517,0.0,0.0,0.0,0.0,0.0,0.0,0.0,0.0,0.0,2
1704781141545291527,15181,1704781141544763073,gnss_link,0,1,36.9050302,118.16609798,6.2451371294861096,0.0,0.0,0.0,0.0,0.0,0.0,0.0,0.0,0.0,2
1704781141645721982,15182,1704781141645023171,gnss_link,0,1,36.9050313,118.16609799,6.244962596560911,0.0,0.0,0.0,0.0,0.0,0.0,0.0,0.0,0.0,2
1704781141745545141,15183,1704781141745008688,gnss_link,0,1,36.90503232,118.16609795,6.2451371294861096,0.0,0.0,0.0,0.0,0.0,0.0,0.0,0.0,0.0,2
1704781141845223709,15184,1704781141844627586,gnss_link,0,1,36.9050333,118.16609796,6.245486195336508,0.0,0.0,0.0,0.0,0.0,0.0,0.0,0.0,0.0,2
1704781141944867287,15185,1704781141944308122,gnss_link,0,1,36.90503427,118.16609793,6.245835261186908,0.0,0.0,0.0,0.0,0.0,0.0,0.0,0.0,0.0,2
1704781142045198497,15186,1704781142044660162,gnss_link,0,1,36.90503534,118.16609792,6.2460097941121075,0.0,0.0,0.0,0.0,0.0,0.0,0.0,0.0,0.0,2
1704781142145293971,15187,1704781142144769906,gnss_link,0,1,36.90503643,118.16609788,6.247056991663304,0.0,0.0,0.0,0.0,0.0,0.0,0.0,0.0,0.0,2
1704781142245512439,15188,1704781142244990614,gnss_link,0,1,36.9050376,118.16609788,6.247406057513702,0.0,0.0,0.0,0.0,0.0,0.0,0.0,0.0,0.0,2
1704781142345665628,15189,1704781142345112208,gnss_link,0,1,36.9050388,118.16609786,6.247929656289301,0.0,0.0,0.0,0.0,0.0,0.0,0.0,0.0,0.0,2
1704781142444631635,15190,1704781142444028989,gnss_link,0,1,36.90504005,118.16609782,6.249151386765697,0.0,0.0,0.0,0.0,0.0,0.0,0.0,0.0,0.0,2
1704781142546272855,15191,1704781142545689169,gnss_link,0,1,36.90504126,118.1660978,6.249849518466494,0.0,0.0,0.0,0.0,0.0,0.0,0.0,0.0,0.0,2
1704781142644779011,15192,1704781142644092333,gnss_link,0,1,36.9050424,118.1660978,6.249500452616096,0.0,0.0,0.0,0.0,0.0,0.0,0.0,0.0,0.0,2
1704781142744777945,15193,1704781142744242540,gnss_link,0,1,36.90504343,118.16609778,6.251594847718489,0.0,0.0,0.0,0.0,0.0,0.0,0.0,0.0,0.0,2
1704781142844919780,15194,1704781142844405319,gnss_link,0,1,36.90504443,118.16609774,6.252292979419287,0.0,0.0,0.0,0.0,0.0,0.0,0.0,0.0,0.0,2
1704781142945041067,15195,1704781142944473450,gnss_link,0,1,36.9050454,118.16609773,6.25142031479329,0.0,0.0,0.0,0.0,0.0,0.0,0.0,0.0,0.0,2
1704781143045507025,15196,1704781143044824538,gnss_link,0,1,36.90504643,118.16609777,6.2517693806436885,0.0,0.0,0.0,0.0,0.0,0.0,0.0,0.0,0.0,2
1704781143144503421,15197,1704781143144033333,gnss_link,0,1,36.90504751,118.16609773,6.252642045269686,0.0,0.0,0.0,0.0,0.0,0.0,0.0,0.0,0.0,2
1704781143244862316,15198,1704781143244185286,gnss_link,0,1,36.90504863,118.16609772,6.251943913568888,0.0,0.0,0.0,0.0,0.0,0.0,0.0,0.0,0.0,2
1704781143345175032,15199,1704781143344464343,gnss_link,0,1,36.90504982,118.1660977,6.252816578194885,0.0,0.0,0.0,0.0,0.0,0.0,0.0,0.0,0.0,2
1704781143445159904,15200,1704781143444535554,gnss_link,0,1,36.90505105,118.16609771,6.252118446494088,0.0,0.0,0.0,0.0,0.0,0.0,0.0,0.0,0.0,2
1704781143545221091,15201,1704781143544655000,gnss_link,0,1,36.90505229,118.16609766,6.252292979419287,0.0,0.0,0.0,0.0,0.0,0.0,0.0,0.0,0.0,2
1704781143644607312,15202,1704781143644171196,gnss_link,0,1,36.90505356,118.16609761,6.254038308671281,0.0,0.0,0.0,0.0,0.0,0.0,0.0,0.0,0.0,2
1704781143744380578,15203,1704781143743919941,gnss_link,0,1,36.9050548,118.16609757,6.255783637923275,0.0,0.0,0.0,0.0,0.0,0.0,0.0,0.0,0.0,2
1704781143844624966,15204,1704781143844132030,gnss_link,0,1,36.9050561,118.16609757,6.254561907446879,0.0,0.0,0.0,0.0,0.0,0.0,0.0,0.0,0.0,2
1704781143945009566,15205,1704781143944407242,gnss_link,0,1,36.90505736,118.16609754,6.256656302549273,0.0,0.0,0.0,0.0,0.0,0.0,0.0,0.0,0.0,2
1704781144044121815,15206,1704781144043530193,gnss_link,0,1,36.90505862,118.16609751,6.257179901324871,0.0,0.0,0.0,0.0,0.0,0.0,0.0,0.0,0.0,2
1704781144144376030,15207,1704781144143766355,gnss_link,0,1,36.90505987,118.16609749,6.255609104998077,0.0,0.0,0.0,0.0,0.0,0.0,0.0,0.0,0.0,2
1704781144244493529,15208,1704781144243935833,gnss_link,0,1,36.90506113,118.1660975,6.256481769624074,0.0,0.0,0.0,0.0,0.0,0.0,0.0,0.0,0.0,2
1704781144344704684,15209,1704781144344039614,gnss_link,0,1,36.90506236,118.16609744,6.257528967175269,0.0,0.0,0.0,0.0,0.0,0.0,0.0,0.0,0.0,2
1704781144444764443,15210,1704781144444257384,gnss_link,0,1,36.90506358,118.16609743,6.258750697651666,0.0,0.0,0.0,0.0,0.0,0.0,0.0,0.0,0.0,2
1704781144545012590,15211,1704781144544375978,gnss_link,0,1,36.90506481,118.16609745,6.259448829352463,0.0,0.0,0.0,0.0,0.0,0.0,0.0,0.0,0.0,2
1704781144644196085,15212,1704781144643674380,gnss_link,0,1,36.90506603,118.16609748,6.2584016318012665,0.0,0.0,0.0,0.0,0.0,0.0,0.0,0.0,0.0,2
1704781144744215505,15213,1704781144743737923,gnss_link,0,1,36.90506724,118.16609742,6.259972428128062,0.0,0.0,0.0,0.0,0.0,0.0,0.0,0.0,0.0,2
1704781144844339287,15214,1704781144843871520,gnss_link,0,1,36.90506844,118.16609745,6.262066823230455,0.0,0.0,0.0,0.0,0.0,0.0,0.0,0.0,0.0,2
1704781144944637782,15215,1704781144944086545,gnss_link,0,1,36.90506954,118.16609745,6.261543224454856,0.0,0.0,0.0,0.0,0.0,0.0,0.0,0.0,0.0,2
1704781145043793610,15216,1704781145043301900,gnss_link,0,1,36.90507054,118.16609745,6.262764954931252,0.0,0.0,0.0,0.0,0.0,0.0,0.0,0.0,0.0,2
1704781145143902376,15217,1704781145143394027,gnss_link,0,1,36.90507151,118.16609743,6.2638121524824495,0.0,0.0,0.0,0.0,0.0,0.0,0.0,0.0,0.0,2
1704781145244287031,15218,1704781145243699936,gnss_link,0,1,36.90507243,118.16609749,6.2625904220060535,0.0,0.0,0.0,0.0,0.0,0.0,0.0,0.0,0.0,2
1704781145344127009,15219,1704781145343670418,gnss_link,0,1,36.90507336,118.16609747,6.262241356155655,0.0,0.0,0.0,0.0,0.0,0.0,0.0,0.0,0.0,2
1704781145443974748,15220,1704781145443473874,gnss_link,0,1,36.90507431,118.16609748,6.2625904220060535,0.0,0.0,0.0,0.0,0.0,0.0,0.0,0.0,0.0,2
1704781145544803618,15221,1704781145544244260,gnss_link,0,1,36.90507528,118.16609748,6.262415889080854,0.0,0.0,0.0,0.0,0.0,0.0,0.0,0.0,0.0,2
1704781145644205346,15222,1704781145643603420,gnss_link,0,1,36.90507626,118.16609747,6.262066823230455,0.0,0.0,0.0,0.0,0.0,0.0,0.0,0.0,0.0,2
1704781145743907240,15223,1704781145743361720,gnss_link,0,1,36.90507724,118.16609745,6.262241356155655,0.0,0.0,0.0,0.0,0.0,0.0,0.0,0.0,0.0,2
1704781145843732868,15224,1704781145843218777,gnss_link,0,1,36.90507823,118.16609747,6.261019625679259,0.0,0.0,0.0,0.0,0.0,0.0,0.0,0.0,0.0,2
1704781145944407050,15225,1704781145943900305,gnss_link,0,1,36.9050792,118.16609746,6.260670559828859,0.0,0.0,0.0,0.0,0.0,0.0,0.0,0.0,0.0,2
1704781146043509697,15226,1704781146043019400,gnss_link,0,1,36.90508018,118.16609746,6.260146961053262,0.0,0.0,0.0,0.0,0.0,0.0,0.0,0.0,0.0,2
1704781146143702594,15227,1704781146143139674,gnss_link,0,1,36.90508115,118.16609745,6.260321493978461,0.0,0.0,0.0,0.0,0.0,0.0,0.0,0.0,0.0,2
1704781146243427353,15228,1704781146242983421,gnss_link,0,1,36.90508213,118.16609748,6.259448829352463,0.0,0.0,0.0,0.0,0.0,0.0,0.0,0.0,0.0,2
1704781146344142405,15229,1704781146343593417,gnss_link,0,1,36.90508312,118.16609745,6.258576164726466,0.0,0.0,0.0,0.0,0.0,0.0,0.0,0.0,0.0,2
1704781146444070954,15230,1704781146443636214,gnss_link,0,1,36.90508413,118.16609745,6.258052565950868,0.0,0.0,0.0,0.0,0.0,0.0,0.0,0.0,0.0,2
1704781146544108290,15231,1704781146543446522,gnss_link,0,1,36.90508512,118.16609743,6.25770350010047,0.0,0.0,0.0,0.0,0.0,0.0,0.0,0.0,0.0,2
1704781146643775438,15232,1704781146643275729,gnss_link,0,1,36.90508612,118.16609744,6.257005368399671,0.0,0.0,0.0,0.0,0.0,0.0,0.0,0.0,0.0,2
1704781146743601232,15233,1704781146743093310,gnss_link,0,1,36.90508711,118.1660974,6.256481769624074,0.0,0.0,0.0,0.0,0.0,0.0,0.0,0.0,0.0,2
1704781146843858785,15234,1704781146843340514,gnss_link,0,1,36.90508809,118.16609741,6.255434572072877,0.0,0.0,0.0,0.0,0.0,0.0,0.0,0.0,0.0,2
1704781146943751700,15235,1704781146943173834,gnss_link,0,1,36.90508907,118.16609742,6.2550855062224775,0.0,0.0,0.0,0.0,0.0,0.0,0.0,0.0,0.0,2
1704781147043454660,15236,1704781147042988597,gnss_link,0,1,36.90509005,118.1660974,6.254561907446879,0.0,0.0,0.0,0.0,0.0,0.0,0.0,0.0,0.0,2
1704781147143304036,15237,1704781147142794741,gnss_link,0,1,36.90509102,118.16609737,6.253689242820882,0.0,0.0,0.0,0.0,0.0,0.0,0.0,0.0,0.0,2
1704781147243241217,15238,1704781147242770248,gnss_link,0,1,36.90509201,118.16609739,6.253165644045284,0.0,0.0,0.0,0.0,0.0,0.0,0.0,0.0,0.0,2
1704781147344108960,15239,1704781147343407428,gnss_link,0,1,36.90509298,118.16609736,6.252816578194885,0.0,0.0,0.0,0.0,0.0,0.0,0.0,0.0,0.0,2
1704781147444089897,15240,1704781147443366997,gnss_link,0,1,36.90509395,118.16609735,6.252292979419287,0.0,0.0,0.0,0.0,0.0,0.0,0.0,0.0,0.0,2
1704781147544052892,15241,1704781147543535344,gnss_link,0,1,36.90509492,118.16609732,6.253340176970483,0.0,0.0,0.0,0.0,0.0,0.0,0.0,0.0,0.0,2
1704781147643199077,15242,1704781147642637982,gnss_link,0,1,36.90509591,118.16609731,6.252467512344486,0.0,0.0,0.0,0.0,0.0,0.0,0.0,0.0,0.0,2
1704781147743273529,15243,1704781147742796312,gnss_link,0,1,36.9050969,118.1660973,6.2517693806436885,0.0,0.0,0.0,0.0,0.0,0.0,0.0,0.0,0.0,2
1704781147843258517,15244,1704781147842734885,gnss_link,0,1,36.90509788,118.1660973,6.251943913568888,0.0,0.0,0.0,0.0,0.0,0.0,0.0,0.0,0.0,2
1704781147943905516,15245,1704781147943333344,gnss_link,0,1,36.90509887,118.16609724,6.252292979419287,0.0,0.0,0.0,0.0,0.0,0.0,0.0,0.0,0.0,2
1704781148042783983,15246,1704781148042286197,gnss_link,0,1,36.90509986,118.16609725,6.249500452616096,0.0,0.0,0.0,0.0,0.0,0.0,0.0,0.0,0.0,2
1704781148143264765,15247,1704781148142613823,gnss_link,0,1,36.90510086,118.16609724,6.248802320915297,0.0,0.0,0.0,0.0,0.0,0.0,0.0,0.0,0.0,2
1704781148243384917,15248,1704781148242810051,gnss_link,0,1,36.90510187,118.16609723,6.249500452616096,0.0,0.0,0.0,0.0,0.0,0.0,0.0,0.0,0.0,2
1704781148343414157,15249,1704781148342886643,gnss_link,0,1,36.90510286,118.1660972,6.248104189214501,0.0,0.0,0.0,0.0,0.0,0.0,0.0,0.0,0.0,2
1704781148443647076,15250,1704781148443130307,gnss_link,0,1,36.90510384,118.1660972,6.2484532550648995,0.0,0.0,0.0,0.0,0.0,0.0,0.0,0.0,0.0,2
1704781148543310657,15251,1704781148542822358,gnss_link,0,1,36.90510482,118.16609716,6.249500452616096,0.0,0.0,0.0,0.0,0.0,0.0,0.0,0.0,0.0,2
1704781148642418383,15252,1704781148641980348,gnss_link,0,1,36.9051058,118.16609718,6.249500452616096,0.0,0.0,0.0,0.0,0.0,0.0,0.0,0.0,0.0,2
1704781148743202483,15253,1704781148742665285,gnss_link,0,1,36.90510676,118.16609715,6.248976853840498,0.0,0.0,0.0,0.0,0.0,0.0,0.0,0.0,0.0,2
1704781148843470089,15254,1704781148842983745,gnss_link,0,1,36.90510774,118.16609715,6.2496749855412945,0.0,0.0,0.0,0.0,0.0,0.0,0.0,0.0,0.0,2
1704781148943904456,15255,1704781148943051037,gnss_link,0,1,36.90510869,118.16609712,6.250722183092492,0.0,0.0,0.0,0.0,0.0,0.0,0.0,0.0,0.0,2
1704781149042420591,15256,1704781149041819808,gnss_link,0,1,36.90510971,118.16609711,6.251071248942891,0.0,0.0,0.0,0.0,0.0,0.0,0.0,0.0,0.0,2
1704781149142835866,15257,1704781149142323179,gnss_link,0,1,36.90511067,118.16609709,6.2508967160176905,0.0,0.0,0.0,0.0,0.0,0.0,0.0,0.0,0.0,2
1704781149242990003,15258,1704781149242490702,gnss_link,0,1,36.90511169,118.16609706,6.252292979419287,0.0,0.0,0.0,0.0,0.0,0.0,0.0,0.0,0.0,2
1704781149343056687,15259,1704781149342541682,gnss_link,0,1,36.90511265,118.16609704,6.25142031479329,0.0,0.0,0.0,0.0,0.0,0.0,0.0,0.0,0.0,2
1704781149442906170,15260,1704781149442356684,gnss_link,0,1,36.90511368,118.16609705,6.2496749855412945,0.0,0.0,0.0,0.0,0.0,0.0,0.0,0.0,0.0,2
1704781149543714806,15261,1704781149543135393,gnss_link,0,1,36.90511469,118.16609701,6.250373117242093,0.0,0.0,0.0,0.0,0.0,0.0,0.0,0.0,0.0,2
1704781149642598011,15262,1704781149642076581,gnss_link,0,1,36.90511575,118.16609704,6.247056991663304,0.0,0.0,0.0,0.0,0.0,0.0,0.0,0.0,0.0,2
1704781149743041731,15263,1704781149742436766,gnss_link,0,1,36.90511682,118.16609699,6.2472315245885035,0.0,0.0,0.0,0.0,0.0,0.0,0.0,0.0,0.0,2
1704781149843059070,15264,1704781149842491649,gnss_link,0,1,36.90511789,118.16609696,6.2475805904389015,0.0,0.0,0.0,0.0,0.0,0.0,0.0,0.0,0.0,2
1704781149942898219,15265,1704781149942570307,gnss_link,0,1,36.90511889,118.16609696,6.247406057513702,0.0,0.0,0.0,0.0,0.0,0.0,0.0,0.0,0.0,2
1704781150041582185,15266,1704781150041304783,gnss_link,0,1,36.90511986,118.16609696,6.2472315245885035,0.0,0.0,0.0,0.0,0.0,0.0,0.0,0.0,0.0,2
1704781150142221197,15267,1704781150141849836,gnss_link,0,1,36.9051208,118.16609691,6.2472315245885035,0.0,0.0,0.0,0.0,0.0,0.0,0.0,0.0,0.0,2
1704781150242590795,15268,1704781150242038338,gnss_link,0,1,36.90512178,118.16609691,6.2472315245885035,0.0,0.0,0.0,0.0,0.0,0.0,0.0,0.0,0.0,2
1704781150342640617,15269,1704781150342173412,gnss_link,0,1,36.90512274,118.16609689,6.2484532550648995,0.0,0.0,0.0,0.0,0.0,0.0,0.0,0.0,0.0,2
1704781150442962944,15270,1704781150442416352,gnss_link,0,1,36.90512374,118.16609688,6.247929656289301,0.0,0.0,0.0,0.0,0.0,0.0,0.0,0.0,0.0,2
1704781150543438175,15271,1704781150542748393,gnss_link,0,1,36.9051247,118.16609686,6.249325919690897,0.0,0.0,0.0,0.0,0.0,0.0,0.0,0.0,0.0,2
1704781150642360972,15272,1704781150641819871,gnss_link,0,1,36.90512572,118.16609683,6.25142031479329,0.0,0.0,0.0,0.0,0.0,0.0,0.0,0.0,0.0,2
1704781150742442145,15273,1704781150741913427,gnss_link,0,1,36.90512669,118.16609684,6.252816578194885,0.0,0.0,0.0,0.0,0.0,0.0,0.0,0.0,0.0,2
1704781150842643366,15274,1704781150842087777,gnss_link,0,1,36.9051277,118.16609685,6.254387374521681,0.0,0.0,0.0,0.0,0.0,0.0,0.0,0.0,0.0,2
1704781150942944287,15275,1704781150942370728,gnss_link,0,1,36.90512869,118.16609681,6.258052565950868,0.0,0.0,0.0,0.0,0.0,0.0,0.0,0.0,0.0,2
1704781151042161822,15276,1704781151041583070,gnss_link,0,1,36.90512968,118.1660968,6.260146961053262,0.0,0.0,0.0,0.0,0.0,0.0,0.0,0.0,0.0,2
1704781151142269843,15277,1704781151141666236,gnss_link,0,1,36.90513066,118.1660968,6.260670559828859,0.0,0.0,0.0,0.0,0.0,0.0,0.0,0.0,0.0,2
1704781151242350849,15278,1704781151241822194,gnss_link,0,1,36.90513167,118.16609683,6.262415889080854,0.0,0.0,0.0,0.0,0.0,0.0,0.0,0.0,0.0,2
1704781151342816014,15279,1704781151342171375,gnss_link,0,1,36.90513263,118.16609683,6.263463086632051,0.0,0.0,0.0,0.0,0.0,0.0,0.0,0.0,0.0,2
1704781151442796167,15280,1704781151442203824,gnss_link,0,1,36.90513361,118.16609684,6.264161218332848,0.0,0.0,0.0,0.0,0.0,0.0,0.0,0.0,0.0,2
1704781151541926653,15281,1704781151541305492,gnss_link,0,1,36.90513458,118.16609683,6.264859350033646,0.0,0.0,0.0,0.0,0.0,0.0,0.0,0.0,0.0,2
1704781151642059416,15282,1704781151641603131,gnss_link,0,1,36.90513558,118.16609686,6.266430146360441,0.0,0.0,0.0,0.0,0.0,0.0,0.0,0.0,0.0,2
1704781151742239178,15283,1704781151741741982,gnss_link,0,1,36.90513655,118.16609685,6.267302810986438,0.0,0.0,0.0,0.0,0.0,0.0,0.0,0.0,0.0,2
1704781151842486600,15284,1704781151841941141,gnss_link,0,1,36.90513754,118.16609688,6.268000942687236,0.0,0.0,0.0,0.0,0.0,0.0,0.0,0.0,0.0,2
1704781151942773029,15285,1704781151942121621,gnss_link,0,1,36.90513852,118.16609688,6.268524541462835,0.0,0.0,0.0,0.0,0.0,0.0,0.0,0.0,0.0,2
1704781152041894516,15286,1704781152041333220,gnss_link,0,1,36.90513951,118.16609688,6.269397206088831,0.0,0.0,0.0,0.0,0.0,0.0,0.0,0.0,0.0,2
1704781152142249258,15287,1704781152141444574,gnss_link,0,1,36.9051405,118.16609689,6.269048140238432,0.0,0.0,0.0,0.0,0.0,0.0,0.0,0.0,0.0,2
1704781152242346224,15288,1704781152241678870,gnss_link,0,1,36.90514147,118.16609695,6.2683500085376345,0.0,0.0,0.0,0.0,0.0,0.0,0.0,0.0,0.0,2
1704781152342268071,15289,1704781152341739341,gnss_link,0,1,36.90514246,118.16609692,6.269397206088831,0.0,0.0,0.0,0.0,0.0,0.0,0.0,0.0,0.0,2
1704781152441404813,15290,1704781152440882333,gnss_link,0,1,36.90514342,118.16609694,6.2704444036400275,0.0,0.0,0.0,0.0,0.0,0.0,0.0,0.0,0.0,2
1704781152541629221,15291,1704781152541091362,gnss_link,0,1,36.90514441,118.16609695,6.270968002415627,0.0,0.0,0.0,0.0,0.0,0.0,0.0,0.0,0.0,2
1704781152641582384,15292,1704781152641084468,gnss_link,0,1,36.90514537,118.166097,6.271317068266025,0.0,0.0,0.0,0.0,0.0,0.0,0.0,0.0,0.0,2
1704781152741870674,15293,1704781152741286409,gnss_link,0,1,36.90514634,118.16609702,6.27306239751802,0.0,0.0,0.0,0.0,0.0,0.0,0.0,0.0,0.0,2
1704781152842078193,15294,1704781152841546872,gnss_link,0,1,36.90514732,118.16609706,6.274284127994416,0.0,0.0,0.0,0.0,0.0,0.0,0.0,0.0,0.0,2
1704781152942631133,15295,1704781152941918944,gnss_link,0,1,36.9051483,118.16609705,6.274807726770013,0.0,0.0,0.0,0.0,0.0,0.0,0.0,0.0,0.0,2
1704781153041294226,15296,1704781153040719213,gnss_link,0,1,36.90514927,118.16609711,6.27568039139601,0.0,0.0,0.0,0.0,0.0,0.0,0.0,0.0,0.0,2
1704781153141867269,15297,1704781153141179797,gnss_link,0,1,36.9051502,118.16609712,6.276203990171609,0.0,0.0,0.0,0.0,0.0,0.0,0.0,0.0,0.0,2
1704781153241920291,15298,1704781153241316469,gnss_link,0,1,36.90515103,118.16609715,6.27585492432121,0.0,0.0,0.0,0.0,0.0,0.0,0.0,0.0,0.0,2
1704781153342010142,15299,1704781153341367740,gnss_link,0,1,36.90515177,118.16609715,6.276727588947208,0.0,0.0,0.0,0.0,0.0,0.0,0.0,0.0,0.0,2
1704781153441101523,15300,1704781153440555129,gnss_link,0,1,36.90515244,118.16609719,6.275505858470812,0.0,0.0,0.0,0.0,0.0,0.0,0.0,0.0,0.0,2
1704781153542646168,15301,1704781153542029263,gnss_link,0,1,36.9051531,118.16609721,6.275156792620413,0.0,0.0,0.0,0.0,0.0,0.0,0.0,0.0,0.0,2
1704781153641670320,15302,1704781153641196494,gnss_link,0,1,36.90515371,118.16609726,6.27288786459282,0.0,0.0,0.0,0.0,0.0,0.0,0.0,0.0,0.0,2
1704781153742268443,15303,1704781153741528266,gnss_link,0,1,36.90515442,118.16609723,6.27306239751802,0.0,0.0,0.0,0.0,0.0,0.0,0.0,0.0,0.0,2
1704781153841384977,15304,1704781153840740815,gnss_link,0,1,36.90515509,118.16609725,6.269746271939231,0.0,0.0,0.0,0.0,0.0,0.0,0.0,0.0,0.0,2
1704781153941245553,15305,1704781153940774896,gnss_link,0,1,36.90515583,118.16609729,6.267302810986438,0.0,0.0,0.0,0.0,0.0,0.0,0.0,0.0,0.0,2
1704781154041557561,15306,1704781154040980699,gnss_link,0,1,36.90515655,118.16609728,6.265382948809244,0.0,0.0,0.0,0.0,0.0,0.0,0.0,0.0,0.0,2
1704781154141784989,15307,1704781154141200493,gnss_link,0,1,36.90515726,118.16609726,6.263463086632051,0.0,0.0,0.0,0.0,0.0,0.0,0.0,0.0,0.0,2
1704781154240818278,15308,1704781154240278597,gnss_link,0,1,36.90515794,118.16609728,6.2617177573800555,0.0,0.0,0.0,0.0,0.0,0.0,0.0,0.0,0.0,2
1704781154341140075,15309,1704781154340503030,gnss_link,0,1,36.90515851,118.16609731,6.26049602690366,0.0,0.0,0.0,0.0,0.0,0.0,0.0,0.0,0.0,2
1704781154443070778,15310,1704781154442479486,gnss_link,0,1,36.90515899,118.16609728,6.2584016318012665,0.0,0.0,0.0,0.0,0.0,0.0,0.0,0.0,0.0,2
1704781154541411428,15311,1704781154540847518,gnss_link,0,1,36.90515936,118.16609728,6.2596233622776625,0.0,0.0,0.0,0.0,0.0,0.0,0.0,0.0,0.0,2
1704781154641662335,15312,1704781154641153591,gnss_link,0,1,36.90515965,118.16609727,6.258925230576866,0.0,0.0,0.0,0.0,0.0,0.0,0.0,0.0,0.0,2
1704781154741961571,15313,1704781154741304941,gnss_link,0,1,36.90515984,118.16609726,6.258227098876067,0.0,0.0,0.0,0.0,0.0,0.0,0.0,0.0,0.0,2
1704781154840855312,15314,1704781154840345578,gnss_link,0,1,36.90516001,118.16609725,6.259099763502065,0.0,0.0,0.0,0.0,0.0,0.0,0.0,0.0,0.0,2
1704781154940594288,15315,1704781154940086368,gnss_link,0,1,36.90516015,118.16609727,6.258052565950868,0.0,0.0,0.0,0.0,0.0,0.0,0.0,0.0,0.0,2
1704781155041477086,15316,1704781155040977951,gnss_link,0,1,36.90516029,118.16609726,6.258052565950868,0.0,0.0,0.0,0.0,0.0,0.0,0.0,0.0,0.0,2
1704781155141399015,15317,1704781155140855476,gnss_link,0,1,36.9051604,118.16609727,6.258052565950868,0.0,0.0,0.0,0.0,0.0,0.0,0.0,0.0,0.0,2
1704781155240210905,15318,1704781155239742307,gnss_link,0,1,36.90516048,118.16609727,6.257528967175269,0.0,0.0,0.0,0.0,0.0,0.0,0.0,0.0,0.0,2
1704781155341078086,15319,1704781155340381319,gnss_link,0,1,36.90516047,118.16609728,6.25770350010047,0.0,0.0,0.0,0.0,0.0,0.0,0.0,0.0,0.0,2
1704781155441398281,15320,1704781155440578415,gnss_link,0,1,36.90516046,118.1660973,6.258052565950868,0.0,0.0,0.0,0.0,0.0,0.0,0.0,0.0,0.0,2
1704781155540853386,15321,1704781155540201055,gnss_link,0,1,36.90516041,118.16609731,6.257878033025669,0.0,0.0,0.0,0.0,0.0,0.0,0.0,0.0,0.0,2
1704781155641611328,15322,1704781155641016617,gnss_link,0,1,36.90516039,118.16609733,6.258052565950868,0.0,0.0,0.0,0.0,0.0,0.0,0.0,0.0,0.0,2
1704781155741464432,15323,1704781155740955261,gnss_link,0,1,36.90516036,118.16609734,6.258052565950868,0.0,0.0,0.0,0.0,0.0,0.0,0.0,0.0,0.0,2
1704781155840271737,15324,1704781155839742100,gnss_link,0,1,36.90516037,118.16609735,6.258052565950868,0.0,0.0,0.0,0.0,0.0,0.0,0.0,0.0,0.0,2
1704781155940710843,15325,1704781155940227278,gnss_link,0,1,36.90516036,118.16609736,6.258052565950868,0.0,0.0,0.0,0.0,0.0,0.0,0.0,0.0,0.0,2
1704781156040916657,15326,1704781156040411147,gnss_link,0,1,36.90516037,118.16609737,6.258052565950868,0.0,0.0,0.0,0.0,0.0,0.0,0.0,0.0,0.0,2
1704781156140715353,15327,1704781156140226556,gnss_link,0,1,36.90516035,118.16609738,6.258052565950868,0.0,0.0,0.0,0.0,0.0,0.0,0.0,0.0,0.0,2
1704781156240760082,15328,1704781156240124582,gnss_link,0,1,36.90516036,118.16609738,6.258052565950868,0.0,0.0,0.0,0.0,0.0,0.0,0.0,0.0,0.0,2
1704781156340119448,15329,1704781156339632568,gnss_link,0,1,36.90516035,118.16609739,6.258052565950868,0.0,0.0,0.0,0.0,0.0,0.0,0.0,0.0,0.0,2
1704781156440270575,15330,1704781156439782734,gnss_link,0,1,36.90516038,118.16609738,6.258052565950868,0.0,0.0,0.0,0.0,0.0,0.0,0.0,0.0,0.0,2
1704781156540996717,15331,1704781156540380047,gnss_link,0,1,36.90516037,118.16609739,6.258227098876067,0.0,0.0,0.0,0.0,0.0,0.0,0.0,0.0,0.0,2
1704781156641326260,15332,1704781156640922664,gnss_link,0,1,36.9051604,118.16609737,6.257878033025669,0.0,0.0,0.0,0.0,0.0,0.0,0.0,0.0,0.0,2
1704781156741333699,15333,1704781156740725941,gnss_link,0,1,36.90516038,118.16609738,6.257528967175269,0.0,0.0,0.0,0.0,0.0,0.0,0.0,0.0,0.0,2
