%time,field.header.seq,field.header.stamp,field.header.frame_id,field.status.header.seq,field.status.header.stamp,field.status.header.frame_id,field.status.satellites_used,field.status.satellites_visible,field.status.status,field.status.motion_source,field.status.orientation_source,field.status.position_source,field.latitude,field.longitude,field.altitude,field.track,field.speed,field.climb,field.pitch,field.roll,field.dip,field.time,field.gdop,field.pdop,field.hdop,field.vdop,field.tdop,field.err,field.err_horz,field.err_vert,field.err_track,field.err_speed,field.err_climb,field.err_time,field.err_pitch,field.err_roll,field.err_dip,field.position_covariance0,field.position_covariance1,field.position_covariance2,field.position_covariance3,field.position_covariance4,field.position_covariance5,field.position_covariance6,field.position_covariance7,field.position_covariance8,field.position_covariance_type
1704780507644119649,8840,0,,0,0,,0,0,0,0,0,0,36.90411402,118.16644871,25.46,0.0,0.004,0.0,-0.24,-1.05,273.43,194926.9,0.0,0.0,0.001,-0.003,0.0,0.0,0.0,0.0,0.0,0.0,0.0,0.0,0.0,0.0,0.0,0.0,0.0,0.0,0.0,0.0,0.0,0.0,0.0,0.0,0
1704780507743434295,8841,0,,0,0,,0,0,0,0,0,0,36.90411402,118.16644871,25.46,0.0,0.004,0.0,-0.24,-1.05,273.43,194927.0,0.0,0.0,0.002,-0.003,0.0,0.0,0.0,0.0,0.0,0.0,0.0,0.0,0.0,0.0,0.0,0.0,0.0,0.0,0.0,0.0,0.0,0.0,0.0,0.0,0
1704780507844353171,8842,0,,0,0,,0,0,0,0,0,0,36.90411402,118.16644872,25.46,0.0,0.003,0.0,-0.24,-1.05,273.43,194927.1,0.0,0.0,0.002,-0.003,0.0,0.0,0.0,0.0,0.0,0.0,0.0,0.0,0.0,0.0,0.0,0.0,0.0,0.0,0.0,0.0,0.0,0.0,0.0,0.0,0
1704780507943899533,8843,0,,0,0,,0,0,0,0,0,0,36.90411402,118.16644872,25.46,0.0,0.003,0.0,-0.24,-1.05,273.43,194927.2,0.0,0.0,0.002,-0.003,0.0,0.0,0.0,0.0,0.0,0.0,0.0,0.0,0.0,0.0,0.0,0.0,0.0,0.0,0.0,0.0,0.0,0.0,0.0,0.0,0
1704780508043847740,8844,0,,0,0,,0,0,0,0,0,0,36.90411402,118.16644873,25.46,0.0,0.003,0.0,-0.24,-1.05,273.42,194927.3,0.0,0.0,0.002,-0.002,0.0,0.0,0.0,0.0,0.0,0.0,0.0,0.0,0.0,0.0,0.0,0.0,0.0,0.0,0.0,0.0,0.0,0.0,0.0,0.0,0
1704780508143506477,8845,0,,0,0,,0,0,0,0,0,0,36.90411402,118.16644872,25.46,0.0,0.003,0.0,-0.24,-1.05,273.42,194927.4,0.0,0.0,0.002,-0.002,0.0,0.0,0.0,0.0,0.0,0.0,0.0,0.0,0.0,0.0,0.0,0.0,0.0,0.0,0.0,0.0,0.0,0.0,0.0,0.0,0
1704780508244119473,8846,0,,0,0,,0,0,0,0,0,0,36.90411401,118.16644873,25.45,0.0,0.003,0.0,-0.24,-1.05,273.42,194927.5,0.0,0.0,0.002,-0.002,0.0,0.0,0.0,0.0,0.0,0.0,0.0,0.0,0.0,0.0,0.0,0.0,0.0,0.0,0.0,0.0,0.0,0.0,0.0,0.0,0
1704780508343617165,8847,0,,0,0,,0,0,0,0,0,0,36.90411401,118.16644873,25.45,0.0,0.003,0.0,-0.24,-1.05,273.43,194927.6,0.0,0.0,0.002,-0.002,0.0,0.0,0.0,0.0,0.0,0.0,0.0,0.0,0.0,0.0,0.0,0.0,0.0,0.0,0.0,0.0,0.0,0.0,0.0,0.0,0
1704780508443401327,8848,0,,0,0,,0,0,0,0,0,0,36.904114,118.16644873,25.45,0.0,0.003,0.0,-0.24,-1.05,273.43,194927.7,0.0,0.0,0.002,-0.002,0.0,0.0,0.0,0.0,0.0,0.0,0.0,0.0,0.0,0.0,0.0,0.0,0.0,0.0,0.0,0.0,0.0,0.0,0.0,0.0,0
1704780508542719604,8849,0,,0,0,,0,0,0,0,0,0,36.904114,118.16644873,25.45,0.0,0.003,0.0,-0.24,-1.05,273.43,194927.8,0.0,0.0,0.002,-0.002,0.0,0.0,0.0,0.0,0.0,0.0,0.0,0.0,0.0,0.0,0.0,0.0,0.0,0.0,0.0,0.0,0.0,0.0,0.0,0.0,0
1704780508643680635,8850,0,,0,0,,0,0,0,0,0,0,36.904114,118.16644873,25.45,0.0,0.003,0.0,-0.24,-1.05,273.42,194927.9,0.0,0.0,0.002,-0.002,0.0,0.0,0.0,0.0,0.0,0.0,0.0,0.0,0.0,0.0,0.0,0.0,0.0,0.0,0.0,0.0,0.0,0.0,0.0,0.0,0
1704780508743231406,8851,0,,0,0,,0,0,0,0,0,0,36.904114,118.16644873,25.45,0.0,0.003,0.0,-0.24,-1.05,273.42,194928.0,0.0,0.0,0.002,-0.002,0.0,0.0,0.0,0.0,0.0,0.0,0.0,0.0,0.0,0.0,0.0,0.0,0.0,0.0,0.0,0.0,0.0,0.0,0.0,0.0,0
1704780508843939513,8852,0,,0,0,,0,0,0,0,0,0,36.90411399,118.16644873,25.45,0.0,0.003,0.0,-0.24,-1.05,273.42,194928.1,0.0,0.0,0.002,-0.002,0.0,0.0,0.0,0.0,0.0,0.0,0.0,0.0,0.0,0.0,0.0,0.0,0.0,0.0,0.0,0.0,0.0,0.0,0.0,0.0,0
1704780508943724843,8853,0,,0,0,,0,0,0,0,0,0,36.90411399,118.16644873,25.45,0.0,0.003,0.0,-0.24,-1.05,273.42,194928.2,0.0,0.0,0.002,-0.002,0.0,0.0,0.0,0.0,0.0,0.0,0.0,0.0,0.0,0.0,0.0,0.0,0.0,0.0,0.0,0.0,0.0,0.0,0.0,0.0,0
1704780509042838640,8854,0,,0,0,,0,0,0,0,0,0,36.90411399,118.16644873,25.45,0.0,0.003,0.0,-0.24,-1.05,273.42,194928.3,0.0,0.0,0.002,-0.002,0.0,0.0,0.0,0.0,0.0,0.0,0.0,0.0,0.0,0.0,0.0,0.0,0.0,0.0,0.0,0.0,0.0,0.0,0.0,0.0,0
1704780509143467336,8855,0,,0,0,,0,0,0,0,0,0,36.90411399,118.16644873,25.45,0.0,0.003,0.0,-0.24,-1.05,273.42,194928.4,0.0,0.0,0.002,-0.002,0.0,0.0,0.0,0.0,0.0,0.0,0.0,0.0,0.0,0.0,0.0,0.0,0.0,0.0,0.0,0.0,0.0,0.0,0.0,0.0,0
1704780509243834822,8856,0,,0,0,,0,0,0,0,0,0,36.90411399,118.16644873,25.45,0.0,0.003,0.0,-0.24,-1.05,273.43,194928.5,0.0,0.0,0.002,-0.002,0.0,0.0,0.0,0.0,0.0,0.0,0.0,0.0,0.0,0.0,0.0,0.0,0.0,0.0,0.0,0.0,0.0,0.0,0.0,0.0,0
1704780509343131083,8857,0,,0,0,,0,0,0,0,0,0,36.90411399,118.16644872,25.45,0.0,0.005,0.0,-0.24,-1.05,273.43,194928.6,0.0,0.0,0.002,-0.005,0.0,0.0,0.0,0.0,0.0,0.0,0.0,0.0,0.0,0.0,0.0,0.0,0.0,0.0,0.0,0.0,0.0,0.0,0.0,0.0,0
1704780509442840427,8858,0,,0,0,,0,0,0,0,0,0,36.90411398,118.1664487,25.45,0.0,0.049,0.0,-0.2,-1.06,273.42,194928.7,0.0,0.0,0.005,-0.049,0.0,0.0,0.0,0.0,0.0,0.0,0.0,0.0,0.0,0.0,0.0,0.0,0.0,0.0,0.0,0.0,0.0,0.0,0.0,0.0,0
1704780509542697404,8859,0,,0,0,,0,0,0,0,0,0,36.90411399,118.16644861,25.45,0.0,0.101,0.0,-0.21,-1.06,273.42,194928.8,0.0,0.0,0.008,-0.1,0.0,0.0,0.0,0.0,0.0,0.0,0.0,0.0,0.0,0.0,0.0,0.0,0.0,0.0,0.0,0.0,0.0,0.0,0.0,0.0,0
1704780509643526848,8860,0,,0,0,,0,0,0,0,0,0,36.90411399,118.16644848,25.45,0.0,0.15,0.0,-0.18,-1.05,273.41,194928.9,0.0,0.0,0.013,-0.15,0.0,0.0,0.0,0.0,0.0,0.0,0.0,0.0,0.0,0.0,0.0,0.0,0.0,0.0,0.0,0.0,0.0,0.0,0.0,0.0,0
1704780509743416224,8861,0,,0,0,,0,0,0,0,0,0,36.904114,118.16644828,25.45,0.0,0.2,0.0,-0.22,-1.05,273.41,194929.0,0.0,0.0,0.014,-0.199,0.0,0.0,0.0,0.0,0.0,0.0,0.0,0.0,0.0,0.0,0.0,0.0,0.0,0.0,0.0,0.0,0.0,0.0,0.0,0.0,0
1704780509843258589,8862,0,,0,0,,0,0,0,0,0,0,36.90411401,118.16644803,25.45,0.0,0.254,0.0,-0.19,-1.05,273.41,194929.1,0.0,0.0,0.02,-0.253,0.0,0.0,0.0,0.0,0.0,0.0,0.0,0.0,0.0,0.0,0.0,0.0,0.0,0.0,0.0,0.0,0.0,0.0,0.0,0.0,0
1704780509944072931,8863,0,,0,0,,0,0,0,0,0,0,36.90411403,118.16644771,25.45,0.0,0.311,0.0,-0.21,-1.04,273.41,194929.2,0.0,0.0,0.019,-0.31,0.0,0.0,0.0,0.0,0.0,0.0,0.0,0.0,0.0,0.0,0.0,0.0,0.0,0.0,0.0,0.0,0.0,0.0,0.0,0.0,0
1704780510042915845,8864,0,,0,0,,0,0,0,0,0,0,36.90411404,118.16644732,25.45,0.0,0.372,0.0,-0.22,-1.04,273.42,194929.3,0.0,0.0,0.023,-0.371,0.0,0.0,0.0,0.0,0.0,0.0,0.0,0.0,0.0,0.0,0.0,0.0,0.0,0.0,0.0,0.0,0.0,0.0,0.0,0.0,0
1704780510142524862,8865,0,,0,0,,0,0,0,0,0,0,36.90411407,118.16644688,25.45,0.0,0.426,0.0,-0.23,-1.04,273.42,194929.4,0.0,0.0,0.032,-0.425,0.0,0.0,0.0,0.0,0.0,0.0,0.0,0.0,0.0,0.0,0.0,0.0,0.0,0.0,0.0,0.0,0.0,0.0,0.0,0.0,0
1704780510243162096,8866,0,,0,0,,0,0,0,0,0,0,36.90411409,118.16644636,25.45,0.0,0.481,0.0,-0.24,-1.03,273.41,194929.5,0.0,0.0,0.035,-0.48,0.0,0.0,0.0,0.0,0.0,0.0,0.0,0.0,0.0,0.0,0.0,0.0,0.0,0.0,0.0,0.0,0.0,0.0,0.0,0.0,0
1704780510343524495,8867,0,,0,0,,0,0,0,0,0,0,36.90411412,118.16644579,25.45,0.0,0.532,0.0,-0.23,-1.01,273.46,194929.6,0.0,0.0,0.039,-0.531,0.0,0.0,0.0,0.0,0.0,0.0,0.0,0.0,0.0,0.0,0.0,0.0,0.0,0.0,0.0,0.0,0.0,0.0,0.0,0.0,0
1704780510442449615,8868,0,,0,0,,0,0,0,0,0,0,36.90411415,118.16644516,25.45,0.0,0.579,0.0,-0.23,-0.99,273.54,194929.7,0.0,0.0,0.047,-0.577,0.0,0.0,0.0,0.0,0.0,0.0,0.0,0.0,0.0,0.0,0.0,0.0,0.0,0.0,0.0,0.0,0.0,0.0,0.0,0.0,0
1704780510542732601,8869,0,,0,0,,0,0,0,0,0,0,36.90411419,118.16644449,25.45,0.0,0.625,0.0,-0.21,-0.94,273.63,194929.8,0.0,0.0,0.052,-0.623,0.0,0.0,0.0,0.0,0.0,0.0,0.0,0.0,0.0,0.0,0.0,0.0,0.0,0.0,0.0,0.0,0.0,0.0,0.0,0.0,0
1704780510642972901,8870,0,,0,0,,0,0,0,0,0,0,36.90411424,118.16644376,25.45,0.0,0.675,0.0,-0.22,-0.93,273.74,194929.9,0.0,0.0,0.045,-0.673,0.0,0.0,0.0,0.0,0.0,0.0,0.0,0.0,0.0,0.0,0.0,0.0,0.0,0.0,0.0,0.0,0.0,0.0,0.0,0.0,0
1704780510742980357,8871,0,,0,0,,0,0,0,0,0,0,36.90411428,118.16644298,25.45,0.0,0.719,0.0,-0.18,-0.91,273.85,194930.0,0.0,0.0,0.059,-0.716,0.0,0.0,0.0,0.0,0.0,0.0,0.0,0.0,0.0,0.0,0.0,0.0,0.0,0.0,0.0,0.0,0.0,0.0,0.0,0.0,0
1704780510843157638,8872,0,,0,0,,0,0,0,0,0,0,36.90411434,118.16644214,25.45,0.0,0.765,0.0,-0.18,-0.87,273.93,194930.1,0.0,0.0,0.06,-0.762,0.0,0.0,0.0,0.0,0.0,0.0,0.0,0.0,0.0,0.0,0.0,0.0,0.0,0.0,0.0,0.0,0.0,0.0,0.0,0.0,0
1704780510943400462,8873,0,,0,0,,0,0,0,0,0,0,36.90411439,118.16644126,25.45,0.0,0.807,0.0,-0.11,-0.85,274.04,194930.2,0.0,0.0,0.06,-0.805,0.0,0.0,0.0,0.0,0.0,0.0,0.0,0.0,0.0,0.0,0.0,0.0,0.0,0.0,0.0,0.0,0.0,0.0,0.0,0.0,0
1704780511042527120,8874,0,,0,0,,0,0,0,0,0,0,36.90411445,118.16644033,25.45,0.0,0.848,0.0,-0.11,-0.85,274.15,194930.3,0.0,0.0,0.068,-0.846,0.0,0.0,0.0,0.0,0.0,0.0,0.0,0.0,0.0,0.0,0.0,0.0,0.0,0.0,0.0,0.0,0.0,0.0,0.0,0.0,0
1704780511142164360,8875,0,,0,0,,0,0,0,0,0,0,36.90411451,118.16643937,25.45,0.0,0.869,0.0,-0.12,-0.86,274.34,194930.4,0.0,0.0,0.063,-0.867,0.0,0.0,0.0,0.0,0.0,0.0,0.0,0.0,0.0,0.0,0.0,0.0,0.0,0.0,0.0,0.0,0.0,0.0,0.0,0.0,0
1704780511243341129,8876,0,,0,0,,0,0,0,0,0,0,36.90411458,118.16643839,25.45,0.0,0.879,0.0,-0.12,-0.89,274.58,194930.5,0.0,0.0,0.072,-0.876,0.0,0.0,0.0,0.0,0.0,0.0,0.0,0.0,0.0,0.0,0.0,0.0,0.0,0.0,0.0,0.0,0.0,0.0,0.0,0.0,0
1704780511343364761,8877,0,,0,0,,0,0,0,0,0,0,36.90411465,118.1664374,25.45,0.0,0.882,0.0,-0.11,-0.87,274.85,194930.6,0.0,0.0,0.082,-0.879,0.0,0.0,0.0,0.0,0.0,0.0,0.0,0.0,0.0,0.0,0.0,0.0,0.0,0.0,0.0,0.0,0.0,0.0,0.0,0.0,0
1704780511442026146,8878,0,,0,0,,0,0,0,0,0,0,36.90411473,118.16643643,25.45,0.0,0.869,0.0,-0.12,-0.85,275.15,194930.7,0.0,0.0,0.086,-0.865,0.0,0.0,0.0,0.0,0.0,0.0,0.0,0.0,0.0,0.0,0.0,0.0,0.0,0.0,0.0,0.0,0.0,0.0,0.0,0.0,0
1704780511542334908,8879,0,,0,0,,0,0,0,0,0,0,36.9041148,118.16643547,25.45,0.0,0.854,0.0,-0.08,-0.86,275.48,194930.8,0.0,0.0,0.083,-0.85,0.0,0.0,0.0,0.0,0.0,0.0,0.0,0.0,0.0,0.0,0.0,0.0,0.0,0.0,0.0,0.0,0.0,0.0,0.0,0.0,0
1704780511642546562,8880,0,,0,0,,0,0,0,0,0,0,36.90411488,118.16643453,25.45,0.0,0.84,0.0,-0.04,-0.87,275.88,194930.9,0.0,0.0,0.091,-0.835,0.0,0.0,0.0,0.0,0.0,0.0,0.0,0.0,0.0,0.0,0.0,0.0,0.0,0.0,0.0,0.0,0.0,0.0,0.0,0.0,0
1704780511742980650,8881,0,,0,0,,0,0,0,0,0,0,36.90411497,118.16643359,25.45,0.0,0.835,0.0,-0.01,-0.88,276.31,194931.0,0.0,0.0,0.098,-0.83,0.0,0.0,0.0,0.0,0.0,0.0,0.0,0.0,0.0,0.0,0.0,0.0,0.0,0.0,0.0,0.0,0.0,0.0,0.0,0.0,0
1704780511843357590,8882,0,,0,0,,0,0,0,0,0,0,36.90411506,118.16643268,25.45,0.0,0.836,0.0,0.06,-0.91,276.82,194931.1,0.0,0.0,0.098,-0.83,0.0,0.0,0.0,0.0,0.0,0.0,0.0,0.0,0.0,0.0,0.0,0.0,0.0,0.0,0.0,0.0,0.0,0.0,0.0,0.0,0
1704780511942895745,8883,0,,0,0,,0,0,0,0,0,0,36.90411515,118.16643174,25.45,0.0,0.834,0.0,0.05,-0.94,277.42,194931.2,0.0,0.0,0.112,-0.826,0.0,0.0,0.0,0.0,0.0,0.0,0.0,0.0,0.0,0.0,0.0,0.0,0.0,0.0,0.0,0.0,0.0,0.0,0.0,0.0,0
1704780512042370492,8884,0,,0,0,,0,0,0,0,0,0,36.90411527,118.16643083,25.45,0.0,0.828,0.0,0.04,-0.91,278.07,194931.3,0.0,0.0,0.132,-0.817,0.0,0.0,0.0,0.0,0.0,0.0,0.0,0.0,0.0,0.0,0.0,0.0,0.0,0.0,0.0,0.0,0.0,0.0,0.0,0.0,0
1704780512142619924,8885,0,,0,0,,0,0,0,0,0,0,36.90411539,118.16642992,25.45,0.0,0.811,0.0,0.04,-0.9,278.87,194931.4,0.0,0.0,0.123,-0.802,0.0,0.0,0.0,0.0,0.0,0.0,0.0,0.0,0.0,0.0,0.0,0.0,0.0,0.0,0.0,0.0,0.0,0.0,0.0,0.0,0
1704780512242721947,8886,0,,0,0,,0,0,0,0,0,0,36.90411551,118.16642904,25.45,0.0,0.807,0.0,0.1,-0.94,279.77,194931.5,0.0,0.0,0.145,-0.794,0.0,0.0,0.0,0.0,0.0,0.0,0.0,0.0,0.0,0.0,0.0,0.0,0.0,0.0,0.0,0.0,0.0,0.0,0.0,0.0,0
1704780512342919523,8887,0,,0,0,,0,0,0,0,0,0,36.90411566,118.16642815,25.45,0.0,0.799,0.0,0.12,-0.89,280.73,194931.6,0.0,0.0,0.169,-0.781,0.0,0.0,0.0,0.0,0.0,0.0,0.0,0.0,0.0,0.0,0.0,0.0,0.0,0.0,0.0,0.0,0.0,0.0,0.0,0.0,0
1704780512442129190,8888,0,,0,0,,0,0,0,0,0,0,36.90411581,118.16642729,25.45,0.0,0.801,0.0,0.18,-0.86,281.81,194931.7,0.0,0.0,0.163,-0.784,0.0,0.0,0.0,0.0,0.0,0.0,0.0,0.0,0.0,0.0,0.0,0.0,0.0,0.0,0.0,0.0,0.0,0.0,0.0,0.0,0
1704780512542236337,8889,0,,0,0,,0,0,0,0,0,0,36.90411596,118.16642641,25.45,0.0,0.798,0.0,0.22,-0.88,282.98,194931.8,0.0,0.0,0.187,-0.776,0.0,0.0,0.0,0.0,0.0,0.0,0.0,0.0,0.0,0.0,0.0,0.0,0.0,0.0,0.0,0.0,0.0,0.0,0.0,0.0,0
1704780512642566224,8890,0,,0,0,,0,0,0,0,0,0,36.90411615,118.16642555,25.45,0.0,0.806,0.0,0.27,-0.82,284.18,194931.9,0.0,0.0,0.216,-0.777,0.0,0.0,0.0,0.0,0.0,0.0,0.0,0.0,0.0,0.0,0.0,0.0,0.0,0.0,0.0,0.0,0.0,0.0,0.0,0.0,0
1704780512742827359,8891,0,,0,0,,0,0,0,0,0,0,36.90411635,118.16642467,25.45,0.0,0.814,0.0,0.26,-0.8,285.39,194932.0,0.0,0.0,0.214,-0.785,0.0,0.0,0.0,0.0,0.0,0.0,0.0,0.0,0.0,0.0,0.0,0.0,0.0,0.0,0.0,0.0,0.0,0.0,0.0,0.0,0
1704780512842935857,8892,0,,0,0,,0,0,0,0,0,0,36.90411656,118.1664238,25.45,0.0,0.826,0.0,0.24,-0.77,286.49,194932.1,0.0,0.0,0.244,-0.789,0.0,0.0,0.0,0.0,0.0,0.0,0.0,0.0,0.0,0.0,0.0,0.0,0.0,0.0,0.0,0.0,0.0,0.0,0.0,0.0,0
1704780512943208303,8893,0,,0,0,,0,0,0,0,0,0,36.9041168,118.16642291,25.45,0.0,0.831,0.0,0.2,-0.69,287.33,194932.2,0.0,0.0,0.27,-0.786,0.0,0.0,0.0,0.0,0.0,0.0,0.0,0.0,0.0,0.0,0.0,0.0,0.0,0.0,0.0,0.0,0.0,0.0,0.0,0.0,0
1704780513042340430,8894,0,,0,0,,0,0,0,0,0,0,36.90411703,118.16642204,25.45,0.0,0.834,0.0,0.2,-0.68,288.07,194932.3,0.0,0.0,0.258,-0.793,0.0,0.0,0.0,0.0,0.0,0.0,0.0,0.0,0.0,0.0,0.0,0.0,0.0,0.0,0.0,0.0,0.0,0.0,0.0,0.0,0
1704780513142271364,8895,0,,0,0,,0,0,0,0,0,0,36.90411727,118.16642115,25.45,0.0,0.831,0.0,0.19,-0.68,288.9,194932.4,0.0,0.0,0.275,-0.784,0.0,0.0,0.0,0.0,0.0,0.0,0.0,0.0,0.0,0.0,0.0,0.0,0.0,0.0,0.0,0.0,0.0,0.0,0.0,0.0,0
1704780513242364927,8896,0,,0,0,,0,0,0,0,0,0,36.90411753,118.1664203,25.45,0.0,0.833,0.0,0.2,-0.54,289.58,194932.5,0.0,0.0,0.306,-0.774,0.0,0.0,0.0,0.0,0.0,0.0,0.0,0.0,0.0,0.0,0.0,0.0,0.0,0.0,0.0,0.0,0.0,0.0,0.0,0.0,0
1704780513342947017,8897,0,,0,0,,0,0,0,0,0,0,36.9041178,118.16641942,25.45,0.0,0.84,0.0,0.12,-0.47,289.84,194932.6,0.0,0.0,0.288,-0.789,0.0,0.0,0.0,0.0,0.0,0.0,0.0,0.0,0.0,0.0,0.0,0.0,0.0,0.0,0.0,0.0,0.0,0.0,0.0,0.0,0
1704780513441602824,8898,0,,0,0,,0,0,0,0,0,0,36.90411804,118.16641855,25.45,0.0,0.832,0.0,0.09,-0.55,289.92,194932.7,0.0,0.0,0.283,-0.782,0.0,0.0,0.0,0.0,0.0,0.0,0.0,0.0,0.0,0.0,0.0,0.0,0.0,0.0,0.0,0.0,0.0,0.0,0.0,0.0,0
1704780513542058363,8899,0,,0,0,,0,0,0,0,0,0,36.90411829,118.16641768,25.45,0.0,0.825,0.0,0.1,-0.67,290.02,194932.8,0.0,0.0,0.286,-0.774,0.0,0.0,0.0,0.0,0.0,0.0,0.0,0.0,0.0,0.0,0.0,0.0,0.0,0.0,0.0,0.0,0.0,0.0,0.0,0.0,0
1704780513642176733,8900,0,,0,0,,0,0,0,0,0,0,36.90411854,118.16641683,25.45,0.0,0.826,0.0,0.14,-0.81,290.49,194932.9,0.0,0.0,0.277,-0.778,0.0,0.0,0.0,0.0,0.0,0.0,0.0,0.0,0.0,0.0,0.0,0.0,0.0,0.0,0.0,0.0,0.0,0.0,0.0,0.0,0
1704780513742668346,8901,0,,0,0,,0,0,0,0,0,0,36.9041188,118.16641597,25.45,0.0,0.823,0.0,0.09,-0.85,291.21,194933.0,0.0,0.0,0.317,-0.759,0.0,0.0,0.0,0.0,0.0,0.0,0.0,0.0,0.0,0.0,0.0,0.0,0.0,0.0,0.0,0.0,0.0,0.0,0.0,0.0,0
1704780513842786127,8902,0,,0,0,,0,0,0,0,0,0,36.90411909,118.16641514,25.45,0.0,0.823,0.0,0.08,-0.79,291.88,194933.1,0.0,0.0,0.331,-0.753,0.0,0.0,0.0,0.0,0.0,0.0,0.0,0.0,0.0,0.0,0.0,0.0,0.0,0.0,0.0,0.0,0.0,0.0,0.0,0.0,0
1704780513942763657,8903,0,,0,0,,0,0,0,0,0,0,36.90411938,118.16641429,25.45,0.0,0.813,0.0,0.08,-0.81,292.73,194933.2,0.0,0.0,0.313,-0.75,0.0,0.0,0.0,0.0,0.0,0.0,0.0,0.0,0.0,0.0,0.0,0.0,0.0,0.0,0.0,0.0,0.0,0.0,0.0,0.0,0
1704780514041953284,8904,0,,0,0,,0,0,0,0,0,0,36.90411967,118.16641348,25.45,0.0,0.81,0.0,0.1,-0.8,293.75,194933.3,0.0,0.0,0.343,-0.734,0.0,0.0,0.0,0.0,0.0,0.0,0.0,0.0,0.0,0.0,0.0,0.0,0.0,0.0,0.0,0.0,0.0,0.0,0.0,0.0,0
1704780514141939580,8905,0,,0,0,,0,0,0,0,0,0,36.90411999,118.16641266,25.45,0.0,0.813,0.0,0.05,-0.76,294.69,194933.4,0.0,0.0,0.359,-0.729,0.0,0.0,0.0,0.0,0.0,0.0,0.0,0.0,0.0,0.0,0.0,0.0,0.0,0.0,0.0,0.0,0.0,0.0,0.0,0.0,0
1704780514242344805,8906,0,,0,0,,0,0,0,0,0,0,36.9041203,118.16641187,25.45,0.0,0.808,0.0,0.04,-0.74,295.75,194933.5,0.0,0.0,0.363,-0.722,0.0,0.0,0.0,0.0,0.0,0.0,0.0,0.0,0.0,0.0,0.0,0.0,0.0,0.0,0.0,0.0,0.0,0.0,0.0,0.0,0
1704780514342310041,8907,0,,0,0,,0,0,0,0,0,0,36.90412064,118.16641106,25.45,0.0,0.807,0.0,0.02,-0.69,296.83,194933.6,0.0,0.0,0.389,-0.707,0.0,0.0,0.0,0.0,0.0,0.0,0.0,0.0,0.0,0.0,0.0,0.0,0.0,0.0,0.0,0.0,0.0,0.0,0.0,0.0,0
1704780514441595788,8908,0,,0,0,,0,0,0,0,0,0,36.90412098,118.16641029,25.45,0.0,0.808,0.0,0.05,-0.66,297.93,194933.7,0.0,0.0,0.393,-0.706,0.0,0.0,0.0,0.0,0.0,0.0,0.0,0.0,0.0,0.0,0.0,0.0,0.0,0.0,0.0,0.0,0.0,0.0,0.0,0.0,0
1704780514542031280,8909,0,,0,0,,0,0,0,0,0,0,36.90412133,118.1664095,25.45,0.0,0.797,0.0,0.09,-0.69,299.27,194933.8,0.0,0.0,0.392,-0.694,0.0,0.0,0.0,0.0,0.0,0.0,0.0,0.0,0.0,0.0,0.0,0.0,0.0,0.0,0.0,0.0,0.0,0.0,0.0,0.0,0
1704780514642145024,8910,0,,0,0,,0,0,0,0,0,0,36.90412169,118.16640875,25.45,0.0,0.804,0.0,0.16,-0.7,300.71,194933.9,0.0,0.0,0.43,-0.68,0.0,0.0,0.0,0.0,0.0,0.0,0.0,0.0,0.0,0.0,0.0,0.0,0.0,0.0,0.0,0.0,0.0,0.0,0.0,0.0,0
1704780514742241211,8911,0,,0,0,,0,0,0,0,0,0,36.90412208,118.16640799,25.45,0.0,0.797,0.0,0.21,-0.69,302.22,194934.0,0.0,0.0,0.432,-0.67,0.0,0.0,0.0,0.0,0.0,0.0,0.0,0.0,0.0,0.0,0.0,0.0,0.0,0.0,0.0,0.0,0.0,0.0,0.0,0.0,0
1704780514841314442,8912,0,,0,0,,0,0,0,0,0,0,36.90412246,118.16640725,25.45,0.0,0.807,0.0,0.23,-0.75,303.96,194934.1,0.0,0.0,0.445,-0.673,0.0,0.0,0.0,0.0,0.0,0.0,0.0,0.0,0.0,0.0,0.0,0.0,0.0,0.0,0.0,0.0,0.0,0.0,0.0,0.0,0
1704780514941434615,8913,0,,0,0,,0,0,0,0,0,0,36.90412289,118.16640651,25.45,0.0,0.814,0.0,0.27,-0.79,305.66,194934.2,0.0,0.0,0.492,-0.648,0.0,0.0,0.0,0.0,0.0,0.0,0.0,0.0,0.0,0.0,0.0,0.0,0.0,0.0,0.0,0.0,0.0,0.0,0.0,0.0,0
1704780515041724601,8914,0,,0,0,,0,0,0,0,0,0,36.90412332,118.1664058,25.45,0.0,0.821,0.0,0.27,-0.77,307.37,194934.3,0.0,0.0,0.504,-0.648,0.0,0.0,0.0,0.0,0.0,0.0,0.0,0.0,0.0,0.0,0.0,0.0,0.0,0.0,0.0,0.0,0.0,0.0,0.0,0.0,0
1704780515141848175,8915,0,,0,0,,0,0,0,0,0,0,36.90412378,118.16640507,25.45,0.0,0.83,0.0,0.28,-0.85,309.02,194934.4,0.0,0.0,0.522,-0.645,0.0,0.0,0.0,0.0,0.0,0.0,0.0,0.0,0.0,0.0,0.0,0.0,0.0,0.0,0.0,0.0,0.0,0.0,0.0,0.0,0
1704780515242041207,8916,0,,0,0,,0,0,0,0,0,0,36.90412425,118.16640437,25.46,0.0,0.836,0.0,0.25,-0.89,310.46,194934.5,0.0,0.0,0.56,-0.62,0.0,0.0,0.0,0.0,0.0,0.0,0.0,0.0,0.0,0.0,0.0,0.0,0.0,0.0,0.0,0.0,0.0,0.0,0.0,0.0,0
1704780515342431956,8917,0,,0,0,,0,0,0,0,0,0,36.90412475,118.16640368,25.45,0.0,0.829,0.0,0.24,-0.91,311.88,194934.6,0.0,0.0,0.559,-0.612,0.0,0.0,0.0,0.0,0.0,0.0,0.0,0.0,0.0,0.0,0.0,0.0,0.0,0.0,0.0,0.0,0.0,0.0,0.0,0.0,0
1704780515441277904,8918,0,,0,0,,0,0,0,0,0,0,36.90412524,118.16640301,25.46,0.0,0.823,0.0,0.3,-0.94,313.24,194934.7,0.0,0.0,0.574,-0.589,0.0,0.0,0.0,0.0,0.0,0.0,0.0,0.0,0.0,0.0,0.0,0.0,0.0,0.0,0.0,0.0,0.0,0.0,0.0,0.0,0
1704780515541533054,8919,0,,0,0,,0,0,0,0,0,0,36.90412578,118.16640237,25.46,0.0,0.829,0.0,0.25,-0.87,314.39,194934.8,0.0,0.0,0.607,-0.565,0.0,0.0,0.0,0.0,0.0,0.0,0.0,0.0,0.0,0.0,0.0,0.0,0.0,0.0,0.0,0.0,0.0,0.0,0.0,0.0,0
1704780515641610975,8920,0,,0,0,,0,0,0,0,0,0,36.90412632,118.16640172,25.46,0.0,0.846,0.0,0.28,-0.74,315.43,194934.9,0.0,0.0,0.626,-0.57,0.0,0.0,0.0,0.0,0.0,0.0,0.0,0.0,0.0,0.0,0.0,0.0,0.0,0.0,0.0,0.0,0.0,0.0,0.0,0.0,0
1704780515743044270,8921,0,,0,0,,0,0,0,0,0,0,36.9041269,118.16640107,25.46,0.0,0.886,0.0,0.26,-0.63,316.41,194935.0,0.0,0.0,0.667,-0.582,0.0,0.0,0.0,0.0,0.0,0.0,0.0,0.0,0.0,0.0,0.0,0.0,0.0,0.0,0.0,0.0,0.0,0.0,0.0,0.0,0
1704780515841343911,8922,0,,0,0,,0,0,0,0,0,0,36.90412751,118.1664004,25.46,0.0,0.934,0.0,0.27,-0.55,317.39,194935.1,0.0,0.0,0.705,-0.613,0.0,0.0,0.0,0.0,0.0,0.0,0.0,0.0,0.0,0.0,0.0,0.0,0.0,0.0,0.0,0.0,0.0,0.0,0.0,0.0,0
1704780515941465882,8923,0,,0,0,,0,0,0,0,0,0,36.90412816,118.16639969,25.46,0.0,0.994,0.0,0.22,-0.48,318.43,194935.2,0.0,0.0,0.761,-0.638,0.0,0.0,0.0,0.0,0.0,0.0,0.0,0.0,0.0,0.0,0.0,0.0,0.0,0.0,0.0,0.0,0.0,0.0,0.0,0.0,0
1704780516041704541,8924,0,,0,0,,0,0,0,0,0,0,36.90412887,118.16639895,25.46,0.0,1.054,0.0,0.15,-0.35,319.45,194935.3,0.0,0.0,0.831,-0.648,0.0,0.0,0.0,0.0,0.0,0.0,0.0,0.0,0.0,0.0,0.0,0.0,0.0,0.0,0.0,0.0,0.0,0.0,0.0,0.0,0
1704780516142176567,8925,0,,0,0,,0,0,0,0,0,0,36.90412964,118.16639821,25.46,0.0,1.097,0.0,0.09,-0.22,320.61,194935.4,0.0,0.0,0.868,-0.671,0.0,0.0,0.0,0.0,0.0,0.0,0.0,0.0,0.0,0.0,0.0,0.0,0.0,0.0,0.0,0.0,0.0,0.0,0.0,0.0,0
1704780516241121950,8926,0,,0,0,,0,0,0,0,0,0,36.90413041,118.16639742,25.47,0.0,1.136,0.0,-0.01,-0.25,321.95,194935.5,0.0,0.0,0.894,-0.701,0.0,0.0,0.0,0.0,0.0,0.0,0.0,0.0,0.0,0.0,0.0,0.0,0.0,0.0,0.0,0.0,0.0,0.0,0.0,0.0,0
1704780516341428426,8927,0,,0,0,,0,0,0,0,0,0,36.90413124,118.16639664,25.47,0.0,1.167,0.0,-0.15,-0.38,323.26,194935.6,0.0,0.0,0.943,-0.687,0.0,0.0,0.0,0.0,0.0,0.0,0.0,0.0,0.0,0.0,0.0,0.0,0.0,0.0,0.0,0.0,0.0,0.0,0.0,0.0,0
1704780516441219100,8928,0,,0,0,,0,0,0,0,0,0,36.90413209,118.16639586,25.47,0.0,1.164,0.0,-0.25,-0.43,324.55,194935.7,0.0,0.0,0.957,-0.662,0.0,0.0,0.0,0.0,0.0,0.0,0.0,0.0,0.0,0.0,0.0,0.0,0.0,0.0,0.0,0.0,0.0,0.0,0.0,0.0,0
1704780516541549518,8929,0,,0,0,,0,0,0,0,0,0,36.90413296,118.16639513,25.47,0.0,1.164,0.0,-0.39,-0.45,325.81,194935.8,0.0,0.0,0.976,-0.634,0.0,0.0,0.0,0.0,0.0,0.0,0.0,0.0,0.0,0.0,0.0,0.0,0.0,0.0,0.0,0.0,0.0,0.0,0.0,0.0,0
1704780516640793327,8930,0,,0,0,,0,0,0,0,0,0,36.90413381,118.16639442,25.47,0.0,1.156,0.0,-0.43,-0.41,327.04,194935.9,0.0,0.0,0.986,-0.602,0.0,0.0,0.0,0.0,0.0,0.0,0.0,0.0,0.0,0.0,0.0,0.0,0.0,0.0,0.0,0.0,0.0,0.0,0.0,0.0,0
1704780516740906583,8931,0,,0,0,,0,0,0,0,0,0,36.9041347,118.16639375,25.47,0.0,1.15,0.0,-0.54,-0.38,328.12,194936.0,0.0,0.0,0.986,-0.592,0.0,0.0,0.0,0.0,0.0,0.0,0.0,0.0,0.0,0.0,0.0,0.0,0.0,0.0,0.0,0.0,0.0,0.0,0.0,0.0,0
1704780516841251000,8932,0,,0,0,,0,0,0,0,0,0,36.90413557,118.1663931,25.47,0.0,1.13,0.0,-0.58,-0.32,328.88,194936.1,0.0,0.0,0.993,-0.539,0.0,0.0,0.0,0.0,0.0,0.0,0.0,0.0,0.0,0.0,0.0,0.0,0.0,0.0,0.0,0.0,0.0,0.0,0.0,0.0,0
1704780516941488813,8933,0,,0,0,,0,0,0,0,0,0,36.90413646,118.1663925,25.47,0.0,1.116,0.0,-0.62,-0.17,329.63,194936.2,0.0,0.0,0.979,-0.536,0.0,0.0,0.0,0.0,0.0,0.0,0.0,0.0,0.0,0.0,0.0,0.0,0.0,0.0,0.0,0.0,0.0,0.0,0.0,0.0,0
1704780517041498320,8934,0,,0,0,,0,0,0,0,0,0,36.9041373,118.16639187,25.47,0.0,1.121,0.0,-0.59,-0.17,330.12,194936.3,0.0,0.0,0.984,-0.537,0.0,0.0,0.0,0.0,0.0,0.0,0.0,0.0,0.0,0.0,0.0,0.0,0.0,0.0,0.0,0.0,0.0,0.0,0.0,0.0,0
1704780517141670559,8935,0,,0,0,,0,0,0,0,0,0,36.9041382,118.16639128,25.47,0.0,1.142,0.0,-0.64,0.02,330.46,194936.4,0.0,0.0,1.021,-0.511,0.0,0.0,0.0,0.0,0.0,0.0,0.0,0.0,0.0,0.0,0.0,0.0,0.0,0.0,0.0,0.0,0.0,0.0,0.0,0.0,0
1704780517240945200,8936,0,,0,0,,0,0,0,0,0,0,36.90413909,118.16639066,25.47,0.0,1.181,0.0,-0.61,0.14,330.69,194936.5,0.0,0.0,1.038,-0.563,0.0,0.0,0.0,0.0,0.0,0.0,0.0,0.0,0.0,0.0,0.0,0.0,0.0,0.0,0.0,0.0,0.0,0.0,0.0,0.0,0
1704780517340957784,8937,0,,0,0,,0,0,0,0,0,0,36.90414004,118.16639001,25.47,0.0,1.225,0.0,-0.64,0.09,330.56,194936.6,0.0,0.0,1.081,-0.577,0.0,0.0,0.0,0.0,0.0,0.0,0.0,0.0,0.0,0.0,0.0,0.0,0.0,0.0,0.0,0.0,0.0,0.0,0.0,0.0,0
1704780517441106327,8938,0,,0,0,,0,0,0,0,0,0,36.904141,118.16638932,25.47,0.0,1.285,0.0,-0.6,0.08,330.49,194936.7,0.0,0.0,1.127,-0.617,0.0,0.0,0.0,0.0,0.0,0.0,0.0,0.0,0.0,0.0,0.0,0.0,0.0,0.0,0.0,0.0,0.0,0.0,0.0,0.0,0
1704780517541255641,8939,0,,0,0,,0,0,0,0,0,0,36.90414202,118.1663886,25.47,0.0,1.329,0.0,-0.75,-0.07,330.41,194936.8,0.0,0.0,1.155,-0.658,0.0,0.0,0.0,0.0,0.0,0.0,0.0,0.0,0.0,0.0,0.0,0.0,0.0,0.0,0.0,0.0,0.0,0.0,0.0,0.0,0
1704780517640399219,8940,0,,0,0,,0,0,0,0,0,0,36.90414305,118.16638783,25.47,0.0,1.369,0.0,-0.61,-0.22,330.3,194936.9,0.0,0.0,1.198,-0.663,0.0,0.0,0.0,0.0,0.0,0.0,0.0,0.0,0.0,0.0,0.0,0.0,0.0,0.0,0.0,0.0,0.0,0.0,0.0,0.0,0
1704780517740129922,8941,0,,0,0,,0,0,0,0,0,0,36.90414414,118.16638708,25.47,0.0,1.395,0.0,-0.65,-0.26,330.29,194937.0,0.0,0.0,1.222,-0.673,0.0,0.0,0.0,0.0,0.0,0.0,0.0,0.0,0.0,0.0,0.0,0.0,0.0,0.0,0.0,0.0,0.0,0.0,0.0,0.0,0
1704780517840829412,8942,0,,0,0,,0,0,0,0,0,0,36.90414523,118.16638632,25.47,0.0,1.411,0.0,-0.63,-0.09,330.22,194937.1,0.0,0.0,1.256,-0.644,0.0,0.0,0.0,0.0,0.0,0.0,0.0,0.0,0.0,0.0,0.0,0.0,0.0,0.0,0.0,0.0,0.0,0.0,0.0,0.0,0
1704780517940996659,8943,0,,0,0,,0,0,0,0,0,0,36.90414635,118.16638557,25.47,0.0,1.407,0.0,-0.73,0.06,330.18,194937.2,0.0,0.0,1.238,-0.67,0.0,0.0,0.0,0.0,0.0,0.0,0.0,0.0,0.0,0.0,0.0,0.0,0.0,0.0,0.0,0.0,0.0,0.0,0.0,0.0,0
1704780518041233636,8944,0,,0,0,,0,0,0,0,0,0,36.90414745,118.1663848,25.47,0.0,1.419,0.0,-0.74,0.07,330.19,194937.3,0.0,0.0,1.246,-0.679,0.0,0.0,0.0,0.0,0.0,0.0,0.0,0.0,0.0,0.0,0.0,0.0,0.0,0.0,0.0,0.0,0.0,0.0,0.0,0.0,0
1704780518141281932,8945,0,,0,0,,0,0,0,0,0,0,36.90414855,118.16638404,25.47,0.0,1.376,0.0,-0.84,0.12,330.26,194937.4,0.0,0.0,1.209,-0.657,0.0,0.0,0.0,0.0,0.0,0.0,0.0,0.0,0.0,0.0,0.0,0.0,0.0,0.0,0.0,0.0,0.0,0.0,0.0,0.0,0
1704780518240417767,8946,0,,0,0,,0,0,0,0,0,0,36.90414962,118.16638328,25.47,0.0,1.387,0.0,-0.77,0.07,330.29,194937.5,0.0,0.0,1.212,-0.673,0.0,0.0,0.0,0.0,0.0,0.0,0.0,0.0,0.0,0.0,0.0,0.0,0.0,0.0,0.0,0.0,0.0,0.0,0.0,0.0,0
1704780518340698219,8947,0,,0,0,,0,0,0,0,0,0,36.9041507,118.16638252,25.47,0.0,1.374,0.0,-0.89,-0.01,330.37,194937.6,0.0,0.0,1.202,-0.666,0.0,0.0,0.0,0.0,0.0,0.0,0.0,0.0,0.0,0.0,0.0,0.0,0.0,0.0,0.0,0.0,0.0,0.0,0.0,0.0,0
1704780518440418020,8948,0,,0,0,,0,0,0,0,0,0,36.90415177,118.16638176,25.46,0.0,1.382,0.0,-0.89,-0.1,330.41,194937.7,0.0,0.0,1.216,-0.656,0.0,0.0,0.0,0.0,0.0,0.0,0.0,0.0,0.0,0.0,0.0,0.0,0.0,0.0,0.0,0.0,0.0,0.0,0.0,0.0,0
1704780518541228699,8949,0,,0,0,,0,0,0,0,0,0,36.90415284,118.16638103,25.46,0.0,1.355,0.0,-0.79,-0.09,330.65,194937.8,0.0,0.0,1.198,-0.634,0.0,0.0,0.0,0.0,0.0,0.0,0.0,0.0,0.0,0.0,0.0,0.0,0.0,0.0,0.0,0.0,0.0,0.0,0.0,0.0,0
1704780518640341599,8950,0,,0,0,,0,0,0,0,0,0,36.90415392,118.16638033,25.46,0.0,1.325,0.0,-0.88,0.06,331.03,194937.9,0.0,0.0,1.186,-0.591,0.0,0.0,0.0,0.0,0.0,0.0,0.0,0.0,0.0,0.0,0.0,0.0,0.0,0.0,0.0,0.0,0.0,0.0,0.0,0.0,0
1704780518740227837,8951,0,,0,0,,0,0,0,0,0,0,36.90415492,118.1663797,25.46,0.0,1.171,0.0,-0.88,0.2,331.43,194938.0,0.0,0.0,1.05,-0.518,0.0,0.0,0.0,0.0,0.0,0.0,0.0,0.0,0.0,0.0,0.0,0.0,0.0,0.0,0.0,0.0,0.0,0.0,0.0,0.0,0
1704780518840707112,8952,0,,0,0,,0,0,0,0,0,0,36.90415582,118.16637913,25.46,0.0,1.09,0.0,-0.76,0.22,331.95,194938.1,0.0,0.0,0.971,-0.496,0.0,0.0,0.0,0.0,0.0,0.0,0.0,0.0,0.0,0.0,0.0,0.0,0.0,0.0,0.0,0.0,0.0,0.0,0.0,0.0,0
1704780518940777638,8953,0,,0,0,,0,0,0,0,0,0,36.90415669,118.16637859,25.46,0.0,1.069,0.0,-0.79,0.23,332.48,194938.2,0.0,0.0,0.965,-0.46,0.0,0.0,0.0,0.0,0.0,0.0,0.0,0.0,0.0,0.0,0.0,0.0,0.0,0.0,0.0,0.0,0.0,0.0,0.0,0.0,0
1704780519041186538,8954,0,,0,0,,0,0,0,0,0,0,36.90415754,118.16637807,25.46,0.0,1.083,0.0,-0.67,0.17,333.0,194938.3,0.0,0.0,0.97,-0.481,0.0,0.0,0.0,0.0,0.0,0.0,0.0,0.0,0.0,0.0,0.0,0.0,0.0,0.0,0.0,0.0,0.0,0.0,0.0,0.0,0
1704780519141012791,8955,0,,0,0,,0,0,0,0,0,0,36.90415844,118.1663775,25.46,0.0,1.164,0.0,-0.63,-0.02,333.59,194938.4,0.0,0.0,1.044,-0.515,0.0,0.0,0.0,0.0,0.0,0.0,0.0,0.0,0.0,0.0,0.0,0.0,0.0,0.0,0.0,0.0,0.0,0.0,0.0,0.0,0
1704780519240352128,8956,0,,0,0,,0,0,0,0,0,0,36.90415941,118.16637692,25.46,0.0,1.23,0.0,-0.7,-0.12,334.32,194938.5,0.0,0.0,1.12,-0.508,0.0,0.0,0.0,0.0,0.0,0.0,0.0,0.0,0.0,0.0,0.0,0.0,0.0,0.0,0.0,0.0,0.0,0.0,0.0,0.0,0
1704780519340324190,8957,0,,0,0,,0,0,0,0,0,0,36.90416045,118.16637635,25.46,0.0,1.278,0.0,-0.76,-0.08,335.11,194938.6,0.0,0.0,1.176,-0.501,0.0,0.0,0.0,0.0,0.0,0.0,0.0,0.0,0.0,0.0,0.0,0.0,0.0,0.0,0.0,0.0,0.0,0.0,0.0,0.0,0
1704780519440656334,8958,0,,0,0,,0,0,0,0,0,0,36.90416153,118.16637578,25.46,0.0,1.328,0.0,-0.71,-0.08,335.9,194938.7,0.0,0.0,1.226,-0.512,0.0,0.0,0.0,0.0,0.0,0.0,0.0,0.0,0.0,0.0,0.0,0.0,0.0,0.0,0.0,0.0,0.0,0.0,0.0,0.0,0
1704780519540236396,8959,0,,0,0,,0,0,0,0,0,0,36.90416265,118.1663752,25.45,0.0,1.372,0.0,-0.7,-0.06,336.69,194938.8,0.0,0.0,1.273,-0.512,0.0,0.0,0.0,0.0,0.0,0.0,0.0,0.0,0.0,0.0,0.0,0.0,0.0,0.0,0.0,0.0,0.0,0.0,0.0,0.0,0
1704780519639967520,8960,0,,0,0,,0,0,0,0,0,0,36.90416383,118.16637463,25.45,0.0,1.395,0.0,-0.65,0.22,337.09,194938.9,0.0,0.0,1.315,-0.465,0.0,0.0,0.0,0.0,0.0,0.0,0.0,0.0,0.0,0.0,0.0,0.0,0.0,0.0,0.0,0.0,0.0,0.0,0.0,0.0,0
1704780519739964142,8961,0,,0,0,,0,0,0,0,0,0,36.904165,118.16637407,25.45,0.0,1.418,0.0,-0.58,0.35,336.97,194939.0,0.0,0.0,1.32,-0.517,0.0,0.0,0.0,0.0,0.0,0.0,0.0,0.0,0.0,0.0,0.0,0.0,0.0,0.0,0.0,0.0,0.0,0.0,0.0,0.0,0
1704780519840176450,8962,0,,0,0,,0,0,0,0,0,0,36.90416618,118.16637345,25.45,0.0,1.418,0.0,-0.64,0.35,337.07,194939.1,0.0,0.0,1.316,-0.528,0.0,0.0,0.0,0.0,0.0,0.0,0.0,0.0,0.0,0.0,0.0,0.0,0.0,0.0,0.0,0.0,0.0,0.0,0.0,0.0,0
1704780519939528094,8963,0,,0,0,,0,0,0,0,0,0,36.90416736,118.16637286,25.45,0.0,1.409,0.0,-0.68,0.38,337.16,194939.2,0.0,0.0,1.316,-0.503,0.0,0.0,0.0,0.0,0.0,0.0,0.0,0.0,0.0,0.0,0.0,0.0,0.0,0.0,0.0,0.0,0.0,0.0,0.0,0.0,0
1704780520041029352,8964,0,,0,0,,0,0,0,0,0,0,36.90416852,118.16637226,25.45,0.0,1.392,0.0,-0.74,0.33,337.16,194939.3,0.0,0.0,1.289,-0.525,0.0,0.0,0.0,0.0,0.0,0.0,0.0,0.0,0.0,0.0,0.0,0.0,0.0,0.0,0.0,0.0,0.0,0.0,0.0,0.0,0
1704780520140784226,8965,0,,0,0,,0,0,0,0,0,0,36.90416967,118.16637166,25.44,0.0,1.376,0.0,-0.83,0.19,337.29,194939.4,0.0,0.0,1.274,-0.519,0.0,0.0,0.0,0.0,0.0,0.0,0.0,0.0,0.0,0.0,0.0,0.0,0.0,0.0,0.0,0.0,0.0,0.0,0.0,0.0,0
1704780520240185747,8966,0,,0,0,,0,0,0,0,0,0,36.90417081,118.16637108,25.44,0.0,1.369,0.0,-0.76,0.14,337.34,194939.5,0.0,0.0,1.278,-0.489,0.0,0.0,0.0,0.0,0.0,0.0,0.0,0.0,0.0,0.0,0.0,0.0,0.0,0.0,0.0,0.0,0.0,0.0,0.0,0.0,0
1704780520339774231,8967,0,,0,0,,0,0,0,0,0,0,36.90417195,118.16637052,25.44,0.0,1.369,0.0,-0.82,0.19,337.34,194939.6,0.0,0.0,1.279,-0.49,0.0,0.0,0.0,0.0,0.0,0.0,0.0,0.0,0.0,0.0,0.0,0.0,0.0,0.0,0.0,0.0,0.0,0.0,0.0,0.0,0
1704780520440502876,8968,0,,0,0,,0,0,0,0,0,0,36.90417309,118.16636996,25.44,0.0,1.363,0.0,-0.79,0.3,337.34,194939.7,0.0,0.0,1.279,-0.47,0.0,0.0,0.0,0.0,0.0,0.0,0.0,0.0,0.0,0.0,0.0,0.0,0.0,0.0,0.0,0.0,0.0,0.0,0.0,0.0,0
1704780520540312652,8969,0,,0,0,,0,0,0,0,0,0,36.90417424,118.16636942,25.44,0.0,1.367,0.0,-0.83,0.47,337.36,194939.8,0.0,0.0,1.283,-0.473,0.0,0.0,0.0,0.0,0.0,0.0,0.0,0.0,0.0,0.0,0.0,0.0,0.0,0.0,0.0,0.0,0.0,0.0,0.0,0.0,0
1704780520639608341,8970,0,,0,0,,0,0,0,0,0,0,36.90417536,118.16636884,25.44,0.0,1.356,0.0,-0.77,0.44,337.37,194939.9,0.0,0.0,1.257,-0.509,0.0,0.0,0.0,0.0,0.0,0.0,0.0,0.0,0.0,0.0,0.0,0.0,0.0,0.0,0.0,0.0,0.0,0.0,0.0,0.0,0
1704780520739655030,8971,0,,0,0,,0,0,0,0,0,0,36.90417649,118.16636826,25.43,0.0,1.351,0.0,-0.68,0.3,337.35,194940.0,0.0,0.0,1.255,-0.501,0.0,0.0,0.0,0.0,0.0,0.0,0.0,0.0,0.0,0.0,0.0,0.0,0.0,0.0,0.0,0.0,0.0,0.0,0.0,0.0,0
1704780520839870693,8972,0,,0,0,,0,0,0,0,0,0,36.90417761,118.16636769,25.43,0.0,1.363,0.0,-0.58,0.3,337.31,194940.1,0.0,0.0,1.275,-0.48,0.0,0.0,0.0,0.0,0.0,0.0,0.0,0.0,0.0,0.0,0.0,0.0,0.0,0.0,0.0,0.0,0.0,0.0,0.0,0.0,0
1704780520939650497,8973,0,,0,0,,0,0,0,0,0,0,36.90417875,118.16636711,25.43,0.0,1.39,0.0,-0.53,0.19,337.31,194940.2,0.0,0.0,1.283,-0.534,0.0,0.0,0.0,0.0,0.0,0.0,0.0,0.0,0.0,0.0,0.0,0.0,0.0,0.0,0.0,0.0,0.0,0.0,0.0,0.0,0
1704780521040983465,8974,0,,0,0,,0,0,0,0,0,0,36.9041799,118.16636649,25.43,0.0,1.419,0.0,-0.44,-0.03,337.28,194940.3,0.0,0.0,1.315,-0.533,0.0,0.0,0.0,0.0,0.0,0.0,0.0,0.0,0.0,0.0,0.0,0.0,0.0,0.0,0.0,0.0,0.0,0.0,0.0,0.0,0
1704780521140343986,8975,0,,0,0,,0,0,0,0,0,0,36.90418111,118.1663659,25.43,0.0,1.472,0.0,-0.34,0.04,337.28,194940.4,0.0,0.0,1.383,-0.504,0.0,0.0,0.0,0.0,0.0,0.0,0.0,0.0,0.0,0.0,0.0,0.0,0.0,0.0,0.0,0.0,0.0,0.0,0.0,0.0,0
1704780521239253203,8976,0,,0,0,,0,0,0,0,0,0,36.90418235,118.16636527,25.43,0.0,1.529,0.0,-0.34,0.13,337.24,194940.5,0.0,0.0,1.42,-0.568,0.0,0.0,0.0,0.0,0.0,0.0,0.0,0.0,0.0,0.0,0.0,0.0,0.0,0.0,0.0,0.0,0.0,0.0,0.0,0.0,0
1704780521340073689,8977,0,,0,0,,0,0,0,0,0,0,36.90418364,118.16636459,25.42,0.0,1.579,0.0,-0.4,-0.08,337.24,194940.6,0.0,0.0,1.452,-0.62,0.0,0.0,0.0,0.0,0.0,0.0,0.0,0.0,0.0,0.0,0.0,0.0,0.0,0.0,0.0,0.0,0.0,0.0,0.0,0.0,0
1704780521440134021,8978,0,,0,0,,0,0,0,0,0,0,36.90418496,118.1663639,25.42,0.0,1.613,0.0,-0.38,-0.18,337.26,194940.7,0.0,0.0,1.504,-0.583,0.0,0.0,0.0,0.0,0.0,0.0,0.0,0.0,0.0,0.0,0.0,0.0,0.0,0.0,0.0,0.0,0.0,0.0,0.0,0.0,0
1704780521539713100,8979,0,,0,0,,0,0,0,0,0,0,36.90418632,118.16636322,25.43,0.0,1.637,0.0,-0.43,-0.2,337.26,194940.8,0.0,0.0,1.517,-0.615,0.0,0.0,0.0,0.0,0.0,0.0,0.0,0.0,0.0,0.0,0.0,0.0,0.0,0.0,0.0,0.0,0.0,0.0,0.0,0.0,0
1704780521639589655,8980,0,,0,0,,0,0,0,0,0,0,36.90418768,118.16636248,25.42,0.0,1.639,0.0,-0.26,-0.38,337.26,194940.9,0.0,0.0,1.517,-0.621,0.0,0.0,0.0,0.0,0.0,0.0,0.0,0.0,0.0,0.0,0.0,0.0,0.0,0.0,0.0,0.0,0.0,0.0,0.0,0.0,0
1704780521739320338,8981,0,,0,0,,0,0,0,0,0,0,36.90418907,118.1663618,25.42,0.0,1.682,0.0,-0.32,-0.29,337.24,194941.0,0.0,0.0,1.579,-0.58,0.0,0.0,0.0,0.0,0.0,0.0,0.0,0.0,0.0,0.0,0.0,0.0,0.0,0.0,0.0,0.0,0.0,0.0,0.0,0.0,0
1704780521839833263,8982,0,,0,0,,0,0,0,0,0,0,36.90419047,118.16636111,25.42,0.0,1.666,0.0,-0.23,-0.07,337.25,194941.1,0.0,0.0,1.556,-0.595,0.0,0.0,0.0,0.0,0.0,0.0,0.0,0.0,0.0,0.0,0.0,0.0,0.0,0.0,0.0,0.0,0.0,0.0,0.0,0.0,0
1704780521939805427,8983,0,,0,0,,0,0,0,0,0,0,36.90419187,118.1663604,25.42,0.0,1.693,0.0,-0.46,-0.07,337.28,194941.2,0.0,0.0,1.57,-0.633,0.0,0.0,0.0,0.0,0.0,0.0,0.0,0.0,0.0,0.0,0.0,0.0,0.0,0.0,0.0,0.0,0.0,0.0,0.0,0.0,0
1704780522039541086,8984,0,,0,0,,0,0,0,0,0,0,36.90419327,118.16635967,25.42,0.0,1.66,0.0,-0.46,-0.11,337.37,194941.3,0.0,0.0,1.543,-0.61,0.0,0.0,0.0,0.0,0.0,0.0,0.0,0.0,0.0,0.0,0.0,0.0,0.0,0.0,0.0,0.0,0.0,0.0,0.0,0.0,0
1704780522139746360,8985,0,,0,0,,0,0,0,0,0,0,36.90419466,118.16635897,25.42,0.0,1.668,0.0,-0.72,-0.18,337.46,194941.4,0.0,0.0,1.545,-0.63,0.0,0.0,0.0,0.0,0.0,0.0,0.0,0.0,0.0,0.0,0.0,0.0,0.0,0.0,0.0,0.0,0.0,0.0,0.0,0.0,0
1704780522239094305,8986,0,,0,0,,0,0,0,0,0,0,36.90419604,118.16635824,25.42,0.0,1.639,0.0,-0.65,-0.28,337.52,194941.5,0.0,0.0,1.525,-0.601,0.0,0.0,0.0,0.0,0.0,0.0,0.0,0.0,0.0,0.0,0.0,0.0,0.0,0.0,0.0,0.0,0.0,0.0,0.0,0.0,0
1704780522338771909,8987,0,,0,0,,0,0,0,0,0,0,36.90419741,118.16635756,25.42,0.0,1.641,0.0,-0.69,-0.26,337.56,194941.6,0.0,0.0,1.533,-0.585,0.0,0.0,0.0,0.0,0.0,0.0,0.0,0.0,0.0,0.0,0.0,0.0,0.0,0.0,0.0,0.0,0.0,0.0,0.0,0.0,0
1704780522440036934,8988,0,,0,0,,0,0,0,0,0,0,36.90419878,118.16635688,25.42,0.0,1.621,0.0,-0.67,-0.2,337.58,194941.7,0.0,0.0,1.513,-0.582,0.0,0.0,0.0,0.0,0.0,0.0,0.0,0.0,0.0,0.0,0.0,0.0,0.0,0.0,0.0,0.0,0.0,0.0,0.0,0.0,0
1704780522539602611,8989,0,,0,0,,0,0,0,0,0,0,36.90420013,118.16635622,25.42,0.0,1.63,0.0,-0.6,-0.16,337.57,194941.8,0.0,0.0,1.524,-0.58,0.0,0.0,0.0,0.0,0.0,0.0,0.0,0.0,0.0,0.0,0.0,0.0,0.0,0.0,0.0,0.0,0.0,0.0,0.0,0.0,0
1704780522638715527,8990,0,,0,0,,0,0,0,0,0,0,36.90420148,118.16635554,25.42,0.0,1.618,0.0,-0.59,-0.12,337.57,194941.9,0.0,0.0,1.508,-0.586,0.0,0.0,0.0,0.0,0.0,0.0,0.0,0.0,0.0,0.0,0.0,0.0,0.0,0.0,0.0,0.0,0.0,0.0,0.0,0.0,0
1704780522739100073,8991,0,,0,0,,0,0,0,0,0,0,36.90420283,118.16635486,25.42,0.0,1.628,0.0,-0.51,-0.14,337.57,194942.0,0.0,0.0,1.515,-0.596,0.0,0.0,0.0,0.0,0.0,0.0,0.0,0.0,0.0,0.0,0.0,0.0,0.0,0.0,0.0,0.0,0.0,0.0,0.0,0.0,0
1704780522839259443,8992,0,,0,0,,0,0,0,0,0,0,36.9042042,118.16635417,25.42,0.0,1.634,0.0,-0.55,-0.2,337.58,194942.1,0.0,0.0,1.518,-0.606,0.0,0.0,0.0,0.0,0.0,0.0,0.0,0.0,0.0,0.0,0.0,0.0,0.0,0.0,0.0,0.0,0.0,0.0,0.0,0.0,0
1704780522939622124,8993,0,,0,0,,0,0,0,0,0,0,36.90420556,118.16635348,25.42,0.0,1.626,0.0,-0.59,-0.32,337.58,194942.2,0.0,0.0,1.508,-0.609,0.0,0.0,0.0,0.0,0.0,0.0,0.0,0.0,0.0,0.0,0.0,0.0,0.0,0.0,0.0,0.0,0.0,0.0,0.0,0.0,0
1704780523039642965,8994,0,,0,0,,0,0,0,0,0,0,36.90420691,118.16635278,25.41,0.0,1.619,0.0,-0.5,-0.39,337.61,194942.3,0.0,0.0,1.506,-0.595,0.0,0.0,0.0,0.0,0.0,0.0,0.0,0.0,0.0,0.0,0.0,0.0,0.0,0.0,0.0,0.0,0.0,0.0,0.0,0.0,0
1704780523139387940,8995,0,,0,0,,0,0,0,0,0,0,36.90420826,118.1663521,25.41,0.0,1.625,0.0,-0.53,-0.44,337.62,194942.4,0.0,0.0,1.513,-0.594,0.0,0.0,0.0,0.0,0.0,0.0,0.0,0.0,0.0,0.0,0.0,0.0,0.0,0.0,0.0,0.0,0.0,0.0,0.0,0.0,0
1704780523239391763,8996,0,,0,0,,0,0,0,0,0,0,36.90420963,118.16635142,25.41,0.0,1.621,0.0,-0.55,-0.4,337.63,194942.5,0.0,0.0,1.515,-0.577,0.0,0.0,0.0,0.0,0.0,0.0,0.0,0.0,0.0,0.0,0.0,0.0,0.0,0.0,0.0,0.0,0.0,0.0,0.0,0.0,0
1704780523338979040,8997,0,,0,0,,0,0,0,0,0,0,36.90421098,118.16635078,25.41,0.0,1.61,0.0,-0.53,-0.24,337.67,194942.6,0.0,0.0,1.511,-0.557,0.0,0.0,0.0,0.0,0.0,0.0,0.0,0.0,0.0,0.0,0.0,0.0,0.0,0.0,0.0,0.0,0.0,0.0,0.0,0.0,0
1704780523439593426,8998,0,,0,0,,0,0,0,0,0,0,36.90421234,118.16635012,25.41,0.0,1.606,0.0,-0.44,-0.08,337.77,194942.7,0.0,0.0,1.5,-0.573,0.0,0.0,0.0,0.0,0.0,0.0,0.0,0.0,0.0,0.0,0.0,0.0,0.0,0.0,0.0,0.0,0.0,0.0,0.0,0.0,0
1704780523539762651,8999,0,,0,0,,0,0,0,0,0,0,36.90421369,118.16634945,25.41,0.0,1.622,0.0,-0.44,-0.15,337.9,194942.8,0.0,0.0,1.503,-0.608,0.0,0.0,0.0,0.0,0.0,0.0,0.0,0.0,0.0,0.0,0.0,0.0,0.0,0.0,0.0,0.0,0.0,0.0,0.0,0.0,0
1704780523638712388,9000,0,,0,0,,0,0,0,0,0,0,36.90421505,118.16634878,25.41,0.0,1.627,0.0,-0.46,-0.18,337.98,194942.9,0.0,0.0,1.523,-0.573,0.0,0.0,0.0,0.0,0.0,0.0,0.0,0.0,0.0,0.0,0.0,0.0,0.0,0.0,0.0,0.0,0.0,0.0,0.0,0.0,0
1704780523738927842,9001,0,,0,0,,0,0,0,0,0,0,36.90421643,118.16634812,25.41,0.0,1.639,0.0,-0.56,-0.13,338.11,194943.0,0.0,0.0,1.533,-0.581,0.0,0.0,0.0,0.0,0.0,0.0,0.0,0.0,0.0,0.0,0.0,0.0,0.0,0.0,0.0,0.0,0.0,0.0,0.0,0.0,0
1704780523839103849,9002,0,,0,0,,0,0,0,0,0,0,36.9042178,118.16634746,25.41,0.0,1.623,0.0,-0.52,-0.07,338.16,194943.1,0.0,0.0,1.522,-0.564,0.0,0.0,0.0,0.0,0.0,0.0,0.0,0.0,0.0,0.0,0.0,0.0,0.0,0.0,0.0,0.0,0.0,0.0,0.0,0.0,0
1704780523939226972,9003,0,,0,0,,0,0,0,0,0,0,36.90421918,118.16634682,25.41,0.0,1.645,0.0,-0.73,0.07,338.25,194943.2,0.0,0.0,1.544,-0.568,0.0,0.0,0.0,0.0,0.0,0.0,0.0,0.0,0.0,0.0,0.0,0.0,0.0,0.0,0.0,0.0,0.0,0.0,0.0,0.0,0
1704780524038472264,9004,0,,0,0,,0,0,0,0,0,0,36.90422057,118.16634615,25.41,0.0,1.616,0.0,-0.71,0.07,338.32,194943.3,0.0,0.0,1.508,-0.583,0.0,0.0,0.0,0.0,0.0,0.0,0.0,0.0,0.0,0.0,0.0,0.0,0.0,0.0,0.0,0.0,0.0,0.0,0.0,0.0,0
1704780524138262147,9005,0,,0,0,,0,0,0,0,0,0,36.90422192,118.16634549,25.41,0.0,1.615,0.0,-0.75,0.0,338.35,194943.4,0.0,0.0,1.51,-0.571,0.0,0.0,0.0,0.0,0.0,0.0,0.0,0.0,0.0,0.0,0.0,0.0,0.0,0.0,0.0,0.0,0.0,0.0,0.0,0.0,0
1704780524239461505,9006,0,,0,0,,0,0,0,0,0,0,36.90422329,118.16634485,25.4,0.0,1.602,0.0,-0.57,0.04,338.4,194943.5,0.0,0.0,1.504,-0.552,0.0,0.0,0.0,0.0,0.0,0.0,0.0,0.0,0.0,0.0,0.0,0.0,0.0,0.0,0.0,0.0,0.0,0.0,0.0,0.0,0
1704780524338842878,9007,0,,0,0,,0,0,0,0,0,0,36.90422464,118.16634421,25.4,0.0,1.613,0.0,-0.67,0.15,338.43,194943.6,0.0,0.0,1.518,-0.544,0.0,0.0,0.0,0.0,0.0,0.0,0.0,0.0,0.0,0.0,0.0,0.0,0.0,0.0,0.0,0.0,0.0,0.0,0.0,0.0,0
1704780524439207130,9008,0,,0,0,,0,0,0,0,0,0,36.90422602,118.16634358,25.4,0.0,1.608,0.0,-0.57,0.24,338.49,194943.7,0.0,0.0,1.508,-0.559,0.0,0.0,0.0,0.0,0.0,0.0,0.0,0.0,0.0,0.0,0.0,0.0,0.0,0.0,0.0,0.0,0.0,0.0,0.0,0.0,0
1704780524539246927,9009,0,,0,0,,0,0,0,0,0,0,36.90422737,118.16634291,25.4,0.0,1.626,0.0,-0.52,0.07,338.51,194943.8,0.0,0.0,1.508,-0.609,0.0,0.0,0.0,0.0,0.0,0.0,0.0,0.0,0.0,0.0,0.0,0.0,0.0,0.0,0.0,0.0,0.0,0.0,0.0,0.0,0
1704780524638399938,9010,0,,0,0,,0,0,0,0,0,0,36.90422875,118.16634225,25.4,0.0,1.611,0.0,-0.49,0.01,338.52,194943.9,0.0,0.0,1.515,-0.547,0.0,0.0,0.0,0.0,0.0,0.0,0.0,0.0,0.0,0.0,0.0,0.0,0.0,0.0,0.0,0.0,0.0,0.0,0.0,0.0,0
1704780524738632841,9011,0,,0,0,,0,0,0,0,0,0,36.90423012,118.16634163,25.4,0.0,1.621,0.0,-0.5,0.16,338.62,194944.0,0.0,0.0,1.523,-0.554,0.0,0.0,0.0,0.0,0.0,0.0,0.0,0.0,0.0,0.0,0.0,0.0,0.0,0.0,0.0,0.0,0.0,0.0,0.0,0.0,0
1704780524838823671,9012,0,,0,0,,0,0,0,0,0,0,36.90423148,118.16634097,25.4,0.0,1.597,0.0,-0.38,-0.01,338.74,194944.1,0.0,0.0,1.481,-0.599,0.0,0.0,0.0,0.0,0.0,0.0,0.0,0.0,0.0,0.0,0.0,0.0,0.0,0.0,0.0,0.0,0.0,0.0,0.0,0.0,0
1704780524938913166,9013,0,,0,0,,0,0,0,0,0,0,36.90423283,118.16634032,25.4,0.0,1.603,0.0,-0.3,-0.08,339.08,194944.2,0.0,0.0,1.512,-0.532,0.0,0.0,0.0,0.0,0.0,0.0,0.0,0.0,0.0,0.0,0.0,0.0,0.0,0.0,0.0,0.0,0.0,0.0,0.0,0.0,0
1704780525037753474,9014,0,,0,0,,0,0,0,0,0,0,36.90423421,118.16633973,25.4,0.0,1.6,0.0,-0.17,0.07,339.44,194944.3,0.0,0.0,1.512,-0.523,0.0,0.0,0.0,0.0,0.0,0.0,0.0,0.0,0.0,0.0,0.0,0.0,0.0,0.0,0.0,0.0,0.0,0.0,0.0,0.0,0
1704780525137864752,9015,0,,0,0,,0,0,0,0,0,0,36.90423556,118.1663391,25.4,0.0,1.605,0.0,-0.11,-0.05,339.92,194944.4,0.0,0.0,1.508,-0.55,0.0,0.0,0.0,0.0,0.0,0.0,0.0,0.0,0.0,0.0,0.0,0.0,0.0,0.0,0.0,0.0,0.0,0.0,0.0,0.0,0
1704780525238245878,9016,0,,0,0,,0,0,0,0,0,0,36.90423697,118.16633852,25.4,0.0,1.625,0.0,-0.3,0.17,340.55,194944.5,0.0,0.0,1.559,-0.459,0.0,0.0,0.0,0.0,0.0,0.0,0.0,0.0,0.0,0.0,0.0,0.0,0.0,0.0,0.0,0.0,0.0,0.0,0.0,0.0,0
1704780525338256811,9017,0,,0,0,,0,0,0,0,0,0,36.90423836,118.16633799,25.4,0.0,1.626,0.0,-0.35,0.36,340.97,194944.6,0.0,0.0,1.541,-0.517,0.0,0.0,0.0,0.0,0.0,0.0,0.0,0.0,0.0,0.0,0.0,0.0,0.0,0.0,0.0,0.0,0.0,0.0,0.0,0.0,0
1704780525438487829,9018,0,,0,0,,0,0,0,0,0,0,36.90423977,118.16633737,25.4,0.0,1.616,0.0,-0.36,0.12,341.12,194944.7,0.0,0.0,1.526,-0.531,0.0,0.0,0.0,0.0,0.0,0.0,0.0,0.0,0.0,0.0,0.0,0.0,0.0,0.0,0.0,0.0,0.0,0.0,0.0,0.0,0
1704780525538910173,9019,0,,0,0,,0,0,0,0,0,0,36.90424116,118.16633681,25.4,0.0,1.628,0.0,-0.36,0.19,341.23,194944.8,0.0,0.0,1.564,-0.453,0.0,0.0,0.0,0.0,0.0,0.0,0.0,0.0,0.0,0.0,0.0,0.0,0.0,0.0,0.0,0.0,0.0,0.0,0.0,0.0,0
1704780525637936069,9020,0,,0,0,,0,0,0,0,0,0,36.9042426,118.16633628,25.4,0.0,1.636,0.0,-0.53,0.41,341.28,194944.9,0.0,0.0,1.561,-0.49,0.0,0.0,0.0,0.0,0.0,0.0,0.0,0.0,0.0,0.0,0.0,0.0,0.0,0.0,0.0,0.0,0.0,0.0,0.0,0.0,0
1704780525737992330,9021,0,,0,0,,0,0,0,0,0,0,36.90424398,118.16633571,25.4,0.0,1.601,0.0,-0.38,0.35,341.28,194945.0,0.0,0.0,1.517,-0.511,0.0,0.0,0.0,0.0,0.0,0.0,0.0,0.0,0.0,0.0,0.0,0.0,0.0,0.0,0.0,0.0,0.0,0.0,0.0,0.0,0
1704780525838793840,9022,0,,0,0,,0,0,0,0,0,0,36.90424538,118.16633513,25.4,0.0,1.615,0.0,-0.28,0.29,341.38,194945.1,0.0,0.0,1.539,-0.492,0.0,0.0,0.0,0.0,0.0,0.0,0.0,0.0,0.0,0.0,0.0,0.0,0.0,0.0,0.0,0.0,0.0,0.0,0.0,0.0,0
1704780525938192187,9023,0,,0,0,,0,0,0,0,0,0,36.90424676,118.16633458,25.39,0.0,1.613,0.0,-0.26,0.3,341.4,194945.2,0.0,0.0,1.538,-0.487,0.0,0.0,0.0,0.0,0.0,0.0,0.0,0.0,0.0,0.0,0.0,0.0,0.0,0.0,0.0,0.0,0.0,0.0,0.0,0.0,0
1704780526037176439,9024,0,,0,0,,0,0,0,0,0,0,36.90424818,118.16633401,25.4,0.0,1.619,0.0,-0.38,0.28,341.41,194945.3,0.0,0.0,1.54,-0.501,0.0,0.0,0.0,0.0,0.0,0.0,0.0,0.0,0.0,0.0,0.0,0.0,0.0,0.0,0.0,0.0,0.0,0.0,0.0,0.0,0
1704780526137655853,9025,0,,0,0,,0,0,0,0,0,0,36.90424956,118.16633345,25.4,0.0,1.611,0.0,-0.38,0.26,341.4,194945.4,0.0,0.0,1.536,-0.485,0.0,0.0,0.0,0.0,0.0,0.0,0.0,0.0,0.0,0.0,0.0,0.0,0.0,0.0,0.0,0.0,0.0,0.0,0.0,0.0,0
1704780526237721269,9026,0,,0,0,,0,0,0,0,0,0,36.90425097,118.1663329,25.4,0.0,1.616,0.0,-0.35,0.32,341.38,194945.5,0.0,0.0,1.542,-0.482,0.0,0.0,0.0,0.0,0.0,0.0,0.0,0.0,0.0,0.0,0.0,0.0,0.0,0.0,0.0,0.0,0.0,0.0,0.0,0.0,0
1704780526337546443,9027,0,,0,0,,0,0,0,0,0,0,36.90425236,118.16633234,25.4,0.0,1.638,0.0,-0.41,0.26,341.35,194945.6,0.0,0.0,1.555,-0.513,0.0,0.0,0.0,0.0,0.0,0.0,0.0,0.0,0.0,0.0,0.0,0.0,0.0,0.0,0.0,0.0,0.0,0.0,0.0,0.0,0
1704780526437691306,9028,0,,0,0,,0,0,0,0,0,0,36.90425378,118.16633175,25.4,0.0,1.64,0.0,-0.51,0.2,341.32,194945.7,0.0,0.0,1.562,-0.5,0.0,0.0,0.0,0.0,0.0,0.0,0.0,0.0,0.0,0.0,0.0,0.0,0.0,0.0,0.0,0.0,0.0,0.0,0.0,0.0,0
1704780526538416532,9029,0,,0,0,,0,0,0,0,0,0,36.90425519,118.16633118,25.4,0.0,1.646,0.0,-0.51,0.21,341.32,194945.8,0.0,0.0,1.568,-0.502,0.0,0.0,0.0,0.0,0.0,0.0,0.0,0.0,0.0,0.0,0.0,0.0,0.0,0.0,0.0,0.0,0.0,0.0,0.0,0.0,0
1704780526637873462,9030,0,,0,0,,0,0,0,0,0,0,36.9042566,118.1663306,25.4,0.0,1.626,0.0,-0.56,0.08,341.3,194945.9,0.0,0.0,1.54,-0.522,0.0,0.0,0.0,0.0,0.0,0.0,0.0,0.0,0.0,0.0,0.0,0.0,0.0,0.0,0.0,0.0,0.0,0.0,0.0,0.0,0
1704780526739330666,9031,0,,0,0,,0,0,0,0,0,0,36.90425798,118.16633002,25.39,0.0,1.635,0.0,-0.58,-0.03,341.31,194946.0,0.0,0.0,1.555,-0.506,0.0,0.0,0.0,0.0,0.0,0.0,0.0,0.0,0.0,0.0,0.0,0.0,0.0,0.0,0.0,0.0,0.0,0.0,0.0,0.0,0
1704780526837634853,9032,0,,0,0,,0,0,0,0,0,0,36.90425939,118.16632944,25.39,0.0,1.616,0.0,-0.63,-0.06,341.33,194946.1,0.0,0.0,1.537,-0.499,0.0,0.0,0.0,0.0,0.0,0.0,0.0,0.0,0.0,0.0,0.0,0.0,0.0,0.0,0.0,0.0,0.0,0.0,0.0,0.0,0
1704780526937154292,9033,0,,0,0,,0,0,0,0,0,0,36.90426077,118.16632887,25.39,0.0,1.612,0.0,-0.62,-0.15,341.3,194946.2,0.0,0.0,1.529,-0.51,0.0,0.0,0.0,0.0,0.0,0.0,0.0,0.0,0.0,0.0,0.0,0.0,0.0,0.0,0.0,0.0,0.0,0.0,0.0,0.0,0
1704780527038271539,9034,0,,0,0,,0,0,0,0,0,0,36.90426216,118.1663283,25.39,0.0,1.614,0.0,-0.64,-0.2,341.24,194946.3,0.0,0.0,1.536,-0.496,0.0,0.0,0.0,0.0,0.0,0.0,0.0,0.0,0.0,0.0,0.0,0.0,0.0,0.0,0.0,0.0,0.0,0.0,0.0,0.0,0
1704780527138127746,9035,0,,0,0,,0,0,0,0,0,0,36.90426354,118.16632775,25.39,0.0,1.61,0.0,-0.66,-0.12,341.21,194946.4,0.0,0.0,1.536,-0.482,0.0,0.0,0.0,0.0,0.0,0.0,0.0,0.0,0.0,0.0,0.0,0.0,0.0,0.0,0.0,0.0,0.0,0.0,0.0,0.0,0
1704780527237920804,9036,0,,0,0,,0,0,0,0,0,0,36.90426494,118.16632719,25.39,0.0,1.618,0.0,-0.7,-0.03,341.19,194946.5,0.0,0.0,1.54,-0.497,0.0,0.0,0.0,0.0,0.0,0.0,0.0,0.0,0.0,0.0,0.0,0.0,0.0,0.0,0.0,0.0,0.0,0.0,0.0,0.0,0
1704780527338440080,9037,0,,0,0,,0,0,0,0,0,0,36.90426632,118.16632662,25.39,0.0,1.619,0.0,-0.68,-0.09,341.18,194946.6,0.0,0.0,1.535,-0.515,0.0,0.0,0.0,0.0,0.0,0.0,0.0,0.0,0.0,0.0,0.0,0.0,0.0,0.0,0.0,0.0,0.0,0.0,0.0,0.0,0
1704780527437799668,9038,0,,0,0,,0,0,0,0,0,0,36.90426776,118.16632604,25.39,0.0,1.632,0.0,-0.79,-0.1,341.16,194946.7,0.0,0.0,1.557,-0.489,0.0,0.0,0.0,0.0,0.0,0.0,0.0,0.0,0.0,0.0,0.0,0.0,0.0,0.0,0.0,0.0,0.0,0.0,0.0,0.0,0
1704780527537454509,9039,0,,0,0,,0,0,0,0,0,0,36.90426915,118.16632548,25.39,0.0,1.632,0.0,-0.82,-0.01,341.17,194946.8,0.0,0.0,1.553,-0.502,0.0,0.0,0.0,0.0,0.0,0.0,0.0,0.0,0.0,0.0,0.0,0.0,0.0,0.0,0.0,0.0,0.0,0.0,0.0,0.0,0
1704780527638302046,9040,0,,0,0,,0,0,0,0,0,0,36.9042706,118.16632488,25.39,0.0,1.657,0.0,-0.82,-0.12,341.23,194946.9,0.0,0.0,1.567,-0.539,0.0,0.0,0.0,0.0,0.0,0.0,0.0,0.0,0.0,0.0,0.0,0.0,0.0,0.0,0.0,0.0,0.0,0.0,0.0,0.0,0
1704780527738371510,9041,0,,0,0,,0,0,0,0,0,0,36.90427201,118.16632428,25.38,0.0,1.65,0.0,-0.84,-0.19,341.24,194947.0,0.0,0.0,1.572,-0.503,0.0,0.0,0.0,0.0,0.0,0.0,0.0,0.0,0.0,0.0,0.0,0.0,0.0,0.0,0.0,0.0,0.0,0.0,0.0,0.0,0
1704780527837455702,9042,0,,0,0,,0,0,0,0,0,0,36.90427347,118.1663237,25.38,0.0,1.637,0.0,-0.84,-0.15,341.17,194947.1,0.0,0.0,1.558,-0.502,0.0,0.0,0.0,0.0,0.0,0.0,0.0,0.0,0.0,0.0,0.0,0.0,0.0,0.0,0.0,0.0,0.0,0.0,0.0,0.0,0
1704780527937082464,9043,0,,0,0,,0,0,0,0,0,0,36.90427485,118.16632313,25.38,0.0,1.593,0.0,-0.69,-0.13,341.14,194947.2,0.0,0.0,1.516,-0.49,0.0,0.0,0.0,0.0,0.0,0.0,0.0,0.0,0.0,0.0,0.0,0.0,0.0,0.0,0.0,0.0,0.0,0.0,0.0,0.0,0
1704780528037954556,9044,0,,0,0,,0,0,0,0,0,0,36.90427626,118.16632259,25.38,0.0,1.608,0.0,-0.69,0.05,341.1,194947.3,0.0,0.0,1.541,-0.459,0.0,0.0,0.0,0.0,0.0,0.0,0.0,0.0,0.0,0.0,0.0,0.0,0.0,0.0,0.0,0.0,0.0,0.0,0.0,0.0,0
1704780528137498373,9045,0,,0,0,,0,0,0,0,0,0,36.90427763,118.16632206,25.38,0.0,1.597,0.0,-0.63,0.28,341.02,194947.4,0.0,0.0,1.521,-0.486,0.0,0.0,0.0,0.0,0.0,0.0,0.0,0.0,0.0,0.0,0.0,0.0,0.0,0.0,0.0,0.0,0.0,0.0,0.0,0.0,0
1704780528238044494,9046,0,,0,0,,0,0,0,0,0,0,36.90427904,118.16632146,25.38,0.0,1.638,0.0,-0.75,0.05,340.93,194947.5,0.0,0.0,1.533,-0.576,0.0,0.0,0.0,0.0,0.0,0.0,0.0,0.0,0.0,0.0,0.0,0.0,0.0,0.0,0.0,0.0,0.0,0.0,0.0,0.0,0
1704780528338105476,9047,0,,0,0,,0,0,0,0,0,0,36.90428042,118.16632082,25.37,0.0,1.636,0.0,-0.77,-0.27,340.8,194947.6,0.0,0.0,1.549,-0.528,0.0,0.0,0.0,0.0,0.0,0.0,0.0,0.0,0.0,0.0,0.0,0.0,0.0,0.0,0.0,0.0,0.0,0.0,0.0,0.0,0
1704780528437065434,9048,0,,0,0,,0,0,0,0,0,0,36.90428186,118.16632024,25.37,0.0,1.638,0.0,-0.9,-0.16,340.68,194947.7,0.0,0.0,1.564,-0.487,0.0,0.0,0.0,0.0,0.0,0.0,0.0,0.0,0.0,0.0,0.0,0.0,0.0,0.0,0.0,0.0,0.0,0.0,0.0,0.0,0
1704780528537202207,9049,0,,0,0,,0,0,0,0,0,0,36.90428325,118.16631967,25.37,0.0,1.619,0.0,-0.96,-0.04,340.46,194947.8,0.0,0.0,1.532,-0.523,0.0,0.0,0.0,0.0,0.0,0.0,0.0,0.0,0.0,0.0,0.0,0.0,0.0,0.0,0.0,0.0,0.0,0.0,0.0,0.0,0
1704780528637296913,9050,0,,0,0,,0,0,0,0,0,0,36.90428465,118.16631906,25.37,0.0,1.612,0.0,-0.88,-0.11,340.31,194947.9,0.0,0.0,1.521,-0.534,0.0,0.0,0.0,0.0,0.0,0.0,0.0,0.0,0.0,0.0,0.0,0.0,0.0,0.0,0.0,0.0,0.0,0.0,0.0,0.0,0
1704780528737818593,9051,0,,0,0,,0,0,0,0,0,0,36.90428602,118.16631847,25.37,0.0,1.597,0.0,-0.88,-0.11,340.21,194948.0,0.0,0.0,1.507,-0.527,0.0,0.0,0.0,0.0,0.0,0.0,0.0,0.0,0.0,0.0,0.0,0.0,0.0,0.0,0.0,0.0,0.0,0.0,0.0,0.0,0
1704780528836757921,9052,0,,0,0,,0,0,0,0,0,0,36.9042874,118.16631784,25.37,0.0,1.591,0.0,-0.69,-0.29,340.13,194948.1,0.0,0.0,1.49,-0.559,0.0,0.0,0.0,0.0,0.0,0.0,0.0,0.0,0.0,0.0,0.0,0.0,0.0,0.0,0.0,0.0,0.0,0.0,0.0,0.0,0
1704780528937049506,9053,0,,0,0,,0,0,0,0,0,0,36.90428875,118.16631724,25.36,0.0,1.599,0.0,-0.66,-0.3,339.98,194948.2,0.0,0.0,1.518,-0.503,0.0,0.0,0.0,0.0,0.0,0.0,0.0,0.0,0.0,0.0,0.0,0.0,0.0,0.0,0.0,0.0,0.0,0.0,0.0,0.0,0
1704780529037849630,9054,0,,0,0,,0,0,0,0,0,0,36.90429015,118.16631667,25.36,0.0,1.606,0.0,-0.64,-0.09,339.66,194948.3,0.0,0.0,1.518,-0.522,0.0,0.0,0.0,0.0,0.0,0.0,0.0,0.0,0.0,0.0,0.0,0.0,0.0,0.0,0.0,0.0,0.0,0.0,0.0,0.0,0
1704780529137370283,9055,0,,0,0,,0,0,0,0,0,0,36.90429151,118.16631605,25.36,0.0,1.606,0.0,-0.6,-0.14,339.12,194948.4,0.0,0.0,1.5,-0.575,0.0,0.0,0.0,0.0,0.0,0.0,0.0,0.0,0.0,0.0,0.0,0.0,0.0,0.0,0.0,0.0,0.0,0.0,0.0,0.0,0
1704780529237737147,9056,0,,0,0,,0,0,0,0,0,0,36.9042929,118.1663154,25.36,0.0,1.622,0.0,-0.52,-0.23,338.47,194948.5,0.0,0.0,1.516,-0.576,0.0,0.0,0.0,0.0,0.0,0.0,0.0,0.0,0.0,0.0,0.0,0.0,0.0,0.0,0.0,0.0,0.0,0.0,0.0,0.0,0
1704780529337830479,9057,0,,0,0,,0,0,0,0,0,0,36.90429427,118.16631475,25.36,0.0,1.633,0.0,-0.63,-0.17,337.79,194948.6,0.0,0.0,1.525,-0.585,0.0,0.0,0.0,0.0,0.0,0.0,0.0,0.0,0.0,0.0,0.0,0.0,0.0,0.0,0.0,0.0,0.0,0.0,0.0,0.0,0
1704780529437068511,9058,0,,0,0,,0,0,0,0,0,0,36.90429566,118.16631407,25.36,0.0,1.617,0.0,-0.62,-0.15,337.06,194948.7,0.0,0.0,1.493,-0.622,0.0,0.0,0.0,0.0,0.0,0.0,0.0,0.0,0.0,0.0,0.0,0.0,0.0,0.0,0.0,0.0,0.0,0.0,0.0,0.0,0
1704780529537048697,9059,0,,0,0,,0,0,0,0,0,0,36.904297,118.16631336,25.36,0.0,1.609,0.0,-0.58,-0.23,336.33,194948.8,0.0,0.0,1.476,-0.64,0.0,0.0,0.0,0.0,0.0,0.0,0.0,0.0,0.0,0.0,0.0,0.0,0.0,0.0,0.0,0.0,0.0,0.0,0.0,0.0,0
1704780529637239251,9060,0,,0,0,,0,0,0,0,0,0,36.90429835,118.16631263,25.36,0.0,1.611,0.0,-0.56,-0.27,335.63,194948.9,0.0,0.0,1.474,-0.649,0.0,0.0,0.0,0.0,0.0,0.0,0.0,0.0,0.0,0.0,0.0,0.0,0.0,0.0,0.0,0.0,0.0,0.0,0.0,0.0,0
1704780529737346738,9061,0,,0,0,,0,0,0,0,0,0,36.90429967,118.1663119,25.36,0.0,1.598,0.0,-0.56,-0.22,335.0,194949.0,0.0,0.0,1.46,-0.651,0.0,0.0,0.0,0.0,0.0,0.0,0.0,0.0,0.0,0.0,0.0,0.0,0.0,0.0,0.0,0.0,0.0,0.0,0.0,0.0,0
1704780529836786282,9062,0,,0,0,,0,0,0,0,0,0,36.90430102,118.16631115,25.35,0.0,1.609,0.0,-0.47,-0.13,334.26,194949.1,0.0,0.0,1.46,-0.676,0.0,0.0,0.0,0.0,0.0,0.0,0.0,0.0,0.0,0.0,0.0,0.0,0.0,0.0,0.0,0.0,0.0,0.0,0.0,0.0,0
1704780529937099268,9063,0,,0,0,,0,0,0,0,0,0,36.90430233,118.16631037,25.35,0.0,1.604,0.0,-0.43,-0.13,333.38,194949.2,0.0,0.0,1.444,-0.7,0.0,0.0,0.0,0.0,0.0,0.0,0.0,0.0,0.0,0.0,0.0,0.0,0.0,0.0,0.0,0.0,0.0,0.0,0.0,0.0,0
1704780530037180417,9064,0,,0,0,,0,0,0,0,0,0,36.90430367,118.16630956,25.35,0.0,1.618,0.0,-0.37,-0.09,332.53,194949.3,0.0,0.0,1.448,-0.722,0.0,0.0,0.0,0.0,0.0,0.0,0.0,0.0,0.0,0.0,0.0,0.0,0.0,0.0,0.0,0.0,0.0,0.0,0.0,0.0,0
1704780530137212036,9065,0,,0,0,,0,0,0,0,0,0,36.90430496,118.16630872,25.35,0.0,1.614,0.0,-0.4,-0.12,331.64,194949.4,0.0,0.0,1.421,-0.764,0.0,0.0,0.0,0.0,0.0,0.0,0.0,0.0,0.0,0.0,0.0,0.0,0.0,0.0,0.0,0.0,0.0,0.0,0.0,0.0,0
1704780530237553249,9066,0,,0,0,,0,0,0,0,0,0,36.90430626,118.16630784,25.35,0.0,1.622,0.0,-0.36,-0.22,330.65,194949.5,0.0,0.0,1.42,-0.784,0.0,0.0,0.0,0.0,0.0,0.0,0.0,0.0,0.0,0.0,0.0,0.0,0.0,0.0,0.0,0.0,0.0,0.0,0.0,0.0,0
1704780530337490213,9067,0,,0,0,,0,0,0,0,0,0,36.90430754,118.16630696,25.35,0.0,1.614,0.0,-0.42,-0.11,329.56,194949.6,0.0,0.0,1.411,-0.784,0.0,0.0,0.0,0.0,0.0,0.0,0.0,0.0,0.0,0.0,0.0,0.0,0.0,0.0,0.0,0.0,0.0,0.0,0.0,0.0,0
1704780530436936593,9068,0,,0,0,,0,0,0,0,0,0,36.90430883,118.16630603,25.35,0.0,1.602,0.0,-0.41,-0.1,328.19,194949.7,0.0,0.0,1.367,-0.834,0.0,0.0,0.0,0.0,0.0,0.0,0.0,0.0,0.0,0.0,0.0,0.0,0.0,0.0,0.0,0.0,0.0,0.0,0.0,0.0,0
1704780530536976873,9069,0,,0,0,,0,0,0,0,0,0,36.90431005,118.16630506,25.35,0.0,1.616,0.0,-0.39,-0.23,326.9,194949.8,0.0,0.0,1.353,-0.885,0.0,0.0,0.0,0.0,0.0,0.0,0.0,0.0,0.0,0.0,0.0,0.0,0.0,0.0,0.0,0.0,0.0,0.0,0.0,0.0,0
1704780530637381171,9070,0,,0,0,,0,0,0,0,0,0,36.9043113,118.16630403,25.35,0.0,1.62,0.0,-0.47,-0.33,325.85,194949.9,0.0,0.0,1.344,-0.904,0.0,0.0,0.0,0.0,0.0,0.0,0.0,0.0,0.0,0.0,0.0,0.0,0.0,0.0,0.0,0.0,0.0,0.0,0.0,0.0,0
1704780530737307610,9071,0,,0,0,,0,0,0,0,0,0,36.9043125,118.166303,25.35,0.0,1.616,0.0,-0.49,-0.42,325.05,194950.0,0.0,0.0,1.324,-0.926,0.0,0.0,0.0,0.0,0.0,0.0,0.0,0.0,0.0,0.0,0.0,0.0,0.0,0.0,0.0,0.0,0.0,0.0,0.0,0.0,0
1704780530836508822,9072,0,,0,0,,0,0,0,0,0,0,36.90431373,118.16630194,25.35,0.0,1.624,0.0,-0.57,-0.46,324.25,194950.1,0.0,0.0,1.326,-0.936,0.0,0.0,0.0,0.0,0.0,0.0,0.0,0.0,0.0,0.0,0.0,0.0,0.0,0.0,0.0,0.0,0.0,0.0,0.0,0.0,0
1704780530936597711,9073,0,,0,0,,0,0,0,0,0,0,36.90431492,118.16630089,25.35,0.0,1.627,0.0,-0.63,-0.43,323.38,194950.2,0.0,0.0,1.319,-0.952,0.0,0.0,0.0,0.0,0.0,0.0,0.0,0.0,0.0,0.0,0.0,0.0,0.0,0.0,0.0,0.0,0.0,0.0,0.0,0.0,0
1704780531036898519,9074,0,,0,0,,0,0,0,0,0,0,36.90431615,118.16629978,25.35,0.0,1.642,0.0,-0.8,-0.41,322.52,194950.3,0.0,0.0,1.312,-0.988,0.0,0.0,0.0,0.0,0.0,0.0,0.0,0.0,0.0,0.0,0.0,0.0,0.0,0.0,0.0,0.0,0.0,0.0,0.0,0.0,0
1704780531136970796,9075,0,,0,0,,0,0,0,0,0,0,36.90431731,118.16629866,25.35,0.0,1.632,0.0,-0.85,-0.45,321.7,194950.4,0.0,0.0,1.277,-1.016,0.0,0.0,0.0,0.0,0.0,0.0,0.0,0.0,0.0,0.0,0.0,0.0,0.0,0.0,0.0,0.0,0.0,0.0,0.0,0.0,0
1704780531237165451,9076,0,,0,0,,0,0,0,0,0,0,36.90431849,118.1662975,25.34,0.0,1.622,0.0,-0.98,-0.54,320.8,194950.5,0.0,0.0,1.261,-1.019,0.0,0.0,0.0,0.0,0.0,0.0,0.0,0.0,0.0,0.0,0.0,0.0,0.0,0.0,0.0,0.0,0.0,0.0,0.0,0.0,0
1704780531337500252,9077,0,,0,0,,0,0,0,0,0,0,36.90431962,118.16629636,25.34,0.0,1.613,0.0,-0.9,-0.42,319.72,194950.6,0.0,0.0,1.253,-1.015,0.0,0.0,0.0,0.0,0.0,0.0,0.0,0.0,0.0,0.0,0.0,0.0,0.0,0.0,0.0,0.0,0.0,0.0,0.0,0.0,0
1704780531436458899,9078,0,,0,0,,0,0,0,0,0,0,36.9043208,118.1662952,25.34,0.0,1.614,0.0,-1.05,-0.24,318.54,194950.7,0.0,0.0,1.222,-1.056,0.0,0.0,0.0,0.0,0.0,0.0,0.0,0.0,0.0,0.0,0.0,0.0,0.0,0.0,0.0,0.0,0.0,0.0,0.0,0.0,0
1704780531536795997,9079,0,,0,0,,0,0,0,0,0,0,36.90432187,118.166294,25.34,0.0,1.58,0.0,-0.83,-0.25,317.23,194950.8,0.0,0.0,1.151,-1.082,0.0,0.0,0.0,0.0,0.0,0.0,0.0,0.0,0.0,0.0,0.0,0.0,0.0,0.0,0.0,0.0,0.0,0.0,0.0,0.0,0
1704780531636871936,9080,0,,0,0,,0,0,0,0,0,0,36.90432294,118.16629279,25.34,0.0,1.572,0.0,-0.53,-0.32,315.8,194950.9,0.0,0.0,1.13,-1.093,0.0,0.0,0.0,0.0,0.0,0.0,0.0,0.0,0.0,0.0,0.0,0.0,0.0,0.0,0.0,0.0,0.0,0.0,0.0,0.0,0
1704780531736929624,9081,0,,0,0,,0,0,0,0,0,0,36.90432395,118.16629156,25.33,0.0,1.548,0.0,-0.18,-0.3,314.43,194951.0,0.0,0.0,1.095,-1.095,0.0,0.0,0.0,0.0,0.0,0.0,0.0,0.0,0.0,0.0,0.0,0.0,0.0,0.0,0.0,0.0,0.0,0.0,0.0,0.0,0
1704780531836401909,9082,0,,0,0,,0,0,0,0,0,0,36.90432498,118.16629031,25.33,0.0,1.579,0.0,0.07,-0.17,312.98,194951.1,0.0,0.0,1.105,-1.128,0.0,0.0,0.0,0.0,0.0,0.0,0.0,0.0,0.0,0.0,0.0,0.0,0.0,0.0,0.0,0.0,0.0,0.0,0.0,0.0,0
1704780531936400001,9083,0,,0,0,,0,0,0,0,0,0,36.90432596,118.16628904,25.33,0.0,1.572,0.0,0.37,0.07,311.41,194951.2,0.0,0.0,1.075,-1.147,0.0,0.0,0.0,0.0,0.0,0.0,0.0,0.0,0.0,0.0,0.0,0.0,0.0,0.0,0.0,0.0,0.0,0.0,0.0,0.0,0
1704780532036630543,9084,0,,0,0,,0,0,0,0,0,0,36.90432697,118.16628771,25.33,0.0,1.606,0.0,0.39,0.24,309.68,194951.3,0.0,0.0,1.05,-1.215,0.0,0.0,0.0,0.0,0.0,0.0,0.0,0.0,0.0,0.0,0.0,0.0,0.0,0.0,0.0,0.0,0.0,0.0,0.0,0.0,0
1704780532136447862,9085,0,,0,0,,0,0,0,0,0,0,36.90432789,118.16628632,25.33,0.0,1.602,0.0,0.4,0.33,307.96,194951.4,0.0,0.0,0.993,-1.258,0.0,0.0,0.0,0.0,0.0,0.0,0.0,0.0,0.0,0.0,0.0,0.0,0.0,0.0,0.0,0.0,0.0,0.0,0.0,0.0,0
1704780532236834251,9086,0,,0,0,,0,0,0,0,0,0,36.90432882,118.16628487,25.33,0.0,1.626,0.0,0.12,0.26,306.06,194951.5,0.0,0.0,0.967,-1.307,0.0,0.0,0.0,0.0,0.0,0.0,0.0,0.0,0.0,0.0,0.0,0.0,0.0,0.0,0.0,0.0,0.0,0.0,0.0,0.0,0
1704780532337176212,9087,0,,0,0,,0,0,0,0,0,0,36.90432968,118.1662834,25.34,0.0,1.62,0.0,0.02,0.3,304.11,194951.6,0.0,0.0,0.93,-1.327,0.0,0.0,0.0,0.0,0.0,0.0,0.0,0.0,0.0,0.0,0.0,0.0,0.0,0.0,0.0,0.0,0.0,0.0,0.0,0.0,0
1704780532436155859,9088,0,,0,0,,0,0,0,0,0,0,36.90433055,118.16628185,25.34,0.0,1.637,0.0,-0.18,0.3,302.16,194951.7,0.0,0.0,0.868,-1.388,0.0,0.0,0.0,0.0,0.0,0.0,0.0,0.0,0.0,0.0,0.0,0.0,0.0,0.0,0.0,0.0,0.0,0.0,0.0,0.0,0
1704780532536327379,9089,0,,0,0,,0,0,0,0,0,0,36.9043313,118.16628029,25.34,0.0,1.626,0.0,-0.12,0.16,300.22,194951.8,0.0,0.0,0.815,-1.407,0.0,0.0,0.0,0.0,0.0,0.0,0.0,0.0,0.0,0.0,0.0,0.0,0.0,0.0,0.0,0.0,0.0,0.0,0.0,0.0,0
1704780532636503017,9090,0,,0,0,,0,0,0,0,0,0,36.9043321,118.16627869,25.34,0.0,1.625,0.0,-0.09,0.2,298.41,194951.9,0.0,0.0,0.805,-1.411,0.0,0.0,0.0,0.0,0.0,0.0,0.0,0.0,0.0,0.0,0.0,0.0,0.0,0.0,0.0,0.0,0.0,0.0,0.0,0.0,0
1704780532736558174,9091,0,,0,0,,0,0,0,0,0,0,36.9043328,118.16627709,25.34,0.0,1.622,0.0,-0.05,0.29,296.77,194952.0,0.0,0.0,0.74,-1.443,0.0,0.0,0.0,0.0,0.0,0.0,0.0,0.0,0.0,0.0,0.0,0.0,0.0,0.0,0.0,0.0,0.0,0.0,0.0,0.0,0
1704780532835790880,9092,0,,0,0,,0,0,0,0,0,0,36.90433348,118.16627544,25.33,0.0,1.609,0.0,0.15,0.15,294.99,194952.1,0.0,0.0,0.671,-1.462,0.0,0.0,0.0,0.0,0.0,0.0,0.0,0.0,0.0,0.0,0.0,0.0,0.0,0.0,0.0,0.0,0.0,0.0,0.0,0.0,0
1704780532936165237,9093,0,,0,0,,0,0,0,0,0,0,36.90433408,118.16627379,25.33,0.0,1.579,0.0,-0.05,0.04,293.33,194952.2,0.0,0.0,0.639,-1.444,0.0,0.0,0.0,0.0,0.0,0.0,0.0,0.0,0.0,0.0,0.0,0.0,0.0,0.0,0.0,0.0,0.0,0.0,0.0,0.0,0
1704780533036121560,9094,0,,0,0,,0,0,0,0,0,0,36.90433466,118.16627222,25.33,0.0,1.424,0.0,-0.1,0.18,291.93,194952.3,0.0,0.0,0.56,-1.31,0.0,0.0,0.0,0.0,0.0,0.0,0.0,0.0,0.0,0.0,0.0,0.0,0.0,0.0,0.0,0.0,0.0,0.0,0.0,0.0,0
1704780533136375818,9095,0,,0,0,,0,0,0,0,0,0,36.90433513,118.16627079,25.33,0.0,1.34,0.0,-0.08,0.21,290.62,194952.4,0.0,0.0,0.479,-1.252,0.0,0.0,0.0,0.0,0.0,0.0,0.0,0.0,0.0,0.0,0.0,0.0,0.0,0.0,0.0,0.0,0.0,0.0,0.0,0.0,0
1704780533235944791,9096,0,,0,0,,0,0,0,0,0,0,36.90433559,118.16626943,25.33,0.0,1.288,0.0,-0.13,0.25,289.44,194952.5,0.0,0.0,0.445,-1.209,0.0,0.0,0.0,0.0,0.0,0.0,0.0,0.0,0.0,0.0,0.0,0.0,0.0,0.0,0.0,0.0,0.0,0.0,0.0,0.0,0
1704780533337203524,9097,0,,0,0,,0,0,0,0,0,0,36.90433596,118.16626808,25.33,0.0,1.268,0.0,-0.12,0.14,288.44,194952.6,0.0,0.0,0.391,-1.206,0.0,0.0,0.0,0.0,0.0,0.0,0.0,0.0,0.0,0.0,0.0,0.0,0.0,0.0,0.0,0.0,0.0,0.0,0.0,0.0,0
1704780533435835525,9098,0,,0,0,,0,0,0,0,0,0,36.90433637,118.16626673,25.33,0.0,1.282,0.0,-0.14,0.13,287.98,194952.7,0.0,0.0,0.4,-1.218,0.0,0.0,0.0,0.0,0.0,0.0,0.0,0.0,0.0,0.0,0.0,0.0,0.0,0.0,0.0,0.0,0.0,0.0,0.0,0.0,0
1704780533536071281,9099,0,,0,0,,0,0,0,0,0,0,36.90433673,118.16626534,25.33,0.0,1.328,0.0,-0.19,0.1,287.5,194952.8,0.0,0.0,0.399,-1.266,0.0,0.0,0.0,0.0,0.0,0.0,0.0,0.0,0.0,0.0,0.0,0.0,0.0,0.0,0.0,0.0,0.0,0.0,0.0,0.0,0
1704780533636062480,9100,0,,0,0,,0,0,0,0,0,0,36.90433712,118.16626391,25.33,0.0,1.328,0.0,-0.15,-0.05,286.92,194952.9,0.0,0.0,0.383,-1.271,0.0,0.0,0.0,0.0,0.0,0.0,0.0,0.0,0.0,0.0,0.0,0.0,0.0,0.0,0.0,0.0,0.0,0.0,0.0,0.0,0
1704780533736164283,9101,0,,0,0,,0,0,0,0,0,0,36.90433748,118.16626249,25.33,0.0,1.339,0.0,-0.02,0.06,286.46,194953.0,0.0,0.0,0.419,-1.272,0.0,0.0,0.0,0.0,0.0,0.0,0.0,0.0,0.0,0.0,0.0,0.0,0.0,0.0,0.0,0.0,0.0,0.0,0.0,0.0,0
1704780533835433303,9102,0,,0,0,,0,0,0,0,0,0,36.90433788,118.16626106,25.33,0.0,1.344,0.0,-0.0,0.16,286.06,194953.1,0.0,0.0,0.384,-1.288,0.0,0.0,0.0,0.0,0.0,0.0,0.0,0.0,0.0,0.0,0.0,0.0,0.0,0.0,0.0,0.0,0.0,0.0,0.0,0.0,0
1704780533935641097,9103,0,,0,0,,0,0,0,0,0,0,36.9043382,118.1662596,25.33,0.0,1.345,0.0,0.03,0.04,285.82,194953.2,0.0,0.0,0.36,-1.295,0.0,0.0,0.0,0.0,0.0,0.0,0.0,0.0,0.0,0.0,0.0,0.0,0.0,0.0,0.0,0.0,0.0,0.0,0.0,0.0,0
1704780534035830322,9104,0,,0,0,,0,0,0,0,0,0,36.90433857,118.16625816,25.33,0.0,1.352,0.0,0.01,0.11,285.83,194953.3,0.0,0.0,0.402,-1.291,0.0,0.0,0.0,0.0,0.0,0.0,0.0,0.0,0.0,0.0,0.0,0.0,0.0,0.0,0.0,0.0,0.0,0.0,0.0,0.0,0
1704780534135834226,9105,0,,0,0,,0,0,0,0,0,0,36.90433891,118.1662567,25.33,0.0,1.349,0.0,0.01,0.19,285.74,194953.4,0.0,0.0,0.378,-1.295,0.0,0.0,0.0,0.0,0.0,0.0,0.0,0.0,0.0,0.0,0.0,0.0,0.0,0.0,0.0,0.0,0.0,0.0,0.0,0.0,0
1704780534235021155,9106,0,,0,0,,0,0,0,0,0,0,36.90433927,118.16625525,25.32,0.0,1.345,0.0,0.1,0.1,285.7,194953.5,0.0,0.0,0.353,-1.298,0.0,0.0,0.0,0.0,0.0,0.0,0.0,0.0,0.0,0.0,0.0,0.0,0.0,0.0,0.0,0.0,0.0,0.0,0.0,0.0,0
1704780534335242078,9107,0,,0,0,,0,0,0,0,0,0,36.9043396,118.16625379,25.32,0.0,1.356,0.0,0.01,0.05,285.72,194953.6,0.0,0.0,0.386,-1.3,0.0,0.0,0.0,0.0,0.0,0.0,0.0,0.0,0.0,0.0,0.0,0.0,0.0,0.0,0.0,0.0,0.0,0.0,0.0,0.0,0
1704780534435469261,9108,0,,0,0,,0,0,0,0,0,0,36.90433998,118.16625232,25.32,0.0,1.35,0.0,-0.02,0.1,285.73,194953.7,0.0,0.0,0.373,-1.298,0.0,0.0,0.0,0.0,0.0,0.0,0.0,0.0,0.0,0.0,0.0,0.0,0.0,0.0,0.0,0.0,0.0,0.0,0.0,0.0,0
