%time,field.header.seq,field.header.stamp,field.header.frame_id,field.status.header.seq,field.status.header.stamp,field.status.header.frame_id,field.status.satellites_used,field.status.satellites_visible,field.status.status,field.status.motion_source,field.status.orientation_source,field.status.position_source,field.latitude,field.longitude,field.altitude,field.track,field.speed,field.climb,field.pitch,field.roll,field.dip,field.time,field.gdop,field.pdop,field.hdop,field.vdop,field.tdop,field.err,field.err_horz,field.err_vert,field.err_track,field.err_speed,field.err_climb,field.err_time,field.err_pitch,field.err_roll,field.err_dip,field.position_covariance0,field.position_covariance1,field.position_covariance2,field.position_covariance3,field.position_covariance4,field.position_covariance5,field.position_covariance6,field.position_covariance7,field.position_covariance8,field.position_covariance_type
1704780814147498136,11906,0,,0,0,,0,0,0,0,0,0,36.90414751,118.16648417,25.44,0.0,0.007,0.0,-0.54,0.01,271.24,195233.5,0.0,0.0,0.003,-0.006,0.0,0.0,0.0,0.0,0.0,0.0,0.0,0.0,0.0,0.0,0.0,0.0,0.0,0.0,0.0,0.0,0.0,0.0,0.0,0.0,0
1704780814247278566,11907,0,,0,0,,0,0,0,0,0,0,36.90414751,118.16648417,25.44,0.0,0.007,0.0,-0.54,0.01,271.24,195233.6,0.0,0.0,0.003,-0.007,0.0,0.0,0.0,0.0,0.0,0.0,0.0,0.0,0.0,0.0,0.0,0.0,0.0,0.0,0.0,0.0,0.0,0.0,0.0,0.0,0
1704780814347839803,11908,0,,0,0,,0,0,0,0,0,0,36.90414751,118.16648418,25.44,0.0,0.007,0.0,-0.54,0.01,271.24,195233.7,0.0,0.0,0.003,-0.006,0.0,0.0,0.0,0.0,0.0,0.0,0.0,0.0,0.0,0.0,0.0,0.0,0.0,0.0,0.0,0.0,0.0,0.0,0.0,0.0,0
1704780814447665839,11909,0,,0,0,,0,0,0,0,0,0,36.90414751,118.16648417,25.44,0.0,0.008,0.0,-0.54,0.01,271.24,195233.8,0.0,0.0,0.003,-0.007,0.0,0.0,0.0,0.0,0.0,0.0,0.0,0.0,0.0,0.0,0.0,0.0,0.0,0.0,0.0,0.0,0.0,0.0,0.0,0.0,0
1704780814548315055,11910,0,,0,0,,0,0,0,0,0,0,36.90414751,118.16648418,25.44,0.0,0.007,0.0,-0.54,0.01,271.24,195233.9,0.0,0.0,0.004,-0.006,0.0,0.0,0.0,0.0,0.0,0.0,0.0,0.0,0.0,0.0,0.0,0.0,0.0,0.0,0.0,0.0,0.0,0.0,0.0,0.0,0
1704780814647766861,11911,0,,0,0,,0,0,0,0,0,0,36.90414751,118.16648417,25.44,0.0,0.007,0.0,-0.54,0.01,271.24,195234.0,0.0,0.0,0.003,-0.007,0.0,0.0,0.0,0.0,0.0,0.0,0.0,0.0,0.0,0.0,0.0,0.0,0.0,0.0,0.0,0.0,0.0,0.0,0.0,0.0,0
1704780814747748966,11912,0,,0,0,,0,0,0,0,0,0,36.90414751,118.16648418,25.44,0.0,0.007,0.0,-0.54,0.01,271.24,195234.1,0.0,0.0,0.003,-0.006,0.0,0.0,0.0,0.0,0.0,0.0,0.0,0.0,0.0,0.0,0.0,0.0,0.0,0.0,0.0,0.0,0.0,0.0,0.0,0.0,0
1704780814846970689,11913,0,,0,0,,0,0,0,0,0,0,36.90414751,118.16648417,25.44,0.0,0.007,0.0,-0.54,0.01,271.24,195234.2,0.0,0.0,0.003,-0.007,0.0,0.0,0.0,0.0,0.0,0.0,0.0,0.0,0.0,0.0,0.0,0.0,0.0,0.0,0.0,0.0,0.0,0.0,0.0,0.0,0
1704780814948388967,11914,0,,0,0,,0,0,0,0,0,0,36.9041475,118.16648419,25.44,0.0,0.007,0.0,-0.54,0.01,271.24,195234.3,0.0,0.0,0.003,-0.006,0.0,0.0,0.0,0.0,0.0,0.0,0.0,0.0,0.0,0.0,0.0,0.0,0.0,0.0,0.0,0.0,0.0,0.0,0.0,0.0,0
1704780815047580060,11915,0,,0,0,,0,0,0,0,0,0,36.9041475,118.16648418,25.44,0.0,0.007,0.0,-0.54,0.01,271.24,195234.4,0.0,0.0,0.003,-0.006,0.0,0.0,0.0,0.0,0.0,0.0,0.0,0.0,0.0,0.0,0.0,0.0,0.0,0.0,0.0,0.0,0.0,0.0,0.0,0.0,0
1704780815147194741,11916,0,,0,0,,0,0,0,0,0,0,36.9041475,118.1664842,25.44,0.0,0.006,0.0,-0.53,0.01,271.24,195234.5,0.0,0.0,0.003,-0.006,0.0,0.0,0.0,0.0,0.0,0.0,0.0,0.0,0.0,0.0,0.0,0.0,0.0,0.0,0.0,0.0,0.0,0.0,0.0,0.0,0
1704780815246786774,11917,0,,0,0,,0,0,0,0,0,0,36.9041475,118.16648419,25.44,0.0,0.007,0.0,-0.53,0.02,271.24,195234.6,0.0,0.0,0.003,-0.006,0.0,0.0,0.0,0.0,0.0,0.0,0.0,0.0,0.0,0.0,0.0,0.0,0.0,0.0,0.0,0.0,0.0,0.0,0.0,0.0,0
1704780815347593901,11918,0,,0,0,,0,0,0,0,0,0,36.9041475,118.1664842,25.44,0.0,0.006,0.0,-0.53,0.02,271.24,195234.7,0.0,0.0,0.003,-0.005,0.0,0.0,0.0,0.0,0.0,0.0,0.0,0.0,0.0,0.0,0.0,0.0,0.0,0.0,0.0,0.0,0.0,0.0,0.0,0.0,0
1704780815447225563,11919,0,,0,0,,0,0,0,0,0,0,36.90414751,118.16648419,25.44,0.0,0.006,0.0,-0.53,0.02,271.24,195234.8,0.0,0.0,0.003,-0.006,0.0,0.0,0.0,0.0,0.0,0.0,0.0,0.0,0.0,0.0,0.0,0.0,0.0,0.0,0.0,0.0,0.0,0.0,0.0,0.0,0
1704780815548025747,11920,0,,0,0,,0,0,0,0,0,0,36.90414751,118.1664842,25.44,0.0,0.007,0.0,-0.53,0.02,271.24,195234.9,0.0,0.0,0.004,-0.005,0.0,0.0,0.0,0.0,0.0,0.0,0.0,0.0,0.0,0.0,0.0,0.0,0.0,0.0,0.0,0.0,0.0,0.0,0.0,0.0,0
1704780815647839792,11921,0,,0,0,,0,0,0,0,0,0,36.90414751,118.1664842,25.44,0.0,0.007,0.0,-0.54,0.02,271.24,195235.0,0.0,0.0,0.004,-0.006,0.0,0.0,0.0,0.0,0.0,0.0,0.0,0.0,0.0,0.0,0.0,0.0,0.0,0.0,0.0,0.0,0.0,0.0,0.0,0.0,0
1704780815747175846,11922,0,,0,0,,0,0,0,0,0,0,36.90414751,118.16648421,25.44,0.0,0.007,0.0,-0.53,0.01,271.24,195235.1,0.0,0.0,0.004,-0.005,0.0,0.0,0.0,0.0,0.0,0.0,0.0,0.0,0.0,0.0,0.0,0.0,0.0,0.0,0.0,0.0,0.0,0.0,0.0,0.0,0
1704780815846575947,11923,0,,0,0,,0,0,0,0,0,0,36.90414751,118.1664842,25.44,0.0,0.008,0.0,-0.53,0.01,271.22,195235.2,0.0,0.0,0.006,-0.005,0.0,0.0,0.0,0.0,0.0,0.0,0.0,0.0,0.0,0.0,0.0,0.0,0.0,0.0,0.0,0.0,0.0,0.0,0.0,0.0,0
1704780815947567483,11924,0,,0,0,,0,0,0,0,0,0,36.90414751,118.16648421,25.44,0.0,0.008,0.0,-0.53,0.01,271.22,195235.3,0.0,0.0,0.006,-0.005,0.0,0.0,0.0,0.0,0.0,0.0,0.0,0.0,0.0,0.0,0.0,0.0,0.0,0.0,0.0,0.0,0.0,0.0,0.0,0.0,0
1704780816047906288,11925,0,,0,0,,0,0,0,0,0,0,36.90414752,118.16648421,25.44,0.0,0.01,0.0,-0.52,0.01,271.24,195235.4,0.0,0.0,0.004,-0.009,0.0,0.0,0.0,0.0,0.0,0.0,0.0,0.0,0.0,0.0,0.0,0.0,0.0,0.0,0.0,0.0,0.0,0.0,0.0,0.0,0
1704780816146584868,11926,0,,0,0,,0,0,0,0,0,0,36.90414751,118.16648419,25.44,0.0,0.041,0.0,-0.49,0.0,271.26,195235.5,0.0,0.0,0.003,-0.041,0.0,0.0,0.0,0.0,0.0,0.0,0.0,0.0,0.0,0.0,0.0,0.0,0.0,0.0,0.0,0.0,0.0,0.0,0.0,0.0,0
1704780816246931186,11927,0,,0,0,,0,0,0,0,0,0,36.90414752,118.16648412,25.44,0.0,0.089,0.0,-0.46,-0.0,271.27,195235.6,0.0,0.0,0.007,-0.089,0.0,0.0,0.0,0.0,0.0,0.0,0.0,0.0,0.0,0.0,0.0,0.0,0.0,0.0,0.0,0.0,0.0,0.0,0.0,0.0,0
1704780816347474685,11928,0,,0,0,,0,0,0,0,0,0,36.90414752,118.166484,25.44,0.0,0.137,0.0,-0.48,-0.01,271.3,195235.7,0.0,0.0,0.006,-0.137,0.0,0.0,0.0,0.0,0.0,0.0,0.0,0.0,0.0,0.0,0.0,0.0,0.0,0.0,0.0,0.0,0.0,0.0,0.0,0.0,0
1704780816447182466,11929,0,,0,0,,0,0,0,0,0,0,36.90414752,118.16648381,25.44,0.0,0.193,0.0,-0.46,-0.02,271.36,195235.8,0.0,0.0,0.008,-0.192,0.0,0.0,0.0,0.0,0.0,0.0,0.0,0.0,0.0,0.0,0.0,0.0,0.0,0.0,0.0,0.0,0.0,0.0,0.0,0.0,0
1704780816547329847,11930,0,,0,0,,0,0,0,0,0,0,36.90414753,118.16648358,25.44,0.0,0.246,0.0,-0.43,-0.03,271.45,195235.9,0.0,0.0,0.009,-0.246,0.0,0.0,0.0,0.0,0.0,0.0,0.0,0.0,0.0,0.0,0.0,0.0,0.0,0.0,0.0,0.0,0.0,0.0,0.0,0.0,0
1704780816647855468,11931,0,,0,0,,0,0,0,0,0,0,36.90414754,118.16648326,25.44,0.0,0.307,0.0,-0.46,-0.03,271.62,195236.0,0.0,0.0,0.014,-0.307,0.0,0.0,0.0,0.0,0.0,0.0,0.0,0.0,0.0,0.0,0.0,0.0,0.0,0.0,0.0,0.0,0.0,0.0,0.0,0.0,0
1704780816746986321,11932,0,,0,0,,0,0,0,0,0,0,36.90414754,118.16648289,25.44,0.0,0.366,0.0,-0.43,-0.03,271.82,195236.1,0.0,0.0,0.013,-0.365,0.0,0.0,0.0,0.0,0.0,0.0,0.0,0.0,0.0,0.0,0.0,0.0,0.0,0.0,0.0,0.0,0.0,0.0,0.0,0.0,0
1704780816847394057,11933,0,,0,0,,0,0,0,0,0,0,36.90414755,118.16648245,25.44,0.0,0.42,0.0,-0.43,-0.06,272.07,195236.2,0.0,0.0,0.014,-0.42,0.0,0.0,0.0,0.0,0.0,0.0,0.0,0.0,0.0,0.0,0.0,0.0,0.0,0.0,0.0,0.0,0.0,0.0,0.0,0.0,0
1704780816947267009,11934,0,,0,0,,0,0,0,0,0,0,36.90414757,118.16648195,25.44,0.0,0.477,0.0,-0.4,-0.06,272.36,195236.3,0.0,0.0,0.028,-0.477,0.0,0.0,0.0,0.0,0.0,0.0,0.0,0.0,0.0,0.0,0.0,0.0,0.0,0.0,0.0,0.0,0.0,0.0,0.0,0.0,0
1704780817047436897,11935,0,,0,0,,0,0,0,0,0,0,36.9041476,118.16648138,25.44,0.0,0.529,0.0,-0.41,-0.0,272.61,195236.4,0.0,0.0,0.034,-0.528,0.0,0.0,0.0,0.0,0.0,0.0,0.0,0.0,0.0,0.0,0.0,0.0,0.0,0.0,0.0,0.0,0.0,0.0,0.0,0.0,0
1704780817146557212,11936,0,,0,0,,0,0,0,0,0,0,36.90414762,118.16648076,25.44,0.0,0.581,0.0,-0.4,0.03,272.76,195236.5,0.0,0.0,0.036,-0.58,0.0,0.0,0.0,0.0,0.0,0.0,0.0,0.0,0.0,0.0,0.0,0.0,0.0,0.0,0.0,0.0,0.0,0.0,0.0,0.0,0
1704780817246864631,11937,0,,0,0,,0,0,0,0,0,0,36.90414766,118.16648008,25.44,0.0,0.63,0.0,-0.4,0.07,272.9,195236.6,0.0,0.0,0.042,-0.629,0.0,0.0,0.0,0.0,0.0,0.0,0.0,0.0,0.0,0.0,0.0,0.0,0.0,0.0,0.0,0.0,0.0,0.0,0.0,0.0,0
1704780817346905099,11938,0,,0,0,,0,0,0,0,0,0,36.90414769,118.16647935,25.44,0.0,0.68,0.0,-0.38,0.1,273.04,195236.7,0.0,0.0,0.043,-0.678,0.0,0.0,0.0,0.0,0.0,0.0,0.0,0.0,0.0,0.0,0.0,0.0,0.0,0.0,0.0,0.0,0.0,0.0,0.0,0.0,0
1704780817446889573,11939,0,,0,0,,0,0,0,0,0,0,36.90414773,118.16647856,25.44,0.0,0.724,0.0,-0.33,0.1,273.17,195236.8,0.0,0.0,0.046,-0.723,0.0,0.0,0.0,0.0,0.0,0.0,0.0,0.0,0.0,0.0,0.0,0.0,0.0,0.0,0.0,0.0,0.0,0.0,0.0,0.0,0
1704780817547124615,11940,0,,0,0,,0,0,0,0,0,0,36.90414777,118.16647773,25.44,0.0,0.773,0.0,-0.27,0.13,273.4,195236.9,0.0,0.0,0.053,-0.771,0.0,0.0,0.0,0.0,0.0,0.0,0.0,0.0,0.0,0.0,0.0,0.0,0.0,0.0,0.0,0.0,0.0,0.0,0.0,0.0,0
1704780817647428641,11941,0,,0,0,,0,0,0,0,0,0,36.90414782,118.16647684,25.44,0.0,0.82,0.0,-0.23,0.16,273.69,195237.0,0.0,0.0,0.056,-0.818,0.0,0.0,0.0,0.0,0.0,0.0,0.0,0.0,0.0,0.0,0.0,0.0,0.0,0.0,0.0,0.0,0.0,0.0,0.0,0.0,0
1704780817746519576,11942,0,,0,0,,0,0,0,0,0,0,36.90414787,118.1664759,25.44,0.0,0.863,0.0,-0.2,0.16,274.03,195237.1,0.0,0.0,0.061,-0.861,0.0,0.0,0.0,0.0,0.0,0.0,0.0,0.0,0.0,0.0,0.0,0.0,0.0,0.0,0.0,0.0,0.0,0.0,0.0,0.0,0
1704780817846934314,11943,0,,0,0,,0,0,0,0,0,0,36.90414793,118.1664749,25.44,0.0,0.91,0.0,-0.18,0.15,274.4,195237.2,0.0,0.0,0.073,-0.907,0.0,0.0,0.0,0.0,0.0,0.0,0.0,0.0,0.0,0.0,0.0,0.0,0.0,0.0,0.0,0.0,0.0,0.0,0.0,0.0,0
1704780817946804108,11944,0,,0,0,,0,0,0,0,0,0,36.904148,118.16647386,25.44,0.0,0.958,0.0,-0.17,0.18,274.7,195237.3,0.0,0.0,0.087,-0.954,0.0,0.0,0.0,0.0,0.0,0.0,0.0,0.0,0.0,0.0,0.0,0.0,0.0,0.0,0.0,0.0,0.0,0.0,0.0,0.0,0
1704780818046941649,11945,0,,0,0,,0,0,0,0,0,0,36.90414808,118.16647277,25.44,0.0,1.004,0.0,-0.22,0.21,274.73,195237.4,0.0,0.0,0.092,-1.0,0.0,0.0,0.0,0.0,0.0,0.0,0.0,0.0,0.0,0.0,0.0,0.0,0.0,0.0,0.0,0.0,0.0,0.0,0.0,0.0,0
1704780818145906147,11946,0,,0,0,,0,0,0,0,0,0,36.90414815,118.16647162,25.44,0.0,1.052,0.0,-0.23,0.17,274.71,195237.5,0.0,0.0,0.084,-1.048,0.0,0.0,0.0,0.0,0.0,0.0,0.0,0.0,0.0,0.0,0.0,0.0,0.0,0.0,0.0,0.0,0.0,0.0,0.0,0.0,0
1704780818246743458,11947,0,,0,0,,0,0,0,0,0,0,36.90414823,118.16647042,25.44,0.0,1.094,0.0,-0.24,0.15,274.7,195237.6,0.0,0.0,0.097,-1.09,0.0,0.0,0.0,0.0,0.0,0.0,0.0,0.0,0.0,0.0,0.0,0.0,0.0,0.0,0.0,0.0,0.0,0.0,0.0,0.0,0
1704780818346718111,11948,0,,0,0,,0,0,0,0,0,0,36.90414831,118.16646917,25.44,0.0,1.131,0.0,-0.25,0.15,274.71,195237.7,0.0,0.0,0.098,-1.126,0.0,0.0,0.0,0.0,0.0,0.0,0.0,0.0,0.0,0.0,0.0,0.0,0.0,0.0,0.0,0.0,0.0,0.0,0.0,0.0,0
1704780818447021869,11949,0,,0,0,,0,0,0,0,0,0,36.90414839,118.16646789,25.44,0.0,1.155,0.0,-0.3,0.12,274.85,195237.8,0.0,0.0,0.092,-1.152,0.0,0.0,0.0,0.0,0.0,0.0,0.0,0.0,0.0,0.0,0.0,0.0,0.0,0.0,0.0,0.0,0.0,0.0,0.0,0.0,0
1704780818547053537,11950,0,,0,0,,0,0,0,0,0,0,36.90414847,118.1664666,25.44,0.0,1.156,0.0,-0.34,0.07,275.09,195237.9,0.0,0.0,0.109,-1.151,0.0,0.0,0.0,0.0,0.0,0.0,0.0,0.0,0.0,0.0,0.0,0.0,0.0,0.0,0.0,0.0,0.0,0.0,0.0,0.0,0
1704780818647264140,11951,0,,0,0,,0,0,0,0,0,0,36.90414858,118.16646532,25.44,0.0,1.146,0.0,-0.35,0.11,275.46,195238.0,0.0,0.0,0.12,-1.14,0.0,0.0,0.0,0.0,0.0,0.0,0.0,0.0,0.0,0.0,0.0,0.0,0.0,0.0,0.0,0.0,0.0,0.0,0.0,0.0,0
1704780818746457056,11952,0,,0,0,,0,0,0,0,0,0,36.90414868,118.16646405,25.44,0.0,1.128,0.0,-0.32,0.11,275.91,195238.1,0.0,0.0,0.118,-1.122,0.0,0.0,0.0,0.0,0.0,0.0,0.0,0.0,0.0,0.0,0.0,0.0,0.0,0.0,0.0,0.0,0.0,0.0,0.0,0.0,0
1704780818846516658,11953,0,,0,0,,0,0,0,0,0,0,36.90414879,118.1664628,25.44,0.0,1.116,0.0,-0.31,0.1,276.36,195238.2,0.0,0.0,0.132,-1.108,0.0,0.0,0.0,0.0,0.0,0.0,0.0,0.0,0.0,0.0,0.0,0.0,0.0,0.0,0.0,0.0,0.0,0.0,0.0,0.0,0
1704780818947067084,11954,0,,0,0,,0,0,0,0,0,0,36.90414891,118.16646157,25.44,0.0,1.103,0.0,-0.32,0.13,276.86,195238.3,0.0,0.0,0.138,-1.094,0.0,0.0,0.0,0.0,0.0,0.0,0.0,0.0,0.0,0.0,0.0,0.0,0.0,0.0,0.0,0.0,0.0,0.0,0.0,0.0,0
1704780819047044264,11955,0,,0,0,,0,0,0,0,0,0,36.90414903,118.16646037,25.44,0.0,1.038,0.0,-0.4,0.15,277.32,195238.4,0.0,0.0,0.142,-1.028,0.0,0.0,0.0,0.0,0.0,0.0,0.0,0.0,0.0,0.0,0.0,0.0,0.0,0.0,0.0,0.0,0.0,0.0,0.0,0.0,0
1704780819146211362,11956,0,,0,0,,0,0,0,0,0,0,36.90414915,118.1664593,25.44,0.0,0.893,0.0,-0.47,0.18,277.72,195238.5,0.0,0.0,0.129,-0.884,0.0,0.0,0.0,0.0,0.0,0.0,0.0,0.0,0.0,0.0,0.0,0.0,0.0,0.0,0.0,0.0,0.0,0.0,0.0,0.0,0
1704780819246459935,11957,0,,0,0,,0,0,0,0,0,0,36.90414926,118.16645835,25.44,0.0,0.842,0.0,-0.37,0.17,278.1,195238.6,0.0,0.0,0.112,-0.834,0.0,0.0,0.0,0.0,0.0,0.0,0.0,0.0,0.0,0.0,0.0,0.0,0.0,0.0,0.0,0.0,0.0,0.0,0.0,0.0,0
1704780819346494041,11958,0,,0,0,,0,0,0,0,0,0,36.90414937,118.16645745,25.44,0.0,0.825,0.0,-0.41,0.21,278.26,195238.7,0.0,0.0,0.135,-0.813,0.0,0.0,0.0,0.0,0.0,0.0,0.0,0.0,0.0,0.0,0.0,0.0,0.0,0.0,0.0,0.0,0.0,0.0,0.0,0.0,0
1704780819446675380,11959,0,,0,0,,0,0,0,0,0,0,36.90414948,118.16645652,25.44,0.0,0.868,0.0,-0.31,0.2,278.14,195238.8,0.0,0.0,0.126,-0.859,0.0,0.0,0.0,0.0,0.0,0.0,0.0,0.0,0.0,0.0,0.0,0.0,0.0,0.0,0.0,0.0,0.0,0.0,0.0,0.0,0
1704780819546798909,11960,0,,0,0,,0,0,0,0,0,0,36.9041496,118.16645553,25.44,0.0,0.936,0.0,-0.38,0.17,278.17,195238.9,0.0,0.0,0.131,-0.927,0.0,0.0,0.0,0.0,0.0,0.0,0.0,0.0,0.0,0.0,0.0,0.0,0.0,0.0,0.0,0.0,0.0,0.0,0.0,0.0,0
1704780819645446025,11961,0,,0,0,,0,0,0,0,0,0,36.90414973,118.16645446,25.44,0.0,1.003,0.0,-0.36,0.18,278.12,195239.0,0.0,0.0,0.159,-0.99,0.0,0.0,0.0,0.0,0.0,0.0,0.0,0.0,0.0,0.0,0.0,0.0,0.0,0.0,0.0,0.0,0.0,0.0,0.0,0.0,0
1704780819746366604,11962,0,,0,0,,0,0,0,0,0,0,36.90414987,118.16645332,25.44,0.0,1.063,0.0,-0.41,0.2,278.09,195239.1,0.0,0.0,0.152,-1.052,0.0,0.0,0.0,0.0,0.0,0.0,0.0,0.0,0.0,0.0,0.0,0.0,0.0,0.0,0.0,0.0,0.0,0.0,0.0,0.0,0
1704780819846341086,11963,0,,0,0,,0,0,0,0,0,0,36.90415001,118.16645211,25.44,0.0,1.103,0.0,-0.39,0.16,278.08,195239.2,0.0,0.0,0.155,-1.092,0.0,0.0,0.0,0.0,0.0,0.0,0.0,0.0,0.0,0.0,0.0,0.0,0.0,0.0,0.0,0.0,0.0,0.0,0.0,0.0,0
1704780819946456627,11964,0,,0,0,,0,0,0,0,0,0,36.90415015,118.16645087,25.44,0.0,1.131,0.0,-0.41,0.12,278.14,195239.3,0.0,0.0,0.167,-1.118,0.0,0.0,0.0,0.0,0.0,0.0,0.0,0.0,0.0,0.0,0.0,0.0,0.0,0.0,0.0,0.0,0.0,0.0,0.0,0.0,0
1704780820046864531,11965,0,,0,0,,0,0,0,0,0,0,36.90415031,118.16644962,25.44,0.0,1.138,0.0,-0.38,0.14,278.28,195239.4,0.0,0.0,0.178,-1.124,0.0,0.0,0.0,0.0,0.0,0.0,0.0,0.0,0.0,0.0,0.0,0.0,0.0,0.0,0.0,0.0,0.0,0.0,0.0,0.0,0
1704780820145756947,11966,0,,0,0,,0,0,0,0,0,0,36.90415047,118.16644836,25.44,0.0,1.123,0.0,-0.3,0.17,278.49,195239.5,0.0,0.0,0.179,-1.108,0.0,0.0,0.0,0.0,0.0,0.0,0.0,0.0,0.0,0.0,0.0,0.0,0.0,0.0,0.0,0.0,0.0,0.0,0.0,0.0,0
1704780820246370378,11967,0,,0,0,,0,0,0,0,0,0,36.90415063,118.16644712,25.44,0.0,1.119,0.0,-0.17,0.2,278.91,195239.6,0.0,0.0,0.181,-1.104,0.0,0.0,0.0,0.0,0.0,0.0,0.0,0.0,0.0,0.0,0.0,0.0,0.0,0.0,0.0,0.0,0.0,0.0,0.0,0.0,0
1704780820346106124,11968,0,,0,0,,0,0,0,0,0,0,36.90415081,118.16644587,25.44,0.0,1.14,0.0,-0.1,0.15,279.31,195239.7,0.0,0.0,0.186,-1.125,0.0,0.0,0.0,0.0,0.0,0.0,0.0,0.0,0.0,0.0,0.0,0.0,0.0,0.0,0.0,0.0,0.0,0.0,0.0,0.0,0
1704780820446329217,11969,0,,0,0,,0,0,0,0,0,0,36.90415099,118.16644459,25.44,0.0,1.176,0.0,-0.04,0.12,279.89,195239.8,0.0,0.0,0.209,-1.157,0.0,0.0,0.0,0.0,0.0,0.0,0.0,0.0,0.0,0.0,0.0,0.0,0.0,0.0,0.0,0.0,0.0,0.0,0.0,0.0,0
1704780820545389321,11970,0,,0,0,,0,0,0,0,0,0,36.9041512,118.16644326,25.43,0.0,1.228,0.0,-0.07,0.11,280.72,195239.9,0.0,0.0,0.233,-1.205,0.0,0.0,0.0,0.0,0.0,0.0,0.0,0.0,0.0,0.0,0.0,0.0,0.0,0.0,0.0,0.0,0.0,0.0,0.0,0.0,0
1704780820645769682,11971,0,,0,0,,0,0,0,0,0,0,36.90415143,118.16644189,25.43,0.0,1.274,0.0,-0.1,0.18,281.57,195240.0,0.0,0.0,0.28,-1.243,0.0,0.0,0.0,0.0,0.0,0.0,0.0,0.0,0.0,0.0,0.0,0.0,0.0,0.0,0.0,0.0,0.0,0.0,0.0,0.0,0
1704780820745847245,11972,0,,0,0,,0,0,0,0,0,0,36.90415171,118.16644046,25.44,0.0,1.322,0.0,-0.07,0.26,282.47,195240.1,0.0,0.0,0.293,-1.289,0.0,0.0,0.0,0.0,0.0,0.0,0.0,0.0,0.0,0.0,0.0,0.0,0.0,0.0,0.0,0.0,0.0,0.0,0.0,0.0,0
1704780820846238805,11973,0,,0,0,,0,0,0,0,0,0,36.90415198,118.16643899,25.44,0.0,1.368,0.0,-0.11,0.26,283.31,195240.2,0.0,0.0,0.321,-1.329,0.0,0.0,0.0,0.0,0.0,0.0,0.0,0.0,0.0,0.0,0.0,0.0,0.0,0.0,0.0,0.0,0.0,0.0,0.0,0.0,0
1704780820946144504,11974,0,,0,0,,0,0,0,0,0,0,36.9041523,118.16643747,25.44,0.0,1.401,0.0,-0.15,0.32,284.04,195240.3,0.0,0.0,0.364,-1.352,0.0,0.0,0.0,0.0,0.0,0.0,0.0,0.0,0.0,0.0,0.0,0.0,0.0,0.0,0.0,0.0,0.0,0.0,0.0,0.0,0
1704780821046384942,11975,0,,0,0,,0,0,0,0,0,0,36.90415263,118.16643595,25.44,0.0,1.413,0.0,-0.22,0.33,284.81,195240.4,0.0,0.0,0.358,-1.367,0.0,0.0,0.0,0.0,0.0,0.0,0.0,0.0,0.0,0.0,0.0,0.0,0.0,0.0,0.0,0.0,0.0,0.0,0.0,0.0,0
1704780821145662336,11976,0,,0,0,,0,0,0,0,0,0,36.90415298,118.1664344,25.44,0.0,1.42,0.0,-0.14,0.24,285.43,195240.5,0.0,0.0,0.377,-1.369,0.0,0.0,0.0,0.0,0.0,0.0,0.0,0.0,0.0,0.0,0.0,0.0,0.0,0.0,0.0,0.0,0.0,0.0,0.0,0.0,0
1704780821245831304,11977,0,,0,0,,0,0,0,0,0,0,36.90415333,118.16643287,25.44,0.0,1.408,0.0,-0.1,0.26,285.86,195240.6,0.0,0.0,0.42,-1.344,0.0,0.0,0.0,0.0,0.0,0.0,0.0,0.0,0.0,0.0,0.0,0.0,0.0,0.0,0.0,0.0,0.0,0.0,0.0,0.0,0
1704780821345851592,11978,0,,0,0,,0,0,0,0,0,0,36.90415371,118.16643138,25.43,0.0,1.389,0.0,0.01,0.45,286.33,195240.7,0.0,0.0,0.427,-1.321,0.0,0.0,0.0,0.0,0.0,0.0,0.0,0.0,0.0,0.0,0.0,0.0,0.0,0.0,0.0,0.0,0.0,0.0,0.0,0.0,0
1704780821446110578,11979,0,,0,0,,0,0,0,0,0,0,36.90415408,118.16642989,25.44,0.0,1.379,0.0,-0.01,0.46,286.77,195240.8,0.0,0.0,0.391,-1.322,0.0,0.0,0.0,0.0,0.0,0.0,0.0,0.0,0.0,0.0,0.0,0.0,0.0,0.0,0.0,0.0,0.0,0.0,0.0,0.0,0
1704780821545330369,11980,0,,0,0,,0,0,0,0,0,0,36.90415444,118.16642843,25.43,0.0,1.376,0.0,0.05,0.36,287.21,195240.9,0.0,0.0,0.412,-1.312,0.0,0.0,0.0,0.0,0.0,0.0,0.0,0.0,0.0,0.0,0.0,0.0,0.0,0.0,0.0,0.0,0.0,0.0,0.0,0.0,0
1704780821645860821,11981,0,,0,0,,0,0,0,0,0,0,36.90415482,118.16642696,25.44,0.0,1.377,0.0,-0.02,0.39,287.76,195241.0,0.0,0.0,0.442,-1.304,0.0,0.0,0.0,0.0,0.0,0.0,0.0,0.0,0.0,0.0,0.0,0.0,0.0,0.0,0.0,0.0,0.0,0.0,0.0,0.0,0
1704780821745508814,11982,0,,0,0,,0,0,0,0,0,0,36.90415521,118.16642552,25.44,0.0,1.377,0.0,-0.07,0.45,288.45,195241.1,0.0,0.0,0.445,-1.303,0.0,0.0,0.0,0.0,0.0,0.0,0.0,0.0,0.0,0.0,0.0,0.0,0.0,0.0,0.0,0.0,0.0,0.0,0.0,0.0,0
1704780821845810958,11983,0,,0,0,,0,0,0,0,0,0,36.90415562,118.16642406,25.44,0.0,1.376,0.0,-0.15,0.45,289.22,195241.2,0.0,0.0,0.464,-1.295,0.0,0.0,0.0,0.0,0.0,0.0,0.0,0.0,0.0,0.0,0.0,0.0,0.0,0.0,0.0,0.0,0.0,0.0,0.0,0.0,0
1704780821945900518,11984,0,,0,0,,0,0,0,0,0,0,36.90415604,118.16642263,25.44,0.0,1.374,0.0,-0.19,0.49,290.0,195241.3,0.0,0.0,0.491,-1.284,0.0,0.0,0.0,0.0,0.0,0.0,0.0,0.0,0.0,0.0,0.0,0.0,0.0,0.0,0.0,0.0,0.0,0.0,0.0,0.0,0
1704780822046056741,11985,0,,0,0,,0,0,0,0,0,0,36.90415649,118.16642119,25.44,0.0,1.376,0.0,-0.26,0.55,290.76,195241.4,0.0,0.0,0.498,-1.282,0.0,0.0,0.0,0.0,0.0,0.0,0.0,0.0,0.0,0.0,0.0,0.0,0.0,0.0,0.0,0.0,0.0,0.0,0.0,0.0,0
1704780822145300267,11986,0,,0,0,,0,0,0,0,0,0,36.90415693,118.16641977,25.44,0.0,1.373,0.0,-0.25,0.44,291.45,195241.5,0.0,0.0,0.49,-1.283,0.0,0.0,0.0,0.0,0.0,0.0,0.0,0.0,0.0,0.0,0.0,0.0,0.0,0.0,0.0,0.0,0.0,0.0,0.0,0.0,0
1704780822245446716,11987,0,,0,0,,0,0,0,0,0,0,36.90415739,118.16641834,25.44,0.0,1.379,0.0,-0.19,0.36,292.22,195241.6,0.0,0.0,0.53,-1.272,0.0,0.0,0.0,0.0,0.0,0.0,0.0,0.0,0.0,0.0,0.0,0.0,0.0,0.0,0.0,0.0,0.0,0.0,0.0,0.0,0
1704780822345590921,11988,0,,0,0,,0,0,0,0,0,0,36.90415789,118.16641694,25.44,0.0,1.362,0.0,-0.24,0.46,292.96,195241.7,0.0,0.0,0.567,-1.238,0.0,0.0,0.0,0.0,0.0,0.0,0.0,0.0,0.0,0.0,0.0,0.0,0.0,0.0,0.0,0.0,0.0,0.0,0.0,0.0,0
1704780822445981229,11989,0,,0,0,,0,0,0,0,0,0,36.90415839,118.16641555,25.44,0.0,1.356,0.0,-0.17,0.47,293.86,195241.8,0.0,0.0,0.55,-1.24,0.0,0.0,0.0,0.0,0.0,0.0,0.0,0.0,0.0,0.0,0.0,0.0,0.0,0.0,0.0,0.0,0.0,0.0,0.0,0.0,0
1704780822544990922,11990,0,,0,0,,0,0,0,0,0,0,36.90415889,118.16641419,25.44,0.0,1.345,0.0,-0.15,0.43,295.09,195241.9,0.0,0.0,0.572,-1.217,0.0,0.0,0.0,0.0,0.0,0.0,0.0,0.0,0.0,0.0,0.0,0.0,0.0,0.0,0.0,0.0,0.0,0.0,0.0,0.0,0
1704780822645347117,11991,0,,0,0,,0,0,0,0,0,0,36.90415944,118.16641283,25.44,0.0,1.358,0.0,-0.11,0.49,296.16,195242.0,0.0,0.0,0.634,-1.201,0.0,0.0,0.0,0.0,0.0,0.0,0.0,0.0,0.0,0.0,0.0,0.0,0.0,0.0,0.0,0.0,0.0,0.0,0.0,0.0,0
1704780822745284298,11992,0,,0,0,,0,0,0,0,0,0,36.90416001,118.1664115,25.44,0.0,1.364,0.0,-0.16,0.58,297.13,195242.1,0.0,0.0,0.634,-1.208,0.0,0.0,0.0,0.0,0.0,0.0,0.0,0.0,0.0,0.0,0.0,0.0,0.0,0.0,0.0,0.0,0.0,0.0,0.0,0.0,0
1704780822845328615,11993,0,,0,0,,0,0,0,0,0,0,36.90416058,118.16641014,25.44,0.0,1.38,0.0,-0.24,0.53,298.0,195242.2,0.0,0.0,0.652,-1.216,0.0,0.0,0.0,0.0,0.0,0.0,0.0,0.0,0.0,0.0,0.0,0.0,0.0,0.0,0.0,0.0,0.0,0.0,0.0,0.0,0
1704780822945529225,11994,0,,0,0,,0,0,0,0,0,0,36.90416118,118.16640881,25.44,0.0,1.379,0.0,-0.34,0.53,298.76,195242.3,0.0,0.0,0.685,-1.197,0.0,0.0,0.0,0.0,0.0,0.0,0.0,0.0,0.0,0.0,0.0,0.0,0.0,0.0,0.0,0.0,0.0,0.0,0.0,0.0,0
1704780823045722074,11995,0,,0,0,,0,0,0,0,0,0,36.9041618,118.16640746,25.44,0.0,1.382,0.0,-0.42,0.59,299.58,195242.4,0.0,0.0,0.695,-1.195,0.0,0.0,0.0,0.0,0.0,0.0,0.0,0.0,0.0,0.0,0.0,0.0,0.0,0.0,0.0,0.0,0.0,0.0,0.0,0.0,0
1704780823145105475,11996,0,,0,0,,0,0,0,0,0,0,36.90416242,118.16640615,25.44,0.0,1.379,0.0,-0.49,0.6,299.97,195242.5,0.0,0.0,0.702,-1.187,0.0,0.0,0.0,0.0,0.0,0.0,0.0,0.0,0.0,0.0,0.0,0.0,0.0,0.0,0.0,0.0,0.0,0.0,0.0,0.0,0
1704780823245188331,11997,0,,0,0,,0,0,0,0,0,0,36.90416303,118.1664048,25.44,0.0,1.388,0.0,-0.53,0.41,299.96,195242.6,0.0,0.0,0.689,-1.205,0.0,0.0,0.0,0.0,0.0,0.0,0.0,0.0,0.0,0.0,0.0,0.0,0.0,0.0,0.0,0.0,0.0,0.0,0.0,0.0,0
1704780823345619487,11998,0,,0,0,,0,0,0,0,0,0,36.90416365,118.16640348,25.44,0.0,1.377,0.0,-0.57,0.37,299.98,195242.7,0.0,0.0,0.708,-1.181,0.0,0.0,0.0,0.0,0.0,0.0,0.0,0.0,0.0,0.0,0.0,0.0,0.0,0.0,0.0,0.0,0.0,0.0,0.0,0.0,0
1704780823445583622,11999,0,,0,0,,0,0,0,0,0,0,36.90416427,118.16640216,25.44,0.0,1.372,0.0,-0.56,0.4,299.82,195242.8,0.0,0.0,0.709,-1.175,0.0,0.0,0.0,0.0,0.0,0.0,0.0,0.0,0.0,0.0,0.0,0.0,0.0,0.0,0.0,0.0,0.0,0.0,0.0,0.0,0
1704780823544597856,12000,0,,0,0,,0,0,0,0,0,0,36.90416488,118.16640086,25.44,0.0,1.355,0.0,-0.52,0.4,299.69,195242.9,0.0,0.0,0.679,-1.173,0.0,0.0,0.0,0.0,0.0,0.0,0.0,0.0,0.0,0.0,0.0,0.0,0.0,0.0,0.0,0.0,0.0,0.0,0.0,0.0,0
1704780823646063565,12001,0,,0,0,,0,0,0,0,0,0,36.90416549,118.16639954,25.44,0.0,1.353,0.0,-0.48,0.36,299.61,195243.0,0.0,0.0,0.68,-1.169,0.0,0.0,0.0,0.0,0.0,0.0,0.0,0.0,0.0,0.0,0.0,0.0,0.0,0.0,0.0,0.0,0.0,0.0,0.0,0.0,0
1704780823745394483,12002,0,,0,0,,0,0,0,0,0,0,36.90416609,118.16639824,25.44,0.0,1.355,0.0,-0.44,0.36,299.5,195243.1,0.0,0.0,0.692,-1.165,0.0,0.0,0.0,0.0,0.0,0.0,0.0,0.0,0.0,0.0,0.0,0.0,0.0,0.0,0.0,0.0,0.0,0.0,0.0,0.0,0
1704780823845568650,12003,0,,0,0,,0,0,0,0,0,0,36.9041667,118.16639692,25.44,0.0,1.363,0.0,-0.55,0.39,299.45,195243.2,0.0,0.0,0.688,-1.177,0.0,0.0,0.0,0.0,0.0,0.0,0.0,0.0,0.0,0.0,0.0,0.0,0.0,0.0,0.0,0.0,0.0,0.0,0.0,0.0,0
1704780823944986824,12004,0,,0,0,,0,0,0,0,0,0,36.90416729,118.16639562,25.44,0.0,1.356,0.0,-0.53,0.27,299.53,195243.3,0.0,0.0,0.669,-1.18,0.0,0.0,0.0,0.0,0.0,0.0,0.0,0.0,0.0,0.0,0.0,0.0,0.0,0.0,0.0,0.0,0.0,0.0,0.0,0.0,0
1704780824044878197,12005,0,,0,0,,0,0,0,0,0,0,36.9041679,118.1663943,25.44,0.0,1.36,0.0,-0.59,0.22,300.15,195243.4,0.0,0.0,0.695,-1.168,0.0,0.0,0.0,0.0,0.0,0.0,0.0,0.0,0.0,0.0,0.0,0.0,0.0,0.0,0.0,0.0,0.0,0.0,0.0,0.0,0
1704780824145187717,12006,0,,0,0,,0,0,0,0,0,0,36.90416855,118.16639302,25.44,0.0,1.347,0.0,-0.53,0.32,300.94,195243.5,0.0,0.0,0.726,-1.135,0.0,0.0,0.0,0.0,0.0,0.0,0.0,0.0,0.0,0.0,0.0,0.0,0.0,0.0,0.0,0.0,0.0,0.0,0.0,0.0,0
1704780824245357615,12007,0,,0,0,,0,0,0,0,0,0,36.9041692,118.16639173,25.44,0.0,1.358,0.0,-0.55,0.35,301.76,195243.6,0.0,0.0,0.724,-1.15,0.0,0.0,0.0,0.0,0.0,0.0,0.0,0.0,0.0,0.0,0.0,0.0,0.0,0.0,0.0,0.0,0.0,0.0,0.0,0.0,0
1704780824344346543,12008,0,,0,0,,0,0,0,0,0,0,36.90416985,118.16639046,25.44,0.0,1.364,0.0,-0.54,0.23,302.65,195243.7,0.0,0.0,0.738,-1.148,0.0,0.0,0.0,0.0,0.0,0.0,0.0,0.0,0.0,0.0,0.0,0.0,0.0,0.0,0.0,0.0,0.0,0.0,0.0,0.0,0
1704780824444617828,12009,0,,0,0,,0,0,0,0,0,0,36.90417054,118.16638919,25.44,0.0,1.371,0.0,-0.56,0.27,303.44,195243.8,0.0,0.0,0.796,-1.116,0.0,0.0,0.0,0.0,0.0,0.0,0.0,0.0,0.0,0.0,0.0,0.0,0.0,0.0,0.0,0.0,0.0,0.0,0.0,0.0,0
1704780824544790292,12010,0,,0,0,,0,0,0,0,0,0,36.90417125,118.16638795,25.44,0.0,1.36,0.0,-0.51,0.38,304.21,195243.9,0.0,0.0,0.786,-1.11,0.0,0.0,0.0,0.0,0.0,0.0,0.0,0.0,0.0,0.0,0.0,0.0,0.0,0.0,0.0,0.0,0.0,0.0,0.0,0.0,0
1704780824645006181,12011,0,,0,0,,0,0,0,0,0,0,36.90417195,118.16638671,25.44,0.0,1.354,0.0,-0.5,0.33,305.11,195244.0,0.0,0.0,0.779,-1.107,0.0,0.0,0.0,0.0,0.0,0.0,0.0,0.0,0.0,0.0,0.0,0.0,0.0,0.0,0.0,0.0,0.0,0.0,0.0,0.0,0
1704780824745676388,12012,0,,0,0,,0,0,0,0,0,0,36.90417267,118.16638548,25.44,0.0,1.356,0.0,-0.51,0.31,306.04,195244.1,0.0,0.0,0.824,-1.077,0.0,0.0,0.0,0.0,0.0,0.0,0.0,0.0,0.0,0.0,0.0,0.0,0.0,0.0,0.0,0.0,0.0,0.0,0.0,0.0,0
1704780824845362648,12013,0,,0,0,,0,0,0,0,0,0,36.90417342,118.16638429,25.44,0.0,1.352,0.0,-0.54,0.41,306.95,195244.2,0.0,0.0,0.842,-1.058,0.0,0.0,0.0,0.0,0.0,0.0,0.0,0.0,0.0,0.0,0.0,0.0,0.0,0.0,0.0,0.0,0.0,0.0,0.0,0.0,0
1704780824944905610,12014,0,,0,0,,0,0,0,0,0,0,36.90417418,118.1663831,25.44,0.0,1.354,0.0,-0.58,0.46,307.81,195244.3,0.0,0.0,0.843,-1.06,0.0,0.0,0.0,0.0,0.0,0.0,0.0,0.0,0.0,0.0,0.0,0.0,0.0,0.0,0.0,0.0,0.0,0.0,0.0,0.0,0
1704780825044615479,12015,0,,0,0,,0,0,0,0,0,0,36.90417494,118.16638192,25.44,0.0,1.358,0.0,-0.55,0.41,308.65,195244.4,0.0,0.0,0.864,-1.048,0.0,0.0,0.0,0.0,0.0,0.0,0.0,0.0,0.0,0.0,0.0,0.0,0.0,0.0,0.0,0.0,0.0,0.0,0.0,0.0,0
1704780825144734715,12016,0,,0,0,,0,0,0,0,0,0,36.90417573,118.16638076,25.44,0.0,1.372,0.0,-0.68,0.5,309.59,195244.5,0.0,0.0,0.901,-1.034,0.0,0.0,0.0,0.0,0.0,0.0,0.0,0.0,0.0,0.0,0.0,0.0,0.0,0.0,0.0,0.0,0.0,0.0,0.0,0.0,0
1704780825244884462,12017,0,,0,0,,0,0,0,0,0,0,36.90417653,118.16637961,25.44,0.0,1.343,0.0,-0.67,0.5,310.53,195244.6,0.0,0.0,0.879,-1.016,0.0,0.0,0.0,0.0,0.0,0.0,0.0,0.0,0.0,0.0,0.0,0.0,0.0,0.0,0.0,0.0,0.0,0.0,0.0,0.0,0
1704780825343983196,12018,0,,0,0,,0,0,0,0,0,0,36.90417729,118.1663785,25.44,0.0,1.279,0.0,-0.64,0.38,311.78,195244.7,0.0,0.0,0.862,-0.945,0.0,0.0,0.0,0.0,0.0,0.0,0.0,0.0,0.0,0.0,0.0,0.0,0.0,0.0,0.0,0.0,0.0,0.0,0.0,0.0,0
1704780825444576509,12019,0,,0,0,,0,0,0,0,0,0,36.90417804,118.16637752,25.44,0.0,1.142,0.0,-0.69,0.44,313.19,195244.8,0.0,0.0,0.806,-0.809,0.0,0.0,0.0,0.0,0.0,0.0,0.0,0.0,0.0,0.0,0.0,0.0,0.0,0.0,0.0,0.0,0.0,0.0,0.0,0.0,0
1704780825544309918,12020,0,,0,0,,0,0,0,0,0,0,36.90417872,118.16637664,25.44,0.0,1.098,0.0,-0.5,0.36,314.15,195244.9,0.0,0.0,0.774,-0.779,0.0,0.0,0.0,0.0,0.0,0.0,0.0,0.0,0.0,0.0,0.0,0.0,0.0,0.0,0.0,0.0,0.0,0.0,0.0,0.0,0
1704780825644888718,12021,0,,0,0,,0,0,0,0,0,0,36.9041794,118.16637579,25.44,0.0,1.057,0.0,-0.41,0.26,315.16,195245.0,0.0,0.0,0.762,-0.733,0.0,0.0,0.0,0.0,0.0,0.0,0.0,0.0,0.0,0.0,0.0,0.0,0.0,0.0,0.0,0.0,0.0,0.0,0.0,0.0,0
1704780825744987034,12022,0,,0,0,,0,0,0,0,0,0,36.90418007,118.16637497,25.44,0.0,1.111,0.0,-0.12,0.26,316.18,195245.1,0.0,0.0,0.823,-0.745,0.0,0.0,0.0,0.0,0.0,0.0,0.0,0.0,0.0,0.0,0.0,0.0,0.0,0.0,0.0,0.0,0.0,0.0,0.0,0.0,0
1704780825844870004,12023,0,,0,0,,0,0,0,0,0,0,36.90418084,118.16637411,25.44,0.0,1.172,0.0,-0.02,0.29,316.95,195245.2,0.0,0.0,0.874,-0.781,0.0,0.0,0.0,0.0,0.0,0.0,0.0,0.0,0.0,0.0,0.0,0.0,0.0,0.0,0.0,0.0,0.0,0.0,0.0,0.0,0
1704780825944145109,12024,0,,0,0,,0,0,0,0,0,0,36.90418161,118.1663732,25.44,0.0,1.259,0.0,0.11,0.27,317.59,195245.3,0.0,0.0,0.949,-0.827,0.0,0.0,0.0,0.0,0.0,0.0,0.0,0.0,0.0,0.0,0.0,0.0,0.0,0.0,0.0,0.0,0.0,0.0,0.0,0.0,0
1704780826044411374,12025,0,,0,0,,0,0,0,0,0,0,36.9041825,118.16637226,25.44,0.0,1.319,0.0,-0.0,0.43,318.11,195245.4,0.0,0.0,1.019,-0.838,0.0,0.0,0.0,0.0,0.0,0.0,0.0,0.0,0.0,0.0,0.0,0.0,0.0,0.0,0.0,0.0,0.0,0.0,0.0,0.0,0
1704780826144577205,12026,0,,0,0,,0,0,0,0,0,0,36.90418338,118.16637128,25.44,0.0,1.351,0.0,0.01,0.46,318.61,195245.5,0.0,0.0,1.019,-0.887,0.0,0.0,0.0,0.0,0.0,0.0,0.0,0.0,0.0,0.0,0.0,0.0,0.0,0.0,0.0,0.0,0.0,0.0,0.0,0.0,0
1704780826244632707,12027,0,,0,0,,0,0,0,0,0,0,36.90418431,118.16637026,25.44,0.0,1.396,0.0,0.03,0.33,319.14,195245.6,0.0,0.0,1.057,-0.912,0.0,0.0,0.0,0.0,0.0,0.0,0.0,0.0,0.0,0.0,0.0,0.0,0.0,0.0,0.0,0.0,0.0,0.0,0.0,0.0,0
1704780826343884437,12028,0,,0,0,,0,0,0,0,0,0,36.90418526,118.16636923,25.44,0.0,1.41,0.0,-0.11,0.25,319.64,195245.7,0.0,0.0,1.09,-0.893,0.0,0.0,0.0,0.0,0.0,0.0,0.0,0.0,0.0,0.0,0.0,0.0,0.0,0.0,0.0,0.0,0.0,0.0,0.0,0.0,0
1704780826444093775,12029,0,,0,0,,0,0,0,0,0,0,36.90418623,118.16636821,25.44,0.0,1.419,0.0,-0.24,0.12,320.22,195245.8,0.0,0.0,1.08,-0.92,0.0,0.0,0.0,0.0,0.0,0.0,0.0,0.0,0.0,0.0,0.0,0.0,0.0,0.0,0.0,0.0,0.0,0.0,0.0,0.0,0
1704780826544373170,12030,0,,0,0,,0,0,0,0,0,0,36.90418717,118.16636716,25.44,0.0,1.407,0.0,-0.32,-0.21,320.76,195245.9,0.0,0.0,1.078,-0.905,0.0,0.0,0.0,0.0,0.0,0.0,0.0,0.0,0.0,0.0,0.0,0.0,0.0,0.0,0.0,0.0,0.0,0.0,0.0,0.0,0
1704780826644396788,12031,0,,0,0,,0,0,0,0,0,0,36.90418815,118.16636618,25.44,0.0,1.388,0.0,-0.25,-0.36,321.35,195246.0,0.0,0.0,1.102,-0.844,0.0,0.0,0.0,0.0,0.0,0.0,0.0,0.0,0.0,0.0,0.0,0.0,0.0,0.0,0.0,0.0,0.0,0.0,0.0,0.0,0
1704780826744515846,12032,0,,0,0,,0,0,0,0,0,0,36.90418912,118.16636523,25.44,0.0,1.388,0.0,-0.24,-0.18,322.05,195246.1,0.0,0.0,1.125,-0.813,0.0,0.0,0.0,0.0,0.0,0.0,0.0,0.0,0.0,0.0,0.0,0.0,0.0,0.0,0.0,0.0,0.0,0.0,0.0,0.0,0
1704780826844843258,12033,0,,0,0,,0,0,0,0,0,0,36.90419013,118.16636431,25.44,0.0,1.39,0.0,-0.29,-0.14,322.69,195246.2,0.0,0.0,1.117,-0.827,0.0,0.0,0.0,0.0,0.0,0.0,0.0,0.0,0.0,0.0,0.0,0.0,0.0,0.0,0.0,0.0,0.0,0.0,0.0,0.0,0
1704780826943856015,12034,0,,0,0,,0,0,0,0,0,0,36.9041911,118.16636337,25.44,0.0,1.377,0.0,-0.28,-0.2,323.47,195246.3,0.0,0.0,1.114,-0.809,0.0,0.0,0.0,0.0,0.0,0.0,0.0,0.0,0.0,0.0,0.0,0.0,0.0,0.0,0.0,0.0,0.0,0.0,0.0,0.0,0
1704780827044040413,12035,0,,0,0,,0,0,0,0,0,0,36.90419213,118.16636249,25.45,0.0,1.385,0.0,-0.35,-0.09,324.34,195246.4,0.0,0.0,1.155,-0.764,0.0,0.0,0.0,0.0,0.0,0.0,0.0,0.0,0.0,0.0,0.0,0.0,0.0,0.0,0.0,0.0,0.0,0.0,0.0,0.0,0
1704780827144357342,12036,0,,0,0,,0,0,0,0,0,0,36.90419315,118.16636161,25.44,0.0,1.369,0.0,-0.39,-0.04,325.16,195246.5,0.0,0.0,1.131,-0.772,0.0,0.0,0.0,0.0,0.0,0.0,0.0,0.0,0.0,0.0,0.0,0.0,0.0,0.0,0.0,0.0,0.0,0.0,0.0,0.0,0
1704780827244404919,12037,0,,0,0,,0,0,0,0,0,0,36.90419417,118.16636074,25.45,0.0,1.379,0.0,-0.47,-0.21,326.02,195246.6,0.0,0.0,1.142,-0.774,0.0,0.0,0.0,0.0,0.0,0.0,0.0,0.0,0.0,0.0,0.0,0.0,0.0,0.0,0.0,0.0,0.0,0.0,0.0,0.0,0
1704780827343772535,12038,0,,0,0,,0,0,0,0,0,0,36.9041952,118.16635988,25.45,0.0,1.366,0.0,-0.56,-0.24,326.91,195246.7,0.0,0.0,1.165,-0.714,0.0,0.0,0.0,0.0,0.0,0.0,0.0,0.0,0.0,0.0,0.0,0.0,0.0,0.0,0.0,0.0,0.0,0.0,0.0,0.0,0
1704780827443388207,12039,0,,0,0,,0,0,0,0,0,0,36.90419625,118.16635908,25.45,0.0,1.37,0.0,-0.55,-0.22,327.74,195246.8,0.0,0.0,1.167,-0.718,0.0,0.0,0.0,0.0,0.0,0.0,0.0,0.0,0.0,0.0,0.0,0.0,0.0,0.0,0.0,0.0,0.0,0.0,0.0,0.0,0
1704780827544310976,12040,0,,0,0,,0,0,0,0,0,0,36.9041973,118.16635826,25.45,0.0,1.373,0.0,-0.56,-0.38,328.7,195246.9,0.0,0.0,1.171,-0.716,0.0,0.0,0.0,0.0,0.0,0.0,0.0,0.0,0.0,0.0,0.0,0.0,0.0,0.0,0.0,0.0,0.0,0.0,0.0,0.0,0
1704780827644067207,12041,0,,0,0,,0,0,0,0,0,0,36.90419837,118.16635748,25.45,0.0,1.372,0.0,-0.61,-0.4,329.86,195247.0,0.0,0.0,1.206,-0.654,0.0,0.0,0.0,0.0,0.0,0.0,0.0,0.0,0.0,0.0,0.0,0.0,0.0,0.0,0.0,0.0,0.0,0.0,0.0,0.0,0
1704780827744247111,12042,0,,0,0,,0,0,0,0,0,0,36.90419944,118.16635675,25.44,0.0,1.364,0.0,-0.58,-0.25,331.03,195247.1,0.0,0.0,1.215,-0.621,0.0,0.0,0.0,0.0,0.0,0.0,0.0,0.0,0.0,0.0,0.0,0.0,0.0,0.0,0.0,0.0,0.0,0.0,0.0,0.0,0
1704780827844369166,12043,0,,0,0,,0,0,0,0,0,0,36.90420053,118.16635605,25.44,0.0,1.357,0.0,-0.59,-0.27,332.14,195247.2,0.0,0.0,1.205,-0.624,0.0,0.0,0.0,0.0,0.0,0.0,0.0,0.0,0.0,0.0,0.0,0.0,0.0,0.0,0.0,0.0,0.0,0.0,0.0,0.0,0
1704780827943681616,12044,0,,0,0,,0,0,0,0,0,0,36.9042016,118.16635535,25.44,0.0,1.352,0.0,-0.49,-0.37,333.29,195247.3,0.0,0.0,1.218,-0.586,0.0,0.0,0.0,0.0,0.0,0.0,0.0,0.0,0.0,0.0,0.0,0.0,0.0,0.0,0.0,0.0,0.0,0.0,0.0,0.0,0
1704780828043659288,12045,0,,0,0,,0,0,0,0,0,0,36.90420272,118.16635471,25.44,0.0,1.365,0.0,-0.53,-0.28,334.49,195247.4,0.0,0.0,1.25,-0.549,0.0,0.0,0.0,0.0,0.0,0.0,0.0,0.0,0.0,0.0,0.0,0.0,0.0,0.0,0.0,0.0,0.0,0.0,0.0,0.0,0
1704780828144110397,12046,0,,0,0,,0,0,0,0,0,0,36.90420384,118.16635408,25.44,0.0,1.367,0.0,-0.52,-0.27,335.66,195247.5,0.0,0.0,1.251,-0.55,0.0,0.0,0.0,0.0,0.0,0.0,0.0,0.0,0.0,0.0,0.0,0.0,0.0,0.0,0.0,0.0,0.0,0.0,0.0,0.0,0
1704780828244091645,12047,0,,0,0,,0,0,0,0,0,0,36.90420496,118.16635347,25.44,0.0,1.366,0.0,-0.53,-0.38,336.9,195247.6,0.0,0.0,1.257,-0.533,0.0,0.0,0.0,0.0,0.0,0.0,0.0,0.0,0.0,0.0,0.0,0.0,0.0,0.0,0.0,0.0,0.0,0.0,0.0,0.0,0
1704780828343291581,12048,0,,0,0,,0,0,0,0,0,0,36.90420609,118.16635288,25.44,0.0,1.369,0.0,-0.52,-0.44,338.14,195247.7,0.0,0.0,1.282,-0.481,0.0,0.0,0.0,0.0,0.0,0.0,0.0,0.0,0.0,0.0,0.0,0.0,0.0,0.0,0.0,0.0,0.0,0.0,0.0,0.0,0
1704780828443409722,12049,0,,0,0,,0,0,0,0,0,0,36.90420724,118.16635235,25.44,0.0,1.367,0.0,-0.45,-0.44,339.35,195247.8,0.0,0.0,1.287,-0.46,0.0,0.0,0.0,0.0,0.0,0.0,0.0,0.0,0.0,0.0,0.0,0.0,0.0,0.0,0.0,0.0,0.0,0.0,0.0,0.0,0
1704780828543754608,12050,0,,0,0,,0,0,0,0,0,0,36.90420837,118.16635182,25.44,0.0,1.374,0.0,-0.51,-0.5,340.52,195247.9,0.0,0.0,1.299,-0.448,0.0,0.0,0.0,0.0,0.0,0.0,0.0,0.0,0.0,0.0,0.0,0.0,0.0,0.0,0.0,0.0,0.0,0.0,0.0,0.0,0
1704780828643715027,12051,0,,0,0,,0,0,0,0,0,0,36.90420955,118.16635133,25.44,0.0,1.377,0.0,-0.52,-0.56,341.56,195248.0,0.0,0.0,1.313,-0.414,0.0,0.0,0.0,0.0,0.0,0.0,0.0,0.0,0.0,0.0,0.0,0.0,0.0,0.0,0.0,0.0,0.0,0.0,0.0,0.0,0
1704780828742976948,12052,0,,0,0,,0,0,0,0,0,0,36.9042107,118.16635088,25.44,0.0,1.367,0.0,-0.53,-0.5,342.59,195248.1,0.0,0.0,1.315,-0.372,0.0,0.0,0.0,0.0,0.0,0.0,0.0,0.0,0.0,0.0,0.0,0.0,0.0,0.0,0.0,0.0,0.0,0.0,0.0,0.0,0
1704780828843095984,12053,0,,0,0,,0,0,0,0,0,0,36.90421189,118.16635048,25.44,0.0,1.363,0.0,-0.45,-0.39,343.65,195248.2,0.0,0.0,1.318,-0.346,0.0,0.0,0.0,0.0,0.0,0.0,0.0,0.0,0.0,0.0,0.0,0.0,0.0,0.0,0.0,0.0,0.0,0.0,0.0,0.0,0
1704780828943876728,12054,0,,0,0,,0,0,0,0,0,0,36.90421304,118.16635007,25.44,0.0,1.36,0.0,-0.45,-0.32,344.57,195248.3,0.0,0.0,1.319,-0.331,0.0,0.0,0.0,0.0,0.0,0.0,0.0,0.0,0.0,0.0,0.0,0.0,0.0,0.0,0.0,0.0,0.0,0.0,0.0,0.0,0
1704780829043503493,12055,0,,0,0,,0,0,0,0,0,0,36.90421423,118.1663497,25.44,0.0,1.363,0.0,-0.39,-0.37,345.42,195248.4,0.0,0.0,1.323,-0.326,0.0,0.0,0.0,0.0,0.0,0.0,0.0,0.0,0.0,0.0,0.0,0.0,0.0,0.0,0.0,0.0,0.0,0.0,0.0,0.0,0
1704780829143814105,12056,0,,0,0,,0,0,0,0,0,0,36.90421539,118.16634934,25.44,0.0,1.367,0.0,-0.42,-0.33,346.44,195248.5,0.0,0.0,1.337,-0.284,0.0,0.0,0.0,0.0,0.0,0.0,0.0,0.0,0.0,0.0,0.0,0.0,0.0,0.0,0.0,0.0,0.0,0.0,0.0,0.0,0
1704780829243641296,12057,0,,0,0,,0,0,0,0,0,0,36.9042166,118.16634903,25.44,0.0,1.386,0.0,-0.46,-0.24,347.35,195248.6,0.0,0.0,1.359,-0.272,0.0,0.0,0.0,0.0,0.0,0.0,0.0,0.0,0.0,0.0,0.0,0.0,0.0,0.0,0.0,0.0,0.0,0.0,0.0,0.0,0
1704780829342582700,12058,0,,0,0,,0,0,0,0,0,0,36.90421778,118.16634871,25.44,0.0,1.379,0.0,-0.53,-0.3,348.01,195248.7,0.0,0.0,1.352,-0.273,0.0,0.0,0.0,0.0,0.0,0.0,0.0,0.0,0.0,0.0,0.0,0.0,0.0,0.0,0.0,0.0,0.0,0.0,0.0,0.0,0
1704780829443155459,12059,0,,0,0,,0,0,0,0,0,0,36.90421901,118.16634842,25.44,0.0,1.395,0.0,-0.64,-0.29,348.71,195248.8,0.0,0.0,1.375,-0.234,0.0,0.0,0.0,0.0,0.0,0.0,0.0,0.0,0.0,0.0,0.0,0.0,0.0,0.0,0.0,0.0,0.0,0.0,0.0,0.0,0
1704780829543328839,12060,0,,0,0,,0,0,0,0,0,0,36.90422021,118.16634812,25.44,0.0,1.371,0.0,-0.71,-0.12,349.28,195248.9,0.0,0.0,1.355,-0.207,0.0,0.0,0.0,0.0,0.0,0.0,0.0,0.0,0.0,0.0,0.0,0.0,0.0,0.0,0.0,0.0,0.0,0.0,0.0,0.0,0
1704780829643517187,12061,0,,0,0,,0,0,0,0,0,0,36.90422143,118.16634788,25.44,0.0,1.378,0.0,-0.69,-0.09,349.79,195249.0,0.0,0.0,1.358,-0.232,0.0,0.0,0.0,0.0,0.0,0.0,0.0,0.0,0.0,0.0,0.0,0.0,0.0,0.0,0.0,0.0,0.0,0.0,0.0,0.0,0
1704780829743170389,12062,0,,0,0,,0,0,0,0,0,0,36.90422261,118.16634758,25.44,0.0,1.372,0.0,-0.76,-0.23,350.33,195249.1,0.0,0.0,1.352,-0.23,0.0,0.0,0.0,0.0,0.0,0.0,0.0,0.0,0.0,0.0,0.0,0.0,0.0,0.0,0.0,0.0,0.0,0.0,0.0,0.0,0
1704780829842945020,12063,0,,0,0,,0,0,0,0,0,0,36.90422383,118.16634735,25.44,0.0,1.372,0.0,-0.76,-0.21,350.83,195249.2,0.0,0.0,1.361,-0.175,0.0,0.0,0.0,0.0,0.0,0.0,0.0,0.0,0.0,0.0,0.0,0.0,0.0,0.0,0.0,0.0,0.0,0.0,0.0,0.0,0
1704780829943047141,12064,0,,0,0,,0,0,0,0,0,0,36.90422503,118.16634712,25.43,0.0,1.374,0.0,-0.82,-0.15,351.31,195249.3,0.0,0.0,1.362,-0.184,0.0,0.0,0.0,0.0,0.0,0.0,0.0,0.0,0.0,0.0,0.0,0.0,0.0,0.0,0.0,0.0,0.0,0.0,0.0,0.0,0
1704780830043031441,12065,0,,0,0,,0,0,0,0,0,0,36.90422625,118.1663469,25.43,0.0,1.363,0.0,-0.82,-0.24,351.78,195249.4,0.0,0.0,1.349,-0.192,0.0,0.0,0.0,0.0,0.0,0.0,0.0,0.0,0.0,0.0,0.0,0.0,0.0,0.0,0.0,0.0,0.0,0.0,0.0,0.0,0
1704780830143280521,12066,0,,0,0,,0,0,0,0,0,0,36.90422743,118.16634668,25.43,0.0,1.359,0.0,-0.76,-0.29,352.24,195249.5,0.0,0.0,1.351,-0.146,0.0,0.0,0.0,0.0,0.0,0.0,0.0,0.0,0.0,0.0,0.0,0.0,0.0,0.0,0.0,0.0,0.0,0.0,0.0,0.0,0
1704780830243379827,12067,0,,0,0,,0,0,0,0,0,0,36.90422865,118.16634654,25.43,0.0,1.363,0.0,-0.69,-0.1,352.7,195249.6,0.0,0.0,1.357,-0.121,0.0,0.0,0.0,0.0,0.0,0.0,0.0,0.0,0.0,0.0,0.0,0.0,0.0,0.0,0.0,0.0,0.0,0.0,0.0,0.0,0
1704780830342799059,12068,0,,0,0,,0,0,0,0,0,0,36.90422984,118.16634636,25.43,0.0,1.365,0.0,-0.77,-0.07,353.23,195249.7,0.0,0.0,1.356,-0.163,0.0,0.0,0.0,0.0,0.0,0.0,0.0,0.0,0.0,0.0,0.0,0.0,0.0,0.0,0.0,0.0,0.0,0.0,0.0,0.0,0
1704780830442880913,12069,0,,0,0,,0,0,0,0,0,0,36.90423105,118.16634618,25.43,0.0,1.351,0.0,-0.61,-0.18,353.58,195249.8,0.0,0.0,1.344,-0.136,0.0,0.0,0.0,0.0,0.0,0.0,0.0,0.0,0.0,0.0,0.0,0.0,0.0,0.0,0.0,0.0,0.0,0.0,0.0,0.0,0
1704780830543182270,12070,0,,0,0,,0,0,0,0,0,0,36.90423224,118.16634602,25.42,0.0,1.351,0.0,-0.54,-0.15,353.73,195249.9,0.0,0.0,1.347,-0.105,0.0,0.0,0.0,0.0,0.0,0.0,0.0,0.0,0.0,0.0,0.0,0.0,0.0,0.0,0.0,0.0,0.0,0.0,0.0,0.0,0
1704780830643172235,12071,0,,0,0,,0,0,0,0,0,0,36.90423345,118.16634587,25.42,0.0,1.346,0.0,-0.37,-0.17,353.92,195250.0,0.0,0.0,1.339,-0.14,0.0,0.0,0.0,0.0,0.0,0.0,0.0,0.0,0.0,0.0,0.0,0.0,0.0,0.0,0.0,0.0,0.0,0.0,0.0,0.0,0
1704780830742715791,12072,0,,0,0,,0,0,0,0,0,0,36.90423463,118.16634571,25.42,0.0,1.35,0.0,-0.31,-0.24,354.05,195250.1,0.0,0.0,1.344,-0.124,0.0,0.0,0.0,0.0,0.0,0.0,0.0,0.0,0.0,0.0,0.0,0.0,0.0,0.0,0.0,0.0,0.0,0.0,0.0,0.0,0
1704780830842569537,12073,0,,0,0,,0,0,0,0,0,0,36.90423585,118.16634557,25.42,0.0,1.377,0.0,-0.31,-0.24,354.06,195250.2,0.0,0.0,1.373,-0.107,0.0,0.0,0.0,0.0,0.0,0.0,0.0,0.0,0.0,0.0,0.0,0.0,0.0,0.0,0.0,0.0,0.0,0.0,0.0,0.0,0
1704780830942763522,12074,0,,0,0,,0,0,0,0,0,0,36.90423708,118.16634543,25.42,0.0,1.4,0.0,-0.37,-0.18,354.06,195250.3,0.0,0.0,1.395,-0.123,0.0,0.0,0.0,0.0,0.0,0.0,0.0,0.0,0.0,0.0,0.0,0.0,0.0,0.0,0.0,0.0,0.0,0.0,0.0,0.0,0
1704780831042763984,12075,0,,0,0,,0,0,0,0,0,0,36.90423835,118.16634526,25.42,0.0,1.438,0.0,-0.41,-0.3,354.05,195250.4,0.0,0.0,1.431,-0.146,0.0,0.0,0.0,0.0,0.0,0.0,0.0,0.0,0.0,0.0,0.0,0.0,0.0,0.0,0.0,0.0,0.0,0.0,0.0,0.0,0
1704780831142931297,12076,0,,0,0,,0,0,0,0,0,0,36.90423964,118.1663451,25.42,0.0,1.475,0.0,-0.5,-0.3,354.04,195250.5,0.0,0.0,1.47,-0.115,0.0,0.0,0.0,0.0,0.0,0.0,0.0,0.0,0.0,0.0,0.0,0.0,0.0,0.0,0.0,0.0,0.0,0.0,0.0,0.0,0
1704780831242845035,12077,0,,0,0,,0,0,0,0,0,0,36.90424099,118.16634496,25.42,0.0,1.529,0.0,-0.52,-0.19,354.02,195250.6,0.0,0.0,1.525,-0.121,0.0,0.0,0.0,0.0,0.0,0.0,0.0,0.0,0.0,0.0,0.0,0.0,0.0,0.0,0.0,0.0,0.0,0.0,0.0,0.0,0
1704780831343134942,12078,0,,0,0,,0,0,0,0,0,0,36.90424237,118.16634478,25.42,0.0,1.594,0.0,-0.64,-0.2,354.0,195250.7,0.0,0.0,1.587,-0.154,0.0,0.0,0.0,0.0,0.0,0.0,0.0,0.0,0.0,0.0,0.0,0.0,0.0,0.0,0.0,0.0,0.0,0.0,0.0,0.0,0
1704780831442638222,12079,0,,0,0,,0,0,0,0,0,0,36.90424382,118.1663446,25.42,0.0,1.636,0.0,-0.68,-0.21,353.96,195250.8,0.0,0.0,1.63,-0.141,0.0,0.0,0.0,0.0,0.0,0.0,0.0,0.0,0.0,0.0,0.0,0.0,0.0,0.0,0.0,0.0,0.0,0.0,0.0,0.0,0
1704780831542372971,12080,0,,0,0,,0,0,0,0,0,0,36.9042453,118.16634441,25.41,0.0,1.656,0.0,-0.6,-0.13,353.99,195250.9,0.0,0.0,1.649,-0.144,0.0,0.0,0.0,0.0,0.0,0.0,0.0,0.0,0.0,0.0,0.0,0.0,0.0,0.0,0.0,0.0,0.0,0.0,0.0,0.0,0
1704780831643018635,12081,0,,0,0,,0,0,0,0,0,0,36.90424679,118.16634423,25.41,0.0,1.68,0.0,-0.57,-0.15,354.15,195251.0,0.0,0.0,1.671,-0.172,0.0,0.0,0.0,0.0,0.0,0.0,0.0,0.0,0.0,0.0,0.0,0.0,0.0,0.0,0.0,0.0,0.0,0.0,0.0,0.0,0
1704780831742054546,12082,0,,0,0,,0,0,0,0,0,0,36.90424829,118.16634402,25.41,0.0,1.675,0.0,-0.58,-0.25,354.5,195251.1,0.0,0.0,1.669,-0.145,0.0,0.0,0.0,0.0,0.0,0.0,0.0,0.0,0.0,0.0,0.0,0.0,0.0,0.0,0.0,0.0,0.0,0.0,0.0,0.0,0
1704780831842028573,12083,0,,0,0,,0,0,0,0,0,0,36.90424979,118.16634387,25.41,0.0,1.675,0.0,-0.51,-0.27,354.98,195251.2,0.0,0.0,1.67,-0.129,0.0,0.0,0.0,0.0,0.0,0.0,0.0,0.0,0.0,0.0,0.0,0.0,0.0,0.0,0.0,0.0,0.0,0.0,0.0,0.0,0
1704780831942453092,12084,0,,0,0,,0,0,0,0,0,0,36.90425128,118.1663437,25.41,0.0,1.657,0.0,-0.5,-0.36,355.36,195251.3,0.0,0.0,1.652,-0.125,0.0,0.0,0.0,0.0,0.0,0.0,0.0,0.0,0.0,0.0,0.0,0.0,0.0,0.0,0.0,0.0,0.0,0.0,0.0,0.0,0
1704780832042301864,12085,0,,0,0,,0,0,0,0,0,0,36.90425276,118.16634358,25.41,0.0,1.656,0.0,-0.39,-0.3,355.72,195251.4,0.0,0.0,1.654,-0.076,0.0,0.0,0.0,0.0,0.0,0.0,0.0,0.0,0.0,0.0,0.0,0.0,0.0,0.0,0.0,0.0,0.0,0.0,0.0,0.0,0
1704780832142892549,12086,0,,0,0,,0,0,0,0,0,0,36.90425425,118.16634348,25.41,0.0,1.647,0.0,-0.5,-0.09,356.06,195251.5,0.0,0.0,1.646,-0.067,0.0,0.0,0.0,0.0,0.0,0.0,0.0,0.0,0.0,0.0,0.0,0.0,0.0,0.0,0.0,0.0,0.0,0.0,0.0,0.0,0
1704780832242897218,12087,0,,0,0,,0,0,0,0,0,0,36.90425573,118.16634338,25.41,0.0,1.651,0.0,-0.45,-0.1,356.22,195251.6,0.0,0.0,1.647,-0.108,0.0,0.0,0.0,0.0,0.0,0.0,0.0,0.0,0.0,0.0,0.0,0.0,0.0,0.0,0.0,0.0,0.0,0.0,0.0,0.0,0
1704780832342193967,12088,0,,0,0,,0,0,0,0,0,0,36.9042572,118.16634325,25.4,0.0,1.636,0.0,-0.43,-0.22,356.35,195251.7,0.0,0.0,1.634,-0.092,0.0,0.0,0.0,0.0,0.0,0.0,0.0,0.0,0.0,0.0,0.0,0.0,0.0,0.0,0.0,0.0,0.0,0.0,0.0,0.0,0
1704780832442040468,12089,0,,0,0,,0,0,0,0,0,0,36.90425868,118.16634316,25.4,0.0,1.654,0.0,-0.48,-0.18,356.61,195251.8,0.0,0.0,1.652,-0.073,0.0,0.0,0.0,0.0,0.0,0.0,0.0,0.0,0.0,0.0,0.0,0.0,0.0,0.0,0.0,0.0,0.0,0.0,0.0,0.0,0
1704780832542205418,12090,0,,0,0,,0,0,0,0,0,0,36.90426016,118.16634307,25.4,0.0,1.649,0.0,-0.59,-0.19,356.82,195251.9,0.0,0.0,1.647,-0.083,0.0,0.0,0.0,0.0,0.0,0.0,0.0,0.0,0.0,0.0,0.0,0.0,0.0,0.0,0.0,0.0,0.0,0.0,0.0,0.0,0
1704780832642429096,12091,0,,0,0,,0,0,0,0,0,0,36.90426164,118.16634297,25.4,0.0,1.644,0.0,-0.63,-0.28,357.09,195252.0,0.0,0.0,1.643,-0.072,0.0,0.0,0.0,0.0,0.0,0.0,0.0,0.0,0.0,0.0,0.0,0.0,0.0,0.0,0.0,0.0,0.0,0.0,0.0,0.0,0
1704780832742169494,12092,0,,0,0,,0,0,0,0,0,0,36.90426312,118.16634288,25.4,0.0,1.643,0.0,-0.66,-0.3,357.42,195252.1,0.0,0.0,1.642,-0.057,0.0,0.0,0.0,0.0,0.0,0.0,0.0,0.0,0.0,0.0,0.0,0.0,0.0,0.0,0.0,0.0,0.0,0.0,0.0,0.0,0
1704780832841835789,12093,0,,0,0,,0,0,0,0,0,0,36.90426461,118.16634282,25.4,0.0,1.647,0.0,-0.76,-0.33,357.72,195252.2,0.0,0.0,1.646,-0.045,0.0,0.0,0.0,0.0,0.0,0.0,0.0,0.0,0.0,0.0,0.0,0.0,0.0,0.0,0.0,0.0,0.0,0.0,0.0,0.0,0
1704780832942326505,12094,0,,0,0,,0,0,0,0,0,0,36.90426607,118.16634277,25.4,0.0,1.628,0.0,-0.79,-0.24,358.14,195252.3,0.0,0.0,1.628,-0.02,0.0,0.0,0.0,0.0,0.0,0.0,0.0,0.0,0.0,0.0,0.0,0.0,0.0,0.0,0.0,0.0,0.0,0.0,0.0,0.0,0
1704780833042335011,12095,0,,0,0,,0,0,0,0,0,0,36.90426754,118.16634274,25.4,0.0,1.641,0.0,-0.83,-0.21,358.6,195252.4,0.0,0.0,1.641,-0.023,0.0,0.0,0.0,0.0,0.0,0.0,0.0,0.0,0.0,0.0,0.0,0.0,0.0,0.0,0.0,0.0,0.0,0.0,0.0,0.0,0
1704780833142401558,12096,0,,0,0,,0,0,0,0,0,0,36.90426901,118.16634271,25.4,0.0,1.637,0.0,-0.8,-0.21,358.89,195252.5,0.0,0.0,1.637,-0.012,0.0,0.0,0.0,0.0,0.0,0.0,0.0,0.0,0.0,0.0,0.0,0.0,0.0,0.0,0.0,0.0,0.0,0.0,0.0,0.0,0
1704780833242587496,12097,0,,0,0,,0,0,0,0,0,0,36.90427049,118.1663427,25.39,0.0,1.627,0.0,-0.79,-0.22,359.14,195252.6,0.0,0.0,1.627,-0.007,0.0,0.0,0.0,0.0,0.0,0.0,0.0,0.0,0.0,0.0,0.0,0.0,0.0,0.0,0.0,0.0,0.0,0.0,0.0,0.0,0
1704780833341907795,12098,0,,0,0,,0,0,0,0,0,0,36.90427192,118.16634267,25.39,0.0,1.552,0.0,-0.81,-0.27,359.46,195252.7,0.0,0.0,1.552,-0.004,0.0,0.0,0.0,0.0,0.0,0.0,0.0,0.0,0.0,0.0,0.0,0.0,0.0,0.0,0.0,0.0,0.0,0.0,0.0,0.0,0
1704780833441975812,12099,0,,0,0,,0,0,0,0,0,0,36.90427324,118.16634267,25.39,0.0,1.394,0.0,-0.74,-0.31,359.67,195252.8,0.0,0.0,1.394,0.014,0.0,0.0,0.0,0.0,0.0,0.0,0.0,0.0,0.0,0.0,0.0,0.0,0.0,0.0,0.0,0.0,0.0,0.0,0.0,0.0,0
1704780833542075633,12100,0,,0,0,,0,0,0,0,0,0,36.90427446,118.16634267,25.39,0.0,1.328,0.0,-0.69,-0.29,359.87,195252.9,0.0,0.0,1.328,0.012,0.0,0.0,0.0,0.0,0.0,0.0,0.0,0.0,0.0,0.0,0.0,0.0,0.0,0.0,0.0,0.0,0.0,0.0,0.0,0.0,0
1704780833642324889,12101,0,,0,0,,0,0,0,0,0,0,36.90427564,118.16634267,25.39,0.0,1.31,0.0,-0.58,-0.4,359.97,195253.0,0.0,0.0,1.31,-0.005,0.0,0.0,0.0,0.0,0.0,0.0,0.0,0.0,0.0,0.0,0.0,0.0,0.0,0.0,0.0,0.0,0.0,0.0,0.0,0.0,0
1704780833741720860,12102,0,,0,0,,0,0,0,0,0,0,36.90427679,118.16634267,25.39,0.0,1.276,0.0,-0.59,-0.45,359.96,195253.1,0.0,0.0,1.276,0.03,0.0,0.0,0.0,0.0,0.0,0.0,0.0,0.0,0.0,0.0,0.0,0.0,0.0,0.0,0.0,0.0,0.0,0.0,0.0,0.0,0
1704780833841668068,12103,0,,0,0,,0,0,0,0,0,0,36.90427795,118.1663427,25.39,0.0,1.308,0.0,-0.49,-0.35,0.05,195253.2,0.0,0.0,1.308,0.026,0.0,0.0,0.0,0.0,0.0,0.0,0.0,0.0,0.0,0.0,0.0,0.0,0.0,0.0,0.0,0.0,0.0,0.0,0.0,0.0,0
1704780833941382573,12104,0,,0,0,,0,0,0,0,0,0,36.90427912,118.16634272,25.39,0.0,1.313,0.0,-0.6,-0.36,0.09,195253.3,0.0,0.0,1.313,0.014,0.0,0.0,0.0,0.0,0.0,0.0,0.0,0.0,0.0,0.0,0.0,0.0,0.0,0.0,0.0,0.0,0.0,0.0,0.0,0.0,0
1704780834041943774,12105,0,,0,0,,0,0,0,0,0,0,36.90428032,118.16634273,25.39,0.0,1.354,0.0,-0.56,-0.41,0.14,195253.4,0.0,0.0,1.354,0.016,0.0,0.0,0.0,0.0,0.0,0.0,0.0,0.0,0.0,0.0,0.0,0.0,0.0,0.0,0.0,0.0,0.0,0.0,0.0,0.0,0
1704780834141964937,12106,0,,0,0,,0,0,0,0,0,0,36.90428156,118.16634271,25.38,0.0,1.358,0.0,-0.71,-0.41,0.21,195253.5,0.0,0.0,1.357,0.024,0.0,0.0,0.0,0.0,0.0,0.0,0.0,0.0,0.0,0.0,0.0,0.0,0.0,0.0,0.0,0.0,0.0,0.0,0.0,0.0,0
1704780834241881884,12107,0,,0,0,,0,0,0,0,0,0,36.90428278,118.16634273,25.38,0.0,1.371,0.0,-0.6,-0.41,0.22,195253.6,0.0,0.0,1.371,0.025,0.0,0.0,0.0,0.0,0.0,0.0,0.0,0.0,0.0,0.0,0.0,0.0,0.0,0.0,0.0,0.0,0.0,0.0,0.0,0.0,0
1704780834341822356,12108,0,,0,0,,0,0,0,0,0,0,36.90428403,118.16634273,25.38,0.0,1.381,0.0,-0.59,-0.46,0.26,195253.7,0.0,0.0,1.381,0.014,0.0,0.0,0.0,0.0,0.0,0.0,0.0,0.0,0.0,0.0,0.0,0.0,0.0,0.0,0.0,0.0,0.0,0.0,0.0,0.0,0
1704780834441499053,12109,0,,0,0,,0,0,0,0,0,0,36.90428528,118.16634275,25.38,0.0,1.394,0.0,-0.64,-0.43,0.31,195253.8,0.0,0.0,1.393,0.038,0.0,0.0,0.0,0.0,0.0,0.0,0.0,0.0,0.0,0.0,0.0,0.0,0.0,0.0,0.0,0.0,0.0,0.0,0.0,0.0,0
1704780834541844160,12110,0,,0,0,,0,0,0,0,0,0,36.90428653,118.16634276,25.38,0.0,1.386,0.0,-0.67,-0.38,0.35,195253.9,0.0,0.0,1.385,0.025,0.0,0.0,0.0,0.0,0.0,0.0,0.0,0.0,0.0,0.0,0.0,0.0,0.0,0.0,0.0,0.0,0.0,0.0,0.0,0.0,0
1704780834643348281,12111,0,,0,0,,0,0,0,0,0,0,36.90428778,118.16634278,25.38,0.0,1.373,0.0,-0.74,-0.43,0.39,195254.0,0.0,0.0,1.373,0.016,0.0,0.0,0.0,0.0,0.0,0.0,0.0,0.0,0.0,0.0,0.0,0.0,0.0,0.0,0.0,0.0,0.0,0.0,0.0,0.0,0
1704780834741503161,12112,0,,0,0,,0,0,0,0,0,0,36.90428901,118.16634277,25.37,0.0,1.358,0.0,-0.67,-0.47,0.46,195254.1,0.0,0.0,1.357,0.021,0.0,0.0,0.0,0.0,0.0,0.0,0.0,0.0,0.0,0.0,0.0,0.0,0.0,0.0,0.0,0.0,0.0,0.0,0.0,0.0,0
1704780834841696706,12113,0,,0,0,,0,0,0,0,0,0,36.90429023,118.16634279,25.37,0.0,1.341,0.0,-0.57,-0.54,0.49,195254.2,0.0,0.0,1.34,0.021,0.0,0.0,0.0,0.0,0.0,0.0,0.0,0.0,0.0,0.0,0.0,0.0,0.0,0.0,0.0,0.0,0.0,0.0,0.0,0.0,0
1704780834941538877,12114,0,,0,0,,0,0,0,0,0,0,36.90429144,118.1663428,25.37,0.0,1.356,0.0,-0.55,-0.55,0.58,195254.3,0.0,0.0,1.356,0.037,0.0,0.0,0.0,0.0,0.0,0.0,0.0,0.0,0.0,0.0,0.0,0.0,0.0,0.0,0.0,0.0,0.0,0.0,0.0,0.0,0
1704780835042181510,12115,0,,0,0,,0,0,0,0,0,0,36.90429267,118.16634284,25.37,0.0,1.381,0.0,-0.53,-0.48,0.65,195254.4,0.0,0.0,1.38,0.04,0.0,0.0,0.0,0.0,0.0,0.0,0.0,0.0,0.0,0.0,0.0,0.0,0.0,0.0,0.0,0.0,0.0,0.0,0.0,0.0,0
1704780835141288340,12116,0,,0,0,,0,0,0,0,0,0,36.90429396,118.16634285,25.37,0.0,1.426,0.0,-0.54,-0.5,0.77,195254.5,0.0,0.0,1.426,0.021,0.0,0.0,0.0,0.0,0.0,0.0,0.0,0.0,0.0,0.0,0.0,0.0,0.0,0.0,0.0,0.0,0.0,0.0,0.0,0.0,0
1704780835241432789,12117,0,,0,0,,0,0,0,0,0,0,36.90429526,118.16634288,25.37,0.0,1.469,0.0,-0.47,-0.52,0.92,195254.6,0.0,0.0,1.469,0.04,0.0,0.0,0.0,0.0,0.0,0.0,0.0,0.0,0.0,0.0,0.0,0.0,0.0,0.0,0.0,0.0,0.0,0.0,0.0,0.0,0
1704780835341511501,12118,0,,0,0,,0,0,0,0,0,0,36.90429658,118.16634291,25.36,0.0,1.461,0.0,-0.56,-0.51,1.03,195254.7,0.0,0.0,1.461,0.037,0.0,0.0,0.0,0.0,0.0,0.0,0.0,0.0,0.0,0.0,0.0,0.0,0.0,0.0,0.0,0.0,0.0,0.0,0.0,0.0,0
1704780835441792841,12119,0,,0,0,,0,0,0,0,0,0,36.90429788,118.16634295,25.36,0.0,1.449,0.0,-0.47,-0.57,1.15,195254.8,0.0,0.0,1.449,0.03,0.0,0.0,0.0,0.0,0.0,0.0,0.0,0.0,0.0,0.0,0.0,0.0,0.0,0.0,0.0,0.0,0.0,0.0,0.0,0.0,0
1704780835540997660,12120,0,,0,0,,0,0,0,0,0,0,36.90429919,118.16634298,25.36,0.0,1.422,0.0,-0.57,-0.55,1.27,195254.9,0.0,0.0,1.421,0.053,0.0,0.0,0.0,0.0,0.0,0.0,0.0,0.0,0.0,0.0,0.0,0.0,0.0,0.0,0.0,0.0,0.0,0.0,0.0,0.0,0
1704780835641243305,12121,0,,0,0,,0,0,0,0,0,0,36.90430048,118.16634304,25.36,0.0,1.453,0.0,-0.48,-0.55,1.36,195255.0,0.0,0.0,1.452,0.042,0.0,0.0,0.0,0.0,0.0,0.0,0.0,0.0,0.0,0.0,0.0,0.0,0.0,0.0,0.0,0.0,0.0,0.0,0.0,0.0,0
1704780835741326640,12122,0,,0,0,,0,0,0,0,0,0,36.90430178,118.16634307,25.36,0.0,1.447,0.0,-0.43,-0.63,1.48,195255.1,0.0,0.0,1.446,0.034,0.0,0.0,0.0,0.0,0.0,0.0,0.0,0.0,0.0,0.0,0.0,0.0,0.0,0.0,0.0,0.0,0.0,0.0,0.0,0.0,0
1704780835841337521,12123,0,,0,0,,0,0,0,0,0,0,36.90430309,118.16634311,25.36,0.0,1.448,0.0,-0.36,-0.68,1.6,195255.2,0.0,0.0,1.447,0.054,0.0,0.0,0.0,0.0,0.0,0.0,0.0,0.0,0.0,0.0,0.0,0.0,0.0,0.0,0.0,0.0,0.0,0.0,0.0,0.0,0
1704780835941279638,12124,0,,0,0,,0,0,0,0,0,0,36.90430438,118.16634316,25.35,0.0,1.412,0.0,-0.37,-0.69,1.68,195255.3,0.0,0.0,1.411,0.057,0.0,0.0,0.0,0.0,0.0,0.0,0.0,0.0,0.0,0.0,0.0,0.0,0.0,0.0,0.0,0.0,0.0,0.0,0.0,0.0,0
1704780836041767076,12125,0,,0,0,,0,0,0,0,0,0,36.90430565,118.16634322,25.35,0.0,1.389,0.0,-0.52,-0.68,1.77,195255.4,0.0,0.0,1.388,0.052,0.0,0.0,0.0,0.0,0.0,0.0,0.0,0.0,0.0,0.0,0.0,0.0,0.0,0.0,0.0,0.0,0.0,0.0,0.0,0.0,0
1704780836141164963,12126,0,,0,0,,0,0,0,0,0,0,36.90430687,118.16634328,25.35,0.0,1.344,0.0,-0.47,-0.69,1.84,195255.5,0.0,0.0,1.343,0.058,0.0,0.0,0.0,0.0,0.0,0.0,0.0,0.0,0.0,0.0,0.0,0.0,0.0,0.0,0.0,0.0,0.0,0.0,0.0,0.0,0
1704780836240659573,12127,0,,0,0,,0,0,0,0,0,0,36.90430809,118.16634334,25.35,0.0,1.351,0.0,-0.47,-0.68,1.9,195255.6,0.0,0.0,1.35,0.061,0.0,0.0,0.0,0.0,0.0,0.0,0.0,0.0,0.0,0.0,0.0,0.0,0.0,0.0,0.0,0.0,0.0,0.0,0.0,0.0,0
1704780836341546448,12128,0,,0,0,,0,0,0,0,0,0,36.90430931,118.16634341,25.35,0.0,1.369,0.0,-0.53,-0.67,1.94,195255.7,0.0,0.0,1.368,0.06,0.0,0.0,0.0,0.0,0.0,0.0,0.0,0.0,0.0,0.0,0.0,0.0,0.0,0.0,0.0,0.0,0.0,0.0,0.0,0.0,0
1704780836441481345,12129,0,,0,0,,0,0,0,0,0,0,36.90431055,118.16634347,25.35,0.0,1.367,0.0,-0.59,-0.72,1.99,195255.8,0.0,0.0,1.366,0.053,0.0,0.0,0.0,0.0,0.0,0.0,0.0,0.0,0.0,0.0,0.0,0.0,0.0,0.0,0.0,0.0,0.0,0.0,0.0,0.0,0
1704780836540267300,12130,0,,0,0,,0,0,0,0,0,0,36.90431179,118.16634353,25.35,0.0,1.37,0.0,-0.54,-0.69,2.02,195255.9,0.0,0.0,1.368,0.075,0.0,0.0,0.0,0.0,0.0,0.0,0.0,0.0,0.0,0.0,0.0,0.0,0.0,0.0,0.0,0.0,0.0,0.0,0.0,0.0,0
1704780836640849369,12131,0,,0,0,,0,0,0,0,0,0,36.90431302,118.16634361,25.35,0.0,1.364,0.0,-0.53,-0.64,2.08,195256.0,0.0,0.0,1.362,0.062,0.0,0.0,0.0,0.0,0.0,0.0,0.0,0.0,0.0,0.0,0.0,0.0,0.0,0.0,0.0,0.0,0.0,0.0,0.0,0.0,0
1704780836740876672,12132,0,,0,0,,0,0,0,0,0,0,36.90431424,118.16634367,25.35,0.0,1.358,0.0,-0.54,-0.71,2.14,195256.1,0.0,0.0,1.357,0.047,0.0,0.0,0.0,0.0,0.0,0.0,0.0,0.0,0.0,0.0,0.0,0.0,0.0,0.0,0.0,0.0,0.0,0.0,0.0,0.0,0
1704780836841093107,12133,0,,0,0,,0,0,0,0,0,0,36.90431546,118.16634372,25.34,0.0,1.356,0.0,-0.52,-0.82,2.19,195256.2,0.0,0.0,1.355,0.056,0.0,0.0,0.0,0.0,0.0,0.0,0.0,0.0,0.0,0.0,0.0,0.0,0.0,0.0,0.0,0.0,0.0,0.0,0.0,0.0,0
1704780836941493367,12134,0,,0,0,,0,0,0,0,0,0,36.90431669,118.1663438,25.34,0.0,1.333,0.0,-0.51,-0.75,2.22,195256.3,0.0,0.0,1.331,0.085,0.0,0.0,0.0,0.0,0.0,0.0,0.0,0.0,0.0,0.0,0.0,0.0,0.0,0.0,0.0,0.0,0.0,0.0,0.0,0.0,0
1704780837041188428,12135,0,,0,0,,0,0,0,0,0,0,36.90431789,118.16634388,25.34,0.0,1.34,0.0,-0.39,-0.72,2.29,195256.4,0.0,0.0,1.339,0.051,0.0,0.0,0.0,0.0,0.0,0.0,0.0,0.0,0.0,0.0,0.0,0.0,0.0,0.0,0.0,0.0,0.0,0.0,0.0,0.0,0
1704780837140336095,12136,0,,0,0,,0,0,0,0,0,0,36.9043191,118.16634394,25.34,0.0,1.339,0.0,-0.42,-0.77,2.32,195256.5,0.0,0.0,1.337,0.072,0.0,0.0,0.0,0.0,0.0,0.0,0.0,0.0,0.0,0.0,0.0,0.0,0.0,0.0,0.0,0.0,0.0,0.0,0.0,0.0,0
1704780837240903064,12137,0,,0,0,,0,0,0,0,0,0,36.90432031,118.16634404,25.34,0.0,1.369,0.0,-0.4,-0.66,2.37,195256.6,0.0,0.0,1.366,0.09,0.0,0.0,0.0,0.0,0.0,0.0,0.0,0.0,0.0,0.0,0.0,0.0,0.0,0.0,0.0,0.0,0.0,0.0,0.0,0.0,0
1704780837340893116,12138,0,,0,0,,0,0,0,0,0,0,36.90432157,118.16634412,25.34,0.0,1.398,0.0,-0.35,-0.63,2.44,195256.7,0.0,0.0,1.397,0.063,0.0,0.0,0.0,0.0,0.0,0.0,0.0,0.0,0.0,0.0,0.0,0.0,0.0,0.0,0.0,0.0,0.0,0.0,0.0,0.0,0
1704780837441104538,12139,0,,0,0,,0,0,0,0,0,0,36.90432286,118.16634419,25.34,0.0,1.458,0.0,-0.31,-0.69,2.48,195256.8,0.0,0.0,1.456,0.08,0.0,0.0,0.0,0.0,0.0,0.0,0.0,0.0,0.0,0.0,0.0,0.0,0.0,0.0,0.0,0.0,0.0,0.0,0.0,0.0,0
1704780837540339820,12140,0,,0,0,,0,0,0,0,0,0,36.90432421,118.1663443,25.33,0.0,1.5,0.0,-0.25,-0.55,2.53,195256.9,0.0,0.0,1.496,0.112,0.0,0.0,0.0,0.0,0.0,0.0,0.0,0.0,0.0,0.0,0.0,0.0,0.0,0.0,0.0,0.0,0.0,0.0,0.0,0.0,0
1704780837640380771,12141,0,,0,0,,0,0,0,0,0,0,36.90432559,118.1663444,25.33,0.0,1.57,0.0,-0.32,-0.44,2.6,195257.0,0.0,0.0,1.567,0.086,0.0,0.0,0.0,0.0,0.0,0.0,0.0,0.0,0.0,0.0,0.0,0.0,0.0,0.0,0.0,0.0,0.0,0.0,0.0,0.0,0
1704780837740708379,12142,0,,0,0,,0,0,0,0,0,0,36.90432703,118.1663445,25.33,0.0,1.587,0.0,-0.17,-0.47,2.66,195257.1,0.0,0.0,1.585,0.083,0.0,0.0,0.0,0.0,0.0,0.0,0.0,0.0,0.0,0.0,0.0,0.0,0.0,0.0,0.0,0.0,0.0,0.0,0.0,0.0,0
1704780837841035934,12143,0,,0,0,,0,0,0,0,0,0,36.90432848,118.1663446,25.33,0.0,1.629,0.0,-0.09,-0.43,2.75,195257.2,0.0,0.0,1.626,0.101,0.0,0.0,0.0,0.0,0.0,0.0,0.0,0.0,0.0,0.0,0.0,0.0,0.0,0.0,0.0,0.0,0.0,0.0,0.0,0.0,0
1704780837939985676,12144,0,,0,0,,0,0,0,0,0,0,36.90432996,118.1663447,25.33,0.0,1.631,0.0,0.08,-0.45,2.85,195257.3,0.0,0.0,1.629,0.08,0.0,0.0,0.0,0.0,0.0,0.0,0.0,0.0,0.0,0.0,0.0,0.0,0.0,0.0,0.0,0.0,0.0,0.0,0.0,0.0,0
1704780838040120638,12145,0,,0,0,,0,0,0,0,0,0,36.90433144,118.1663448,25.33,0.0,1.65,0.0,0.17,-0.5,2.88,195257.4,0.0,0.0,1.647,0.101,0.0,0.0,0.0,0.0,0.0,0.0,0.0,0.0,0.0,0.0,0.0,0.0,0.0,0.0,0.0,0.0,0.0,0.0,0.0,0.0,0
1704780838140388302,12146,0,,0,0,,0,0,0,0,0,0,36.90433294,118.16634494,25.33,0.0,1.643,0.0,0.21,-0.34,2.94,195257.5,0.0,0.0,1.638,0.131,0.0,0.0,0.0,0.0,0.0,0.0,0.0,0.0,0.0,0.0,0.0,0.0,0.0,0.0,0.0,0.0,0.0,0.0,0.0,0.0,0
1704780838240068061,12147,0,,0,0,,0,0,0,0,0,0,36.90433441,118.16634506,25.33,0.0,1.633,0.0,0.22,-0.22,3.0,195257.6,0.0,0.0,1.63,0.101,0.0,0.0,0.0,0.0,0.0,0.0,0.0,0.0,0.0,0.0,0.0,0.0,0.0,0.0,0.0,0.0,0.0,0.0,0.0,0.0,0
1704780838341101251,12148,0,,0,0,,0,0,0,0,0,0,36.90433589,118.16634518,25.33,0.0,1.626,0.0,0.37,-0.18,3.07,195257.7,0.0,0.0,1.622,0.111,0.0,0.0,0.0,0.0,0.0,0.0,0.0,0.0,0.0,0.0,0.0,0.0,0.0,0.0,0.0,0.0,0.0,0.0,0.0,0.0,0
1704780838440830799,12149,0,,0,0,,0,0,0,0,0,0,36.90433736,118.16634531,25.33,0.0,1.633,0.0,0.26,-0.06,3.12,195257.8,0.0,0.0,1.629,0.122,0.0,0.0,0.0,0.0,0.0,0.0,0.0,0.0,0.0,0.0,0.0,0.0,0.0,0.0,0.0,0.0,0.0,0.0,0.0,0.0,0
1704780838539676492,12150,0,,0,0,,0,0,0,0,0,0,36.90433883,118.16634543,25.33,0.0,1.634,0.0,0.26,-0.05,3.22,195257.9,0.0,0.0,1.631,0.09,0.0,0.0,0.0,0.0,0.0,0.0,0.0,0.0,0.0,0.0,0.0,0.0,0.0,0.0,0.0,0.0,0.0,0.0,0.0,0.0,0
1704780838640237164,12151,0,,0,0,,0,0,0,0,0,0,36.90434031,118.16634553,25.33,0.0,1.644,0.0,0.16,-0.13,3.31,195258.0,0.0,0.0,1.641,0.102,0.0,0.0,0.0,0.0,0.0,0.0,0.0,0.0,0.0,0.0,0.0,0.0,0.0,0.0,0.0,0.0,0.0,0.0,0.0,0.0,0
1704780838740060887,12152,0,,0,0,,0,0,0,0,0,0,36.90434181,118.16634567,25.33,0.0,1.632,0.0,0.13,-0.06,3.38,195258.1,0.0,0.0,1.627,0.133,0.0,0.0,0.0,0.0,0.0,0.0,0.0,0.0,0.0,0.0,0.0,0.0,0.0,0.0,0.0,0.0,0.0,0.0,0.0,0.0,0
1704780838840493214,12153,0,,0,0,,0,0,0,0,0,0,36.90434328,118.1663458,25.34,0.0,1.65,0.0,-0.04,-0.03,3.45,195258.2,0.0,0.0,1.646,0.105,0.0,0.0,0.0,0.0,0.0,0.0,0.0,0.0,0.0,0.0,0.0,0.0,0.0,0.0,0.0,0.0,0.0,0.0,0.0,0.0,0
1704780838939835238,12154,0,,0,0,,0,0,0,0,0,0,36.90434476,118.16634592,25.34,0.0,1.597,0.0,-0.02,-0.08,3.5,195258.3,0.0,0.0,1.593,0.113,0.0,0.0,0.0,0.0,0.0,0.0,0.0,0.0,0.0,0.0,0.0,0.0,0.0,0.0,0.0,0.0,0.0,0.0,0.0,0.0,0
1704780839039743116,12155,0,,0,0,,0,0,0,0,0,0,36.9043462,118.16634605,25.34,0.0,1.615,0.0,0.04,0.01,3.53,195258.4,0.0,0.0,1.609,0.134,0.0,0.0,0.0,0.0,0.0,0.0,0.0,0.0,0.0,0.0,0.0,0.0,0.0,0.0,0.0,0.0,0.0,0.0,0.0,0.0,0
1704780839139940961,12156,0,,0,0,,0,0,0,0,0,0,36.90434765,118.1663462,25.34,0.0,1.578,0.0,0.21,0.08,3.57,195258.5,0.0,0.0,1.574,0.11,0.0,0.0,0.0,0.0,0.0,0.0,0.0,0.0,0.0,0.0,0.0,0.0,0.0,0.0,0.0,0.0,0.0,0.0,0.0,0.0,0
1704780839240052930,12157,0,,0,0,,0,0,0,0,0,0,36.90434908,118.16634631,25.34,0.0,1.597,0.0,0.36,0.01,3.64,195258.6,0.0,0.0,1.594,0.104,0.0,0.0,0.0,0.0,0.0,0.0,0.0,0.0,0.0,0.0,0.0,0.0,0.0,0.0,0.0,0.0,0.0,0.0,0.0,0.0,0
1704780839340275188,12158,0,,0,0,,0,0,0,0,0,0,36.90435053,118.16634644,25.34,0.0,1.582,0.0,0.57,0.03,3.65,195258.7,0.0,0.0,1.576,0.133,0.0,0.0,0.0,0.0,0.0,0.0,0.0,0.0,0.0,0.0,0.0,0.0,0.0,0.0,0.0,0.0,0.0,0.0,0.0,0.0,0
1704780839440587351,12159,0,,0,0,,0,0,0,0,0,0,36.90435195,118.16634658,25.33,0.0,1.599,0.0,0.76,0.05,3.7,195258.8,0.0,0.0,1.595,0.108,0.0,0.0,0.0,0.0,0.0,0.0,0.0,0.0,0.0,0.0,0.0,0.0,0.0,0.0,0.0,0.0,0.0,0.0,0.0,0.0,0
1704780839539362998,12160,0,,0,0,,0,0,0,0,0,0,36.90435342,118.16634669,25.34,0.0,1.603,0.0,0.72,-0.12,3.77,195258.9,0.0,0.0,1.601,0.085,0.0,0.0,0.0,0.0,0.0,0.0,0.0,0.0,0.0,0.0,0.0,0.0,0.0,0.0,0.0,0.0,0.0,0.0,0.0,0.0,0
1704780839639848654,12161,0,,0,0,,0,0,0,0,0,0,36.90435487,118.1663468,25.34,0.0,1.63,0.0,0.7,-0.25,3.79,195259.0,0.0,0.0,1.625,0.124,0.0,0.0,0.0,0.0,0.0,0.0,0.0,0.0,0.0,0.0,0.0,0.0,0.0,0.0,0.0,0.0,0.0,0.0,0.0,0.0,0
1704780839739906487,12162,0,,0,0,,0,0,0,0,0,0,36.90435636,118.16634695,25.34,0.0,1.644,0.0,0.39,-0.25,3.8,195259.1,0.0,0.0,1.639,0.123,0.0,0.0,0.0,0.0,0.0,0.0,0.0,0.0,0.0,0.0,0.0,0.0,0.0,0.0,0.0,0.0,0.0,0.0,0.0,0.0,0
1704780839840185669,12163,0,,0,0,,0,0,0,0,0,0,36.90435784,118.16634707,25.34,0.0,1.639,0.0,0.2,-0.33,3.83,195259.2,0.0,0.0,1.635,0.104,0.0,0.0,0.0,0.0,0.0,0.0,0.0,0.0,0.0,0.0,0.0,0.0,0.0,0.0,0.0,0.0,0.0,0.0,0.0,0.0,0
1704780839939264178,12164,0,,0,0,,0,0,0,0,0,0,36.90435932,118.16634722,25.34,0.0,1.635,0.0,0.05,-0.29,3.84,195259.3,0.0,0.0,1.629,0.139,0.0,0.0,0.0,0.0,0.0,0.0,0.0,0.0,0.0,0.0,0.0,0.0,0.0,0.0,0.0,0.0,0.0,0.0,0.0,0.0,0
1704780840039621876,12165,0,,0,0,,0,0,0,0,0,0,36.90436078,118.16634737,25.35,0.0,1.612,0.0,-0.03,-0.21,3.86,195259.4,0.0,0.0,1.607,0.128,0.0,0.0,0.0,0.0,0.0,0.0,0.0,0.0,0.0,0.0,0.0,0.0,0.0,0.0,0.0,0.0,0.0,0.0,0.0,0.0,0
1704780840139724680,12166,0,,0,0,,0,0,0,0,0,0,36.90436226,118.1663475,25.35,0.0,1.59,0.0,0.07,-0.23,3.96,195259.5,0.0,0.0,1.587,0.103,0.0,0.0,0.0,0.0,0.0,0.0,0.0,0.0,0.0,0.0,0.0,0.0,0.0,0.0,0.0,0.0,0.0,0.0,0.0,0.0,0
1704780840239978798,12167,0,,0,0,,0,0,0,0,0,0,36.90436369,118.16634761,25.35,0.0,1.631,0.0,0.33,-0.4,4.03,195259.6,0.0,0.0,1.627,0.117,0.0,0.0,0.0,0.0,0.0,0.0,0.0,0.0,0.0,0.0,0.0,0.0,0.0,0.0,0.0,0.0,0.0,0.0,0.0,0.0,0
1704780840340032991,12168,0,,0,0,,0,0,0,0,0,0,36.90436519,118.16634776,25.34,0.0,1.607,0.0,0.28,-0.35,4.08,195259.7,0.0,0.0,1.599,0.164,0.0,0.0,0.0,0.0,0.0,0.0,0.0,0.0,0.0,0.0,0.0,0.0,0.0,0.0,0.0,0.0,0.0,0.0,0.0,0.0,0
1704780840440157744,12169,0,,0,0,,0,0,0,0,0,0,36.90436665,118.16634791,25.34,0.0,1.645,0.0,0.29,-0.36,4.19,195259.8,0.0,0.0,1.641,0.115,0.0,0.0,0.0,0.0,0.0,0.0,0.0,0.0,0.0,0.0,0.0,0.0,0.0,0.0,0.0,0.0,0.0,0.0,0.0,0.0,0
1704780840539430449,12170,0,,0,0,,0,0,0,0,0,0,36.90436814,118.16634804,25.35,0.0,1.623,0.0,0.3,-0.49,4.25,195259.9,0.0,0.0,1.619,0.125,0.0,0.0,0.0,0.0,0.0,0.0,0.0,0.0,0.0,0.0,0.0,0.0,0.0,0.0,0.0,0.0,0.0,0.0,0.0,0.0,0
1704780840639615837,12171,0,,0,0,,0,0,0,0,0,0,36.90436961,118.1663482,25.35,0.0,1.656,0.0,0.06,-0.44,4.29,195260.0,0.0,0.0,1.648,0.164,0.0,0.0,0.0,0.0,0.0,0.0,0.0,0.0,0.0,0.0,0.0,0.0,0.0,0.0,0.0,0.0,0.0,0.0,0.0,0.0,0
1704780840739645286,12172,0,,0,0,,0,0,0,0,0,0,36.90437114,118.16634837,25.35,0.0,1.65,0.0,-0.3,-0.41,4.34,195260.1,0.0,0.0,1.645,0.125,0.0,0.0,0.0,0.0,0.0,0.0,0.0,0.0,0.0,0.0,0.0,0.0,0.0,0.0,0.0,0.0,0.0,0.0,0.0,0.0,0
1704780840839922858,12173,0,,0,0,,0,0,0,0,0,0,36.90437259,118.16634851,25.35,0.0,1.611,0.0,-0.06,-0.48,4.38,195260.2,0.0,0.0,1.605,0.134,0.0,0.0,0.0,0.0,0.0,0.0,0.0,0.0,0.0,0.0,0.0,0.0,0.0,0.0,0.0,0.0,0.0,0.0,0.0,0.0,0
