%time,field.header.seq,field.header.stamp,field.header.frame_id,field.orientation.x,field.orientation.y,field.orientation.z,field.orientation.w,field.orientation_covariance0,field.orientation_covariance1,field.orientation_covariance2,field.orientation_covariance3,field.orientation_covariance4,field.orientation_covariance5,field.orientation_covariance6,field.orientation_covariance7,field.orientation_covariance8,field.angular_velocity.x,field.angular_velocity.y,field.angular_velocity.z,field.angular_velocity_covariance0,field.angular_velocity_covariance1,field.angular_velocity_covariance2,field.angular_velocity_covariance3,field.angular_velocity_covariance4,field.angular_velocity_covariance5,field.angular_velocity_covariance6,field.angular_velocity_covariance7,field.angular_velocity_covariance8,field.linear_acceleration.x,field.linear_acceleration.y,field.linear_acceleration.z,field.linear_acceleration_covariance0,field.linear_acceleration_covariance1,field.linear_acceleration_covariance2,field.linear_acceleration_covariance3,field.linear_acceleration_covariance4,field.linear_acceleration_covariance5,field.linear_acceleration_covariance6,field.linear_acceleration_covariance7,field.linear_acceleration_covariance8
1704780814147479355,11906,1704780814147235139,imu_link,0.004711151202519518,-0.00013825247629465528,-0.999930341469292,-0.010821189846998541,0.0,0.0,0.0,0.0,0.0,0.0,0.0,0.0,0.0,-0.0,-0.00034906585039886593,0.0,0.0,0.0,0.0,0.0,0.0,0.0,0.0,0.0,0.0,-0.09120184499999999,-0.00392266,9.825282634999999,0.0,0.0,0.0,0.0,0.0,0.0,0.0,0.0,0.0
1704780814247239126,11907,1704780814246827512,imu_link,0.004711151202519518,-0.00013825247629465528,-0.999930341469292,-0.010821189846998541,0.0,0.0,0.0,0.0,0.0,0.0,0.0,0.0,0.0,0.00017453292519943296,-0.00034906585039886593,0.00017453292519943296,0.0,0.0,0.0,0.0,0.0,0.0,0.0,0.0,0.0,-0.08825984999999999,0.00392266,9.823321305,0.0,0.0,0.0,0.0,0.0,0.0,0.0,0.0,0.0
1704780814347791692,11908,1704780814347624745,imu_link,0.004711151202519518,-0.00013825247629465528,-0.999930341469292,-0.010821189846998541,0.0,0.0,0.0,0.0,0.0,0.0,0.0,0.0,0.0,0.00017453292519943296,0.0,-0.00034906585039886593,0.0,0.0,0.0,0.0,0.0,0.0,0.0,0.0,0.0,-0.09022118,-0.000980665,9.82430197,0.0,0.0,0.0,0.0,0.0,0.0,0.0,0.0,0.0
1704780814447619973,11909,1704780814447283180,imu_link,0.004711151202519518,-0.00013825247629465528,-0.999930341469292,-0.010821189846998541,0.0,0.0,0.0,0.0,0.0,0.0,0.0,0.0,0.0,0.00034906585039886593,0.00017453292519943296,0.0,0.0,0.0,0.0,0.0,0.0,0.0,0.0,0.0,0.0,-0.087279185,0.000980665,9.82430197,0.0,0.0,0.0,0.0,0.0,0.0,0.0,0.0,0.0
1704780814548295481,11910,1704780814548026717,imu_link,0.004711151202519518,-0.00013825247629465528,-0.999930341469292,-0.010821189846998541,0.0,0.0,0.0,0.0,0.0,0.0,0.0,0.0,0.0,0.00034906585039886593,0.00017453292519943296,0.0005235987755982988,0.0,0.0,0.0,0.0,0.0,0.0,0.0,0.0,0.0,-0.09022118,0.00196133,9.826263299999999,0.0,0.0,0.0,0.0,0.0,0.0,0.0,0.0,0.0
1704780814647729642,11911,1704780814647524994,imu_link,0.004711151202519518,-0.00013825247629465528,-0.999930341469292,-0.010821189846998541,0.0,0.0,0.0,0.0,0.0,0.0,0.0,0.0,0.0,0.00017453292519943296,0.00017453292519943296,0.0,0.0,0.0,0.0,0.0,0.0,0.0,0.0,0.0,0.0,-0.08825984999999999,0.0,9.82430197,0.0,0.0,0.0,0.0,0.0,0.0,0.0,0.0,0.0
1704780814747692255,11912,1704780814747356360,imu_link,0.004711151202519518,-0.00013825247629465528,-0.999930341469292,-0.010821189846998541,0.0,0.0,0.0,0.0,0.0,0.0,0.0,0.0,0.0,0.0005235987755982988,-0.00017453292519943296,0.00017453292519943296,0.0,0.0,0.0,0.0,0.0,0.0,0.0,0.0,0.0,-0.08825984999999999,0.00196133,9.826263299999999,0.0,0.0,0.0,0.0,0.0,0.0,0.0,0.0,0.0
1704780814846920628,11913,1704780814846741326,imu_link,0.004711151202519518,-0.00013825247629465528,-0.999930341469292,-0.010821189846998541,0.0,0.0,0.0,0.0,0.0,0.0,0.0,0.0,0.0,-0.0005235987755982988,0.00017453292519943296,0.00017453292519943296,0.0,0.0,0.0,0.0,0.0,0.0,0.0,0.0,0.0,-0.08825984999999999,0.000980665,9.823321305,0.0,0.0,0.0,0.0,0.0,0.0,0.0,0.0,0.0
1704780814948188066,11914,1704780814947771021,imu_link,0.004711151202519518,-0.00013825247629465528,-0.999930341469292,-0.010821189846998541,0.0,0.0,0.0,0.0,0.0,0.0,0.0,0.0,0.0,0.0,0.00017453292519943296,0.00017453292519943296,0.0,0.0,0.0,0.0,0.0,0.0,0.0,0.0,0.0,-0.08924051499999999,0.0,9.825282634999999,0.0,0.0,0.0,0.0,0.0,0.0,0.0,0.0,0.0
1704780815047481865,11915,1704780815047191013,imu_link,0.004711151202519518,-0.00013825247629465528,-0.999930341469292,-0.010821189846998541,0.0,0.0,0.0,0.0,0.0,0.0,0.0,0.0,0.0,0.0006981317007977319,-0.00034906585039886593,-0.00017453292519943296,0.0,0.0,0.0,0.0,0.0,0.0,0.0,0.0,0.0,-0.09022118,-0.0,9.823321305,0.0,0.0,0.0,0.0,0.0,0.0,0.0,0.0,0.0
1704780815147157911,11916,1704780815146987809,imu_link,0.004623890940533397,-0.00013730822209858092,-0.9999307489514999,-0.010821186640794522,0.0,0.0,0.0,0.0,0.0,0.0,0.0,0.0,0.0,0.0005235987755982988,-0.00017453292519943296,-0.00034906585039886593,0.0,0.0,0.0,0.0,0.0,0.0,0.0,0.0,0.0,-0.08924051499999999,0.000980665,9.826263299999999,0.0,0.0,0.0,0.0,0.0,0.0,0.0,0.0,0.0
1704780815246765346,11917,1704780815246556523,imu_link,0.004622946596271913,-0.00022456863863963623,-0.9999307331616434,-0.01082159011018596,0.0,0.0,0.0,0.0,0.0,0.0,0.0,0.0,0.0,-0.0,0.00034906585039886593,0.00034906585039886593,0.0,0.0,0.0,0.0,0.0,0.0,0.0,0.0,0.0,-0.08825984999999999,0.000980665,9.82234064,0.0,0.0,0.0,0.0,0.0,0.0,0.0,0.0,0.0
1704780815347560914,11918,1704780815347292905,imu_link,0.004622946596271913,-0.00022456863863963623,-0.9999307331616434,-0.01082159011018596,0.0,0.0,0.0,0.0,0.0,0.0,0.0,0.0,0.0,0.00017453292519943296,-0.0,-0.00017453292519943296,0.0,0.0,0.0,0.0,0.0,0.0,0.0,0.0,0.0,-0.08924051499999999,-0.000980665,9.823321305,0.0,0.0,0.0,0.0,0.0,0.0,0.0,0.0,0.0
1704780815447193382,11919,1704780815446882488,imu_link,0.004622946596271913,-0.00022456863863963623,-0.9999307331616434,-0.01082159011018596,0.0,0.0,0.0,0.0,0.0,0.0,0.0,0.0,0.0,0.00017453292519943296,-0.00034906585039886593,-0.0006981317007977319,0.0,0.0,0.0,0.0,0.0,0.0,0.0,0.0,0.0,-0.08924051499999999,0.00196133,9.825282634999999,0.0,0.0,0.0,0.0,0.0,0.0,0.0,0.0,0.0
1704780815547964142,11920,1704780815547758962,imu_link,0.004622946596271913,-0.00022456863863963623,-0.9999307331616434,-0.01082159011018596,0.0,0.0,0.0,0.0,0.0,0.0,0.0,0.0,0.0,0.00017453292519943296,0.0,0.0005235987755982988,0.0,0.0,0.0,0.0,0.0,0.0,0.0,0.0,0.0,-0.08825984999999999,-0.0029419949999999998,9.826263299999999,0.0,0.0,0.0,0.0,0.0,0.0,0.0,0.0,0.0
1704780815647766678,11921,1704780815647304672,imu_link,0.0047102068576459774,-0.0002255128572725852,-0.9999303255970354,-0.01082160093128416,0.0,0.0,0.0,0.0,0.0,0.0,0.0,0.0,0.0,-0.00034906585039886593,-0.0,-0.00017453292519943296,0.0,0.0,0.0,0.0,0.0,0.0,0.0,0.0,0.0,-0.08825984999999999,0.00392266,9.82430197,0.0,0.0,0.0,0.0,0.0,0.0,0.0,0.0,0.0
1704780815747147563,11922,1704780815746906129,imu_link,0.004623890940533397,-0.00013730822209858092,-0.9999307489514999,-0.010821186640794522,0.0,0.0,0.0,0.0,0.0,0.0,0.0,0.0,0.0,-0.00017453292519943296,0.0,0.0005235987755982988,0.0,0.0,0.0,0.0,0.0,0.0,0.0,0.0,0.0,-0.08924051499999999,-0.000980665,9.825282634999999,0.0,0.0,0.0,0.0,0.0,0.0,0.0,0.0,0.0
1704780815846539308,11923,1704780815846319776,imu_link,0.00462391483347633,-0.0001365012474677772,-0.9999326222629732,-0.01064667616284101,0.0,0.0,0.0,0.0,0.0,0.0,0.0,0.0,0.0,-0.002967059728390361,-0.0005235987755982988,0.003490658503988659,0.0,0.0,0.0,0.0,0.0,0.0,0.0,0.0,0.0,-0.08237586,-0.057859234999999995,9.823321305,0.0,0.0,0.0,0.0,0.0,0.0,0.0,0.0,0.0
1704780815947522965,11924,1704780815947293761,imu_link,0.00462391483347633,-0.0001365012474677772,-0.9999326222629732,-0.01064667616284101,0.0,0.0,0.0,0.0,0.0,0.0,0.0,0.0,0.0,-0.00017453292519943296,0.0006981317007977319,-0.0031415926535897933,0.0,0.0,0.0,0.0,0.0,0.0,0.0,0.0,0.0,-0.09904716499999999,-0.024516625,9.82822463,0.0,0.0,0.0,0.0,0.0,0.0,0.0,0.0,0.0
1704780816047840500,11925,1704780816047495896,imu_link,0.004536630643334446,-0.000136363966856848,-0.999931148818824,-0.010821183352182717,0.0,0.0,0.0,0.0,0.0,0.0,0.0,0.0,0.0,-0.0017453292519943296,-0.005585053606381855,-0.0013962634015954637,0.0,0.0,0.0,0.0,0.0,0.0,0.0,0.0,0.0,0.122583125,0.037265269999999996,9.86352857,0.0,0.0,0.0,0.0,0.0,0.0,0.0,0.0,0.0
1704780816146517432,11926,1704780816146300176,imu_link,0.004275785250283853,-4.701685774114619e-05,-0.9999304068788295,-0.010995310320635795,0.0,0.0,0.0,0.0,0.0,0.0,0.0,0.0,0.0,-0.0015707963267948967,-0.00017453292519943296,-0.0027925268031909274,0.0,0.0,0.0,0.0,0.0,0.0,0.0,0.0,0.0,0.289296175,-0.024516625,9.81645665,0.0,0.0,0.0,0.0,0.0,0.0,0.0,0.0,0.0
1704780816246757581,11927,1704780816246262873,imu_link,0.004014000027005146,-4.448855679036634e-05,-0.9999305287378716,-0.011082577432707828,0.0,0.0,0.0,0.0,0.0,0.0,0.0,0.0,0.0,-0.0010471975511965976,-0.005934119456780722,-0.0013962634015954637,0.0,0.0,0.0,0.0,0.0,0.0,0.0,0.0,0.0,0.44227991499999997,-0.023535959999999998,9.757616749999999,0.0,0.0,0.0,0.0,0.0,0.0,0.0,0.0,0.0
1704780816347419697,11928,1704780816347075879,imu_link,0.004189498152128875,3.974076737452802e-05,-0.9999268777756475,-0.011343968783018908,0.0,0.0,0.0,0.0,0.0,0.0,0.0,0.0,0.0,-0.0012217304763960308,-0.00715584993317675,-0.008377580409572781,0.0,0.0,0.0,0.0,0.0,0.0,0.0,0.0,0.0,0.37853669,-0.018632634999999998,9.92825246,0.0,0.0,0.0,0.0,0.0,0.0,0.0,0.0,0.0
1704780816447139442,11929,1704780816446867092,imu_link,0.004016035122916138,0.00012687828197305458,-0.9999215097464569,-0.01186716942490907,0.0,0.0,0.0,0.0,0.0,0.0,0.0,0.0,0.0,-0.0017453292519943296,0.007853981633974483,-0.011693705988362009,0.0,0.0,0.0,0.0,0.0,0.0,0.0,0.0,0.0,0.51190713,-0.050013915,9.916484480000001,0.0,0.0,0.0,0.0,0.0,0.0,0.0,0.0,0.0
1704780816547153795,11930,1704780816546702196,imu_link,0.0037554611610795237,0.0002142958662767321,-0.9999128825979485,-0.012652185716726121,0.0,0.0,0.0,0.0,0.0,0.0,0.0,0.0,0.0,-0.005934119456780722,-0.010821041362364843,-0.02076941809873252,0.0,0.0,0.0,0.0,0.0,0.0,0.0,0.0,0.0,0.50013915,-0.08237586,9.81645665,0.0,0.0,0.0,0.0,0.0,0.0,0.0,0.0,0.0
1704780816647758979,11931,1704780816647340289,imu_link,0.004017546257263765,0.00020502248915973942,-0.9998919946818394,-0.014135637906439274,0.0,0.0,0.0,0.0,0.0,0.0,0.0,0.0,0.0,0.0015707963267948967,-0.00034906585039886593,-0.034208453339088854,0.0,0.0,0.0,0.0,0.0,0.0,0.0,0.0,0.0,0.53740442,-0.10395048999999999,9.82430197,0.0,0.0,0.0,0.0,0.0,0.0,0.0,0.0,0.0
1704780816746891727,11932,1704780816746540810,imu_link,0.003756133523551788,0.00020216875112264744,-0.9998668175428,-0.015880735675102654,0.0,0.0,0.0,0.0,0.0,0.0,0.0,0.0,0.0,-0.0054105206811824215,-0.00471238898038469,-0.03717551306747922,0.0,0.0,0.0,0.0,0.0,0.0,0.0,0.0,0.0,0.505042475,0.05099458,9.789978694999999,0.0,0.0,0.0,0.0,0.0,0.0,0.0,0.0,0.0
1704780816847312901,11933,1704780816846757752,imu_link,0.0037612942058476728,0.00045572806651190755,-0.9998297046982588,-0.01806118990595509,0.0,0.0,0.0,0.0,0.0,0.0,0.0,0.0,0.0,-0.0024434609527920616,-0.004363323129985824,-0.0486946861306418,0.0,0.0,0.0,0.0,0.0,0.0,0.0,0.0,0.0,0.5011198149999999,-0.15886772999999998,9.7085835,0.0,0.0,0.0,0.0,0.0,0.0,0.0,0.0,0.0
1704780816947225060,11934,1704780816946730002,imu_link,0.003500693265087817,0.00045160017797308795,-0.9997817432933349,-0.020591429801816052,0.0,0.0,0.0,0.0,0.0,0.0,0.0,0.0,0.0,0.00942477796076938,0.0019198621771937623,-0.05026548245743669,0.0,0.0,0.0,0.0,0.0,0.0,0.0,0.0,0.0,0.5982056499999999,-0.040207265,9.82037931,0.0,0.0,0.0,0.0,0.0,0.0,0.0,0.0,0.0
1704780817047406863,11935,1704780817047011946,imu_link,0.0035769893731341573,-8.148578210167563e-05,-0.9997342251328425,-0.02277449461846835,0.0,0.0,0.0,0.0,0.0,0.0,0.0,0.0,0.0,0.005585053606381855,-0.0024434609527920616,-0.03577924966588375,0.0,0.0,0.0,0.0,0.0,0.0,0.0,0.0,0.0,0.45895122,0.06080122999999999,9.65562759,0.0,0.0,0.0,0.0,0.0,0.0,0.0,0.0,0.0
1704780817146478250,11936,1704780817146074477,imu_link,0.0034833339040972306,-0.00034578789290746375,-0.9997038108576741,-0.02408396504501547,0.0,0.0,0.0,0.0,0.0,0.0,0.0,0.0,0.0,0.003316125578789226,0.0006981317007977319,-0.023387411976724018,0.0,0.0,0.0,0.0,0.0,0.0,0.0,0.0,0.0,0.44227991499999997,0.006864655,9.73604212,0.0,0.0,0.0,0.0,0.0,0.0,0.0,0.0,0.0
1704780817246785077,11937,1704780817246326521,imu_link,0.0034740754624740717,-0.0006989949946714118,-0.999673459432094,-0.025306455949978043,0.0,0.0,0.0,0.0,0.0,0.0,0.0,0.0,0.0,0.008028514559173916,-0.0015707963267948967,-0.02495820830351891,0.0,0.0,0.0,0.0,0.0,0.0,0.0,0.0,0.0,0.34715541,0.02745862,9.845876599999999,0.0,0.0,0.0,0.0,0.0,0.0,0.0,0.0,0.0
1704780817346840828,11938,1704780817346505779,imu_link,0.003291803255310287,-0.0009603158894884978,-0.9996421708008865,-0.02652870485364989,0.0,0.0,0.0,0.0,0.0,0.0,0.0,0.0,0.0,0.002967059728390361,-0.0054105206811824215,-0.021118483949131385,0.0,0.0,0.0,0.0,0.0,0.0,0.0,0.0,0.0,0.46973853499999996,0.048052584999999995,9.629149635,0.0,0.0,0.0,0.0,0.0,0.0,0.0,0.0,0.0
1704780817446821281,11939,1704780817446531588,imu_link,0.0028545486245982955,-0.0009519817910947255,-0.9996127953169154,-0.027662333985431286,0.0,0.0,0.0,0.0,0.0,0.0,0.0,0.0,0.0,-0.004363323129985824,-0.013962634015954637,-0.027925268031909273,0.0,0.0,0.0,0.0,0.0,0.0,0.0,0.0,0.0,0.38442067999999996,-0.1372931,9.927271795,0.0,0.0,0.0,0.0,0.0,0.0,0.0,0.0,0.0
1704780817547093903,11940,1704780817546711272,imu_link,0.0023214986264320325,-0.0012038604014587844,-0.999556366393112,-0.029668700127584106,0.0,0.0,0.0,0.0,0.0,0.0,0.0,0.0,0.0,0.0020943951023931952,-0.004014257279586958,-0.04625122517784973,0.0,0.0,0.0,0.0,0.0,0.0,0.0,0.0,0.0,0.4550285599999999,-0.065704555,9.840973275,0.0,0.0,0.0,0.0,0.0,0.0,0.0,0.0,0.0
1704780817647397077,11941,1704780817646993392,imu_link,0.001961131223791963,-0.001460157125525048,-0.9994785053299617,-0.03219843612472075,0.0,0.0,0.0,0.0,0.0,0.0,0.0,0.0,0.0,-0.0038397243543875246,-0.011344640137963142,-0.05585053606381855,0.0,0.0,0.0,0.0,0.0,0.0,0.0,0.0,0.0,0.43541525999999997,-0.01372931,9.735061455,0.0,0.0,0.0,0.0,0.0,0.0,0.0,0.0,0.0
1704780817746433650,11942,1704780817746088144,imu_link,0.0016951532793988747,-0.001456765136914194,-0.999379073016131,-0.035163513876089895,0.0,0.0,0.0,0.0,0.0,0.0,0.0,0.0,0.0,-0.002967059728390361,-0.005585053606381855,-0.06230825429619756,0.0,0.0,0.0,0.0,0.0,0.0,0.0,0.0,0.0,0.401091985,-0.053936574999999994,9.74584877,0.0,0.0,0.0,0.0,0.0,0.0,0.0,0.0,0.0
1704780817846904379,11943,1704780817846406125,imu_link,0.0015193870128072022,-0.0013683295691268094,-0.999260745720858,-0.03838985801862485,0.0,0.0,0.0,0.0,0.0,0.0,0.0,0.0,0.0,0.003490658503988659,-0.0041887902047863905,-0.06370451769779302,0.0,0.0,0.0,0.0,0.0,0.0,0.0,0.0,0.0,0.48346784499999995,-0.0196133,9.844895935,0.0,0.0,0.0,0.0,0.0,0.0,0.0,0.0,0.0
1704780817946738702,11944,1704780817946452395,imu_link,0.001417871484412725,-0.001630302991157473,-0.9991565687558196,-0.04100588817118588,0.0,0.0,0.0,0.0,0.0,0.0,0.0,0.0,0.0,0.013439035240356337,0.006632251157578452,-0.034208453339088854,0.0,0.0,0.0,0.0,0.0,0.0,0.0,0.0,0.0,0.49621648999999995,0.26085688999999995,9.635033625,0.0,0.0,0.0,0.0,0.0,0.0,0.0,0.0,0.0
1704780818046892879,11945,1704780818046567825,imu_link,0.00184260027049259,-0.0019102536753138441,-0.9991445638334038,-0.04126858753696997,0.0,0.0,0.0,0.0,0.0,0.0,0.0,0.0,0.0,0.0008726646259971648,0.0019198621771937623,0.012217304763960306,0.0,0.0,0.0,0.0,0.0,0.0,0.0,0.0,0.0,0.31479346499999994,0.17651969999999997,9.950807755,0.0,0.0,0.0,0.0,0.0,0.0,0.0,0.0,0.0
1704780818145868738,11946,1704780818145488027,imu_link,0.0019444705805243597,-0.0015647477724566252,-0.9991521802086295,-0.04109369030535719,0.0,0.0,0.0,0.0,0.0,0.0,0.0,0.0,0.0,-0.00034906585039886593,0.004363323129985824,-0.0020943951023931952,0.0,0.0,0.0,0.0,0.0,0.0,0.0,0.0,0.0,0.48346784499999995,0.02745862,9.732119459999998,0.0,0.0,0.0,0.0,0.0,0.0,0.0,0.0,0.0
1704780818246656676,11947,1704780818246330134,imu_link,0.002038956750645736,-0.0013937705302338955,-0.9991558366460831,-0.04100626970530034,0.0,0.0,0.0,0.0,0.0,0.0,0.0,0.0,0.0,0.00034906585039886593,0.0017453292519943296,0.004014257279586958,0.0,0.0,0.0,0.0,0.0,0.0,0.0,0.0,0.0,0.39618865999999997,-0.04903325,9.807630665,0.0,0.0,0.0,0.0,0.0,0.0,0.0,0.0,0.0
1704780818346632693,11948,1704780818346218063,imu_link,0.002126027707815882,-0.0013975340477750846,-0.9991520634714015,-0.041093563554543064,0.0,0.0,0.0,0.0,0.0,0.0,0.0,0.0,0.0,-0.00471238898038469,0.002617993877991494,-0.00942477796076938,0.0,0.0,0.0,0.0,0.0,0.0,0.0,0.0,0.0,0.28831551,-0.042168594999999996,9.803708004999999,0.0,0.0,0.0,0.0,0.0,0.0,0.0,0.0,0.0
1704780818446968412,11949,1704780818446359907,imu_link,0.002571336396950608,-0.0011570274317251402,-0.9991003723727168,-0.04231424631675073,0.0,0.0,0.0,0.0,0.0,0.0,0.0,0.0,0.0,-0.012391837689159739,0.012042771838760872,-0.035953782591083186,0.0,0.0,0.0,0.0,0.0,0.0,0.0,0.0,0.0,0.0980665,-0.06472388999999999,9.637975619999999,0.0,0.0,0.0,0.0,0.0,0.0,0.0,0.0,0.0
1704780818546942430,11950,1704780818546578361,imu_link,0.0029370034483128015,-0.0007420090195186265,-0.999008992841907,-0.044405581342418454,0.0,0.0,0.0,0.0,0.0,0.0,0.0,0.0,0.0,-0.0005235987755982988,0.005235987755982988,-0.0486946861306418,0.0,0.0,0.0,0.0,0.0,0.0,0.0,0.0,0.0,-0.157887065,-0.3334261,10.082216865,0.0,0.0,0.0,0.0,0.0,0.0,0.0,0.0,0.0
1704780818647159805,11951,1704780818646705462,imu_link,0.003005132806420528,-0.001104312643600501,-0.9988598144512131,-0.04763213983109881,0.0,0.0,0.0,0.0,0.0,0.0,0.0,0.0,0.0,0.008203047484373348,0.0020943951023931952,-0.07731808586334879,0.0,0.0,0.0,0.0,0.0,0.0,0.0,0.0,0.0,-0.29223816999999996,-0.0392266,9.82430197,0.0,0.0,0.0,0.0,0.0,0.0,0.0,0.0,0.0
1704780818746374701,11952,1704780818745902048,imu_link,0.0027393228934110697,-0.0011026098465376653,-0.998665839334441,-0.051554065873105716,0.0,0.0,0.0,0.0,0.0,0.0,0.0,0.0,0.0,-0.00034906585039886593,-0.0041887902047863905,-0.07557275661135446,0.0,0.0,0.0,0.0,0.0,0.0,0.0,0.0,0.0,-0.263798885,-0.083356525,9.716428819999999,0.0,0.0,0.0,0.0,0.0,0.0,0.0,0.0,0.0
1704780818846398099,11953,1704780818846059605,imu_link,0.0026526813787619715,-0.0010213861895903742,-0.9984560241890827,-0.055475109844726055,0.0,0.0,0.0,0.0,0.0,0.0,0.0,0.0,0.0,0.0054105206811824215,-0.005759586531581288,-0.08429940287132612,0.0,0.0,0.0,0.0,0.0,0.0,0.0,0.0,0.0,-0.21084297499999996,-0.15298373999999998,9.939039775,0.0,0.0,0.0,0.0,0.0,0.0,0.0,0.0,0.0
1704780818946993997,11954,1704780818946534840,imu_link,0.0027196453104167658,-0.0012995009580826287,-0.9982039160115326,-0.059831905250348906,0.0,0.0,0.0,0.0,0.0,0.0,0.0,0.0,0.0,0.008726646259971648,0.011868238913561443,-0.08517206749732328,0.0,0.0,0.0,0.0,0.0,0.0,0.0,0.0,0.0,-0.36284605,-0.022555295,9.709564165,0.0,0.0,0.0,0.0,0.0,0.0,0.0,0.0,0.0
1704780819046881233,11955,1704780819046489491,imu_link,0.0033999689217489087,-0.0015291463860469035,-0.9979532025688931,-0.06383970085417966,0.0,0.0,0.0,0.0,0.0,0.0,0.0,0.0,0.0,0.007504915783575617,0.034208453339088854,-0.07400196028455958,0.0,0.0,0.0,0.0,0.0,0.0,0.0,0.0,0.0,-1.3474337099999998,-0.04118793,9.84979926,0.0,0.0,0.0,0.0,0.0,0.0,0.0,0.0,0.0
1704780819146143663,11956,1704780819145730610,imu_link,0.003986459792450127,-0.001843327567252306,-0.997721462823473,-0.0673245341847389,0.0,0.0,0.0,0.0,0.0,0.0,0.0,0.0,0.0,-0.0008726646259971648,-0.023387411976724018,-0.06457718232379019,0.0,0.0,0.0,0.0,0.0,0.0,0.0,0.0,0.0,-1.24740588,0.053936574999999994,9.75173276,0.0,0.0,0.0,0.0,0.0,0.0,0.0,0.0,0.0
1704780819246368346,11957,1704780819245801966,imu_link,0.0031160100720787572,-0.00170786091681174,-0.997496158231567,-0.07063135285115307,0.0,0.0,0.0,0.0,0.0,0.0,0.0,0.0,0.0,0.006108652381980153,-0.0017453292519943296,-0.07086036763096977,0.0,0.0,0.0,0.0,0.0,0.0,0.0,0.0,0.0,-0.3138128,0.22751427999999996,10.03808694,0.0,0.0,0.0,0.0,0.0,0.0,0.0,0.0,0.0
1704780819346378290,11958,1704780819345921338,imu_link,0.003436638349662947,-0.0020855039997149357,-0.9973946825918927,-0.07202560188806977,0.0,0.0,0.0,0.0,0.0,0.0,0.0,0.0,0.0,0.004537856055185257,0.0015707963267948967,0.014486232791552934,0.0,0.0,0.0,0.0,0.0,0.0,0.0,0.0,0.0,-0.07453053999999999,0.163771055,9.875296549999998,0.0,0.0,0.0,0.0,0.0,0.0,0.0,0.0,0.0
1704780819446508969,11959,1704780819446133843,imu_link,0.0025745560071695644,-0.001932926249243594,-0.9974725768638352,-0.0709795312896715,0.0,0.0,0.0,0.0,0.0,0.0,0.0,0.0,0.0,-0.0031415926535897933,-0.0010471975511965976,0.006981317007977318,0.0,0.0,0.0,0.0,0.0,0.0,0.0,0.0,0.0,0.6786201799999999,0.06374322499999999,9.721332145,0.0,0.0,0.0,0.0,0.0,0.0,0.0,0.0,0.0
1704780819546681592,11960,1704780819546250639,imu_link,0.0032020106006428475,-0.0017159800302150997,-0.9974525344343003,-0.07124074740793054,0.0,0.0,0.0,0.0,0.0,0.0,0.0,0.0,0.0,-0.004363323129985824,0.003316125578789226,-0.00645771823237902,0.0,0.0,0.0,0.0,0.0,0.0,0.0,0.0,0.0,0.49131316499999994,-0.03138128,9.907658495,0.0,0.0,0.0,0.0,0.0,0.0,0.0,0.0,0.0
1704780819645344959,11961,1704780819644932657,imu_link,0.0030224862010127737,-0.001789273596466448,-0.9974839503725511,-0.07080559177304956,0.0,0.0,0.0,0.0,0.0,0.0,0.0,0.0,0.0,0.005934119456780722,0.0012217304763960308,0.015707963267948967,0.0,0.0,0.0,0.0,0.0,0.0,0.0,0.0,0.0,0.716866115,-0.02157463,9.74977143,0.0,0.0,0.0,0.0,0.0,0.0,0.0,0.0,0.0
1704780819746313957,11962,1704780819745937877,imu_link,0.0034458845685930496,-0.0019933553407942887,-0.9975006085606575,-0.07054564717360715,0.0,0.0,0.0,0.0,0.0,0.0,0.0,0.0,0.0,-0.0,0.005759586531581288,-0.0006981317007977319,0.0,0.0,0.0,0.0,0.0,0.0,0.0,0.0,0.0,0.44227991499999997,0.14317708999999998,9.944923764999999,0.0,0.0,0.0,0.0,0.0,0.0,0.0,0.0,0.0
1704780819846287293,11963,1704780819845718163,imu_link,0.0032965549708140543,-0.0016325635429666663,-0.9975080204842907,-0.07045719644659892,0.0,0.0,0.0,0.0,0.0,0.0,0.0,0.0,0.0,-0.014835298641951801,-0.0005235987755982988,0.002967059728390361,0.0,0.0,0.0,0.0,0.0,0.0,0.0,0.0,0.0,0.301064155,-0.097085835,9.731138795,0.0,0.0,0.0,0.0,0.0,0.0,0.0,0.0,0.0
1704780819946328840,11964,1704780819945921623,imu_link,0.0034945676727936373,-0.0012984928985238352,-0.9974708837256099,-0.07097843357403293,0.0,0.0,0.0,0.0,0.0,0.0,0.0,0.0,0.0,-0.0012217304763960308,0.0027925268031909274,-0.023387411976724018,0.0,0.0,0.0,0.0,0.0,0.0,0.0,0.0,0.0,0.00392266,-0.14611908499999998,10.019454305,0.0,0.0,0.0,0.0,0.0,0.0,0.0,0.0,0.0
1704780820046781049,11965,1704780820046286337,imu_link,0.003219263316957283,-0.001457938338958774,-0.9973841087230232,-0.07219730207062251,0.0,0.0,0.0,0.0,0.0,0.0,0.0,0.0,0.0,-0.0,-0.004363323129985824,-0.023387411976724018,0.0,0.0,0.0,0.0,0.0,0.0,0.0,0.0,0.0,-0.09610516999999999,-0.0392266,9.703680175,0.0,0.0,0.0,0.0,0.0,0.0,0.0,0.0,0.0
1704780820145651969,11966,1704780820145269614,imu_link,0.0025009931805937417,-0.0016732418215287292,-0.9972518410201191,-0.07402506924617193,0.0,0.0,0.0,0.0,0.0,0.0,0.0,0.0,0.0,0.0020943951023931952,-0.025132741228718346,-0.054977871437821374,0.0,0.0,0.0,0.0,0.0,0.0,0.0,0.0,0.0,-0.25105024,-0.31577413,10.174399375,0.0,0.0,0.0,0.0,0.0,0.0,0.0,0.0,0.0
1704780820246295409,11967,1704780820245721548,imu_link,0.0013434744457232189,-0.0018552878844049416,-0.9969758245439683,-0.07767855726102503,0.0,0.0,0.0,0.0,0.0,0.0,0.0,0.0,0.0,0.005934119456780722,-0.020420352248333655,-0.07836528341454539,0.0,0.0,0.0,0.0,0.0,0.0,0.0,0.0,0.0,0.08531785499999998,0.11277647499999999,9.31435617,0.0,0.0,0.0,0.0,0.0,0.0,0.0,0.0,0.0
1704780820346042046,11968,1704780820345630475,imu_link,0.0007635525402309188,-0.0013754999941779874,-0.9967000984573102,-0.08115687723460173,0.0,0.0,0.0,0.0,0.0,0.0,0.0,0.0,0.0,-0.015707963267948967,-0.014137166941154071,-0.07243116395776468,0.0,0.0,0.0,0.0,0.0,0.0,0.0,0.0,0.0,0.23241760499999997,-0.28635417999999996,10.054758245,0.0,0.0,0.0,0.0,0.0,0.0,0.0,0.0,0.0
1704780820446289187,11969,1704780820445822865,imu_link,0.00025749853773201196,-0.001073388740715306,-0.9962772601281746,-0.08619978238146414,0.0,0.0,0.0,0.0,0.0,0.0,0.0,0.0,0.0,-0.0027925268031909274,-0.0036651914291880917,-0.12897983172238095,0.0,0.0,0.0,0.0,0.0,0.0,0.0,0.0,0.0,0.46287387999999996,-0.42462794499999995,9.58894237,0.0,0.0,0.0,0.0,0.0,0.0,0.0,0.0,0.0
1704780820545327085,11970,1704780820544927570,imu_link,0.0005185235219506519,-0.0010127963444548618,-0.995626714648683,-0.09341386650166922,0.0,0.0,0.0,0.0,0.0,0.0,0.0,0.0,0.0,0.007330382858376183,0.00471238898038469,-0.14835298641951802,0.0,0.0,0.0,0.0,0.0,0.0,0.0,0.0,0.0,0.48248717999999996,-0.19809432999999999,9.807630665,0.0,0.0,0.0,0.0,0.0,0.0,0.0,0.0,0.0
1704780820645652125,11971,1704780820645241431,imu_link,0.0007098892753339338,-0.0016507561849155733,-0.9949053751046399,-0.10079715099709044,0.0,0.0,0.0,0.0,0.0,0.0,0.0,0.0,0.0,0.016929693744344998,0.00034906585039886593,-0.15184364492350666,0.0,0.0,0.0,0.0,0.0,0.0,0.0,0.0,0.0,0.37069136999999996,-0.33734875999999997,10.06946822,0.0,0.0,0.0,0.0,0.0,0.0,0.0,0.0,0.0
1704780820745748996,11972,1704780820745308371,imu_link,0.00036082960825831677,-0.002321848478305706,-0.9940818977015541,-0.1086078242288035,0.0,0.0,0.0,0.0,0.0,0.0,0.0,0.0,0.0,0.002617993877991494,-0.003490658503988659,-0.15760323145508795,0.0,0.0,0.0,0.0,0.0,0.0,0.0,0.0,0.0,0.42462794499999995,0.09120184499999999,9.754674755,0.0,0.0,0.0,0.0,0.0,0.0,0.0,0.0,0.0
1704780820846095099,11973,1704780820845441067,imu_link,0.0006905134324908598,-0.0023648837349531018,-0.9932587192719557,-0.1158923945147128,0.0,0.0,0.0,0.0,0.0,0.0,0.0,0.0,0.0,0.0012217304763960308,0.007853981633974483,-0.13281955607676849,0.0,0.0,0.0,0.0,0.0,0.0,0.0,0.0,0.0,0.33146476999999996,-0.22751427999999996,9.972382384999998,0.0,0.0,0.0,0.0,0.0,0.0,0.0,0.0,0.0
1704780820946028336,11974,1704780820945643597,imu_link,0.0009578884863604409,-0.0029315661684236175,-0.9924983828176732,-0.12221885482097723,0.0,0.0,0.0,0.0,0.0,0.0,0.0,0.0,0.0,0.010297442586766544,0.014137166941154071,-0.12671090369478832,0.0,0.0,0.0,0.0,0.0,0.0,0.0,0.0,0.0,0.27066354,-0.0196133,9.784094705,0.0,0.0,0.0,0.0,0.0,0.0,0.0,0.0,0.0
1704780821046275723,11975,1704780821045842761,imu_link,0.0015326884014688928,-0.003103201259744389,-0.991653256647799,-0.1288869255899137,0.0,0.0,0.0,0.0,0.0,0.0,0.0,0.0,0.0,0.003490658503988659,-0.00645771823237902,-0.1329940890019679,0.0,0.0,0.0,0.0,0.0,0.0,0.0,0.0,0.0,0.0058839899999999995,0.16671305,9.676221555,0.0,0.0,0.0,0.0,0.0,0.0,0.0,0.0,0.0
1704780821145523983,11976,1704780821145059318,imu_link,0.0009295056170625104,-0.002239445206803492,-0.9909448328849205,-0.13424775261862237,0.0,0.0,0.0,0.0,0.0,0.0,0.0,0.0,0.0,-0.00890117918517108,-0.009948376736367677,-0.08237954069413235,0.0,0.0,0.0,0.0,0.0,0.0,0.0,0.0,0.0,-0.024516625,-0.09904716499999999,10.12438546,0.0,0.0,0.0,0.0,0.0,0.0,0.0,0.0,0.0
1704780821245798275,11977,1704780821245290222,imu_link,0.0005512892033322606,-0.0023676236231566974,-0.9904341614095541,-0.13796471415382436,0.0,0.0,0.0,0.0,0.0,0.0,0.0,0.0,0.0,0.03647738136668148,-0.014660765716752367,-0.07661995416255106,0.0,0.0,0.0,0.0,0.0,0.0,0.0,0.0,0.0,-0.196133,-0.420705285,9.462436584999999,0.0,0.0,0.0,0.0,0.0,0.0,0.0,0.0,0.0
1704780821345761636,11978,1704780821345321260,imu_link,-0.0006441078353506887,-0.0038747799281408247,-0.9898555864251187,-0.1420228475583738,0.0,0.0,0.0,0.0,0.0,0.0,0.0,0.0,0.0,0.02897246558310587,-0.007504915783575617,-0.07958701389094142,0.0,0.0,0.0,0.0,0.0,0.0,0.0,0.0,0.0,-0.18534568499999998,0.32165812,10.15772807,0.0,0.0,0.0,0.0,0.0,0.0,0.0,0.0,0.0
1704780821446056875,11979,1704780821445530034,imu_link,-0.0004990406935421426,-0.003984061875064448,-0.9893025173738187,-0.14582320572250126,0.0,0.0,0.0,0.0,0.0,0.0,0.0,0.0,0.0,-0.017627825445142728,-0.005934119456780722,-0.07487462491055674,0.0,0.0,0.0,0.0,0.0,0.0,0.0,0.0,0.0,-0.04118793,0.142196425,9.47910789,0.0,0.0,0.0,0.0,0.0,0.0,0.0,0.0,0.0
1704780821545330362,11980,1704780821544801166,imu_link,-0.0009014679442640274,-0.0030409390035706484,-0.9887385582653655,-0.14961952895544198,0.0,0.0,0.0,0.0,0.0,0.0,0.0,0.0,0.0,-0.011519173063162576,0.0006981317007977319,-0.08255407361933179,0.0,0.0,0.0,0.0,0.0,0.0,0.0,0.0,0.0,-0.00784532,-0.42462794499999995,9.944923764999999,0.0,0.0,0.0,0.0,0.0,0.0,0.0,0.0,0.0
1704780821645754423,11981,1704780821644983622,imu_link,-0.0003529252769837505,-0.003389533628643342,-0.9880079873446824,-0.15436516267810868,0.0,0.0,0.0,0.0,0.0,0.0,0.0,0.0,0.0,0.01308996938995747,0.011693705988362009,-0.10978120995044333,0.0,0.0,0.0,0.0,0.0,0.0,0.0,0.0,0.0,-0.09022118,-0.25497289999999995,9.870393224999999,0.0,0.0,0.0,0.0,0.0,0.0,0.0,0.0,0.0
1704780821745366285,11982,1704780821744956339,imu_link,-2.6582030993184294e-05,-0.003974118440954016,-0.9870582186878508,-0.16031306433594197,0.0,0.0,0.0,0.0,0.0,0.0,0.0,0.0,0.0,0.0019198621771937623,0.011344640137963142,-0.130201562198777,0.0,0.0,0.0,0.0,0.0,0.0,0.0,0.0,0.0,0.083356525,-0.12552512,9.687989535,0.0,0.0,0.0,0.0,0.0,0.0,0.0,0.0,0.0
1704780821845687985,11983,1704780821845301457,imu_link,0.0006350448286648546,-0.004090393183303746,-0.9859576260541449,-0.1669443770462081,0.0,0.0,0.0,0.0,0.0,0.0,0.0,0.0,0.0,-0.0019198621771937623,0.006981317007977318,-0.1329940890019679,0.0,0.0,0.0,0.0,0.0,0.0,0.0,0.0,0.0,-0.10002783,-0.255953565,9.982189035,0.0,0.0,0.0,0.0,0.0,0.0,0.0,0.0,0.0
1704780821945852013,11984,1704780821945441806,imu_link,0.0008903313710276474,-0.004498992035493608,-0.9847961697627131,-0.17365330518422084,0.0,0.0,0.0,0.0,0.0,0.0,0.0,0.0,0.0,0.016929693744344998,0.013439035240356337,-0.1408480706359424,0.0,0.0,0.0,0.0,0.0,0.0,0.0,0.0,0.0,-0.07354987499999999,-0.097085835,9.691912194999999,0.0,0.0,0.0,0.0,0.0,0.0,0.0,0.0,0.0
1704780822045987491,11985,1704780822045592970,imu_link,0.001366991657493231,-0.005129877179810836,-0.9836185915157021,-0.18018402292821317,0.0,0.0,0.0,0.0,0.0,0.0,0.0,0.0,0.0,-0.006108652381980153,0.004014257279586958,-0.12147491593880534,0.0,0.0,0.0,0.0,0.0,0.0,0.0,0.0,0.0,0.046091255,0.16279038999999998,9.856663915,0.0,0.0,0.0,0.0,0.0,0.0,0.0,0.0,0.0
1704780822145262210,11986,1704780822144756562,imu_link,0.001428983041441205,-0.004178626351455531,-0.9825205648402419,-0.18610168391310664,0.0,0.0,0.0,0.0,0.0,0.0,0.0,0.0,0.0,-0.038397243543875255,-0.010821041362364843,-0.12985249634837814,0.0,0.0,0.0,0.0,0.0,0.0,0.0,0.0,0.0,-0.09610516999999999,-0.08924051499999999,9.852741254999998,0.0,0.0,0.0,0.0,0.0,0.0,0.0,0.0,0.0
1704780822245388810,11987,1704780822244860810,imu_link,0.0010216185412496486,-0.003402202725071718,-0.9812518537509745,-0.19269712198797875,0.0,0.0,0.0,0.0,0.0,0.0,0.0,0.0,0.0,-0.005235987755982988,0.012566370614359173,-0.13386675362796507,0.0,0.0,0.0,0.0,0.0,0.0,0.0,0.0,0.0,-0.055897905,-0.47856452,9.860586575,0.0,0.0,0.0,0.0,0.0,0.0,0.0,0.0,0.0
1704780822345489890,11988,1704780822345102739,imu_link,0.0012535394906180684,-0.004350765081901698,-0.979982502509119,-0.19903214378062672,0.0,0.0,0.0,0.0,0.0,0.0,0.0,0.0,0.0,0.012217304763960306,-0.019198621771937627,-0.1270599695451872,0.0,0.0,0.0,0.0,0.0,0.0,0.0,0.0,0.0,-0.21378497,-0.16671305,9.82822463,0.0,0.0,0.0,0.0,0.0,0.0,0.0,0.0,0.0
1704780822445921985,11989,1704780822445276436,imu_link,0.0006036244419851215,-0.004319586159559915,-0.978390301023357,-0.20672057390682708,0.0,0.0,0.0,0.0,0.0,0.0,0.0,0.0,0.0,-0.009075712110370514,0.0012217304763960308,-0.19442967867216834,0.0,0.0,0.0,0.0,0.0,0.0,0.0,0.0,0.0,-0.08237586,-0.28537351499999997,9.874315884999998,0.0,0.0,0.0,0.0,0.0,0.0,0.0,0.0,0.0
1704780822544903307,11990,1704780822544458482,imu_link,0.0004626815443838089,-0.003947179218801354,-0.9761169576533983,-0.21720932457764586,0.0,0.0,0.0,0.0,0.0,0.0,0.0,0.0,0.0,-0.00715584993317675,-0.017104226669544427,-0.2155481626212997,0.0,0.0,0.0,0.0,0.0,0.0,0.0,0.0,0.0,-0.15102241,-0.228494945,10.00082167,0.0,0.0,0.0,0.0,0.0,0.0,0.0,0.0,0.0
1704780822645218085,11991,1704780822644639358,imu_link,-3.269988298392954e-05,-0.004382341220907898,-0.9740447261363184,-0.22631320222683796,0.0,0.0,0.0,0.0,0.0,0.0,0.0,0.0,0.0,0.019896753472735354,0.005235987755982988,-0.16929693744344995,0.0,0.0,0.0,0.0,0.0,0.0,0.0,0.0,0.0,0.018632634999999998,-0.15298373999999998,9.746829434999999,0.0,0.0,0.0,0.0,0.0,0.0,0.0,0.0,0.0
1704780822745206547,11992,1704780822744793054,imu_link,0.0001701463335503936,-0.005247723736853867,-0.9720893945433581,-0.23455200161613352,0.0,0.0,0.0,0.0,0.0,0.0,0.0,0.0,0.0,0.00890117918517108,0.006632251157578452,-0.16807520696705394,0.0,0.0,0.0,0.0,0.0,0.0,0.0,0.0,0.0,0.10100849499999999,0.28439285,9.82234064,0.0,0.0,0.0,0.0,0.0,0.0,0.0,0.0,0.0
1704780822845301287,11993,1704780822844858326,imu_link,0.0009132470609046106,-0.004994385045176709,-0.9702808639078263,-0.2419282274396867,0.0,0.0,0.0,0.0,0.0,0.0,0.0,0.0,0.0,-0.007504915783575617,0.017627825445142728,-0.13334315485236678,0.0,0.0,0.0,0.0,0.0,0.0,0.0,0.0,0.0,0.07354987499999999,-0.155925735,9.848818595,0.0,0.0,0.0,0.0,0.0,0.0,0.0,0.0,0.0
1704780822945497473,11994,1704780822945047915,imu_link,0.0017254187546467904,-0.005217046699087497,-0.9686519057047638,-0.24836121059535457,0.0,0.0,0.0,0.0,0.0,0.0,0.0,0.0,0.0,0.013962634015954637,0.013439035240356337,-0.14137166941154067,0.0,0.0,0.0,0.0,0.0,0.0,0.0,0.0,0.0,-0.13925443,-0.21084297499999996,9.752713425,0.0,0.0,0.0,0.0,0.0,0.0,0.0,0.0,0.0
1704780823045617475,11995,1704780823045255080,imu_link,0.002229365975223078,-0.005913702763201372,-0.966843846872122,-0.25529009736473124,0.0,0.0,0.0,0.0,0.0,0.0,0.0,0.0,0.0,0.02583087292951608,0.016231562043547268,-0.1308996938995747,0.0,0.0,0.0,0.0,0.0,0.0,0.0,0.0,0.0,-0.00196133,0.40305331499999997,9.826263299999999,0.0,0.0,0.0,0.0,0.0,0.0,0.0,0.0,0.0
1704780823144979810,11996,1704780823144523051,imu_link,0.002776743589200105,-0.006163485977677349,-0.9659656977681962,-0.2585818475277113,0.0,0.0,0.0,0.0,0.0,0.0,0.0,0.0,0.0,-0.010297442586766544,0.00017453292519943296,-0.01064650843716541,0.0,0.0,0.0,0.0,0.0,0.0,0.0,0.0,0.0,-0.069627215,0.575650355,9.74584877,0.0,0.0,0.0,0.0,0.0,0.0,0.0,0.0,0.0
1704780823245069795,11997,1704780823244613870,imu_link,0.0035430816304252133,-0.00465178714558967,-0.965995325898474,-0.2584933998987464,0.0,0.0,0.0,0.0,0.0,0.0,0.0,0.0,0.0,-0.02199114857512855,0.01815142422074103,-0.0036651914291880917,0.0,0.0,0.0,0.0,0.0,0.0,0.0,0.0,0.0,-0.106892485,0.087279185,9.991995685,0.0,0.0,0.0,0.0,0.0,0.0,0.0,0.0,0.0
1704780823345533046,11998,1704780823345096931,imu_link,0.003969742768191921,-0.0044055040532456026,-0.9659498535608262,-0.25866138691774143,0.0,0.0,0.0,0.0,0.0,0.0,0.0,0.0,0.0,0.007853981633974483,-0.005585053606381855,0.007504915783575617,0.0,0.0,0.0,0.0,0.0,0.0,0.0,0.0,0.0,-0.09218251,-0.008825985,9.461455919999999,0.0,0.0,0.0,0.0,0.0,0.0,0.0,0.0,0.0
1704780823445458201,11999,1704780823445032070,imu_link,0.003824198354008212,-0.004630484663124646,-0.9663093587572815,-0.2573133445758797,0.0,0.0,0.0,0.0,0.0,0.0,0.0,0.0,0.0,0.00471238898038469,0.0017453292519943296,0.03612831551628262,0.0,0.0,0.0,0.0,0.0,0.0,0.0,0.0,0.0,-0.17553903499999998,0.16573238499999998,10.150863414999998,0.0,0.0,0.0,0.0,0.0,0.0,0.0,0.0,0.0
1704780823544549540,12000,1704780823544103466,imu_link,0.003492038237107889,-0.004536718181239332,-0.9666025342594448,-0.25621624581652463,0.0,0.0,0.0,0.0,0.0,0.0,0.0,0.0,0.0,-0.010821041362364843,-0.013264502315156903,0.009250245035569947,0.0,0.0,0.0,0.0,0.0,0.0,0.0,0.0,0.0,-0.24124358999999998,0.10198916,9.629149635,0.0,0.0,0.0,0.0,0.0,0.0,0.0,0.0,0.0
1704780823646001810,12001,1704780823645582695,imu_link,0.0032469320086637218,-0.004107617007703696,-0.9667844981312061,-0.2555392711272401,0.0,0.0,0.0,0.0,0.0,0.0,0.0,0.0,0.0,-0.00890117918517108,-0.0036651914291880917,0.01884955592153876,0.0,0.0,0.0,0.0,0.0,0.0,0.0,0.0,0.0,-0.134351105,0.010787315,9.88118054,0.0,0.0,0.0,0.0,0.0,0.0,0.0,0.0,0.0
1704780823745338256,12002,1704780823744894911,imu_link,0.002913314173116988,-0.004015631130409052,-0.9670309722659678,-0.2546104593010475,0.0,0.0,0.0,0.0,0.0,0.0,0.0,0.0,0.0,0.008726646259971648,0.0024434609527920616,0.01658062789394613,0.0,0.0,0.0,0.0,0.0,0.0,0.0,0.0,0.0,0.067665885,-0.116699135,9.65758892,0.0,0.0,0.0,0.0,0.0,0.0,0.0,0.0,0.0
1704780823845486038,12003,1704780823845002243,imu_link,0.0037769130387533163,-0.00451153466373997,-0.9671360434051841,-0.2541913738297218,0.0,0.0,0.0,0.0,0.0,0.0,0.0,0.0,0.0,0.0010471975511965976,0.014486232791552934,0.007679448708775049,0.0,0.0,0.0,0.0,0.0,0.0,0.0,0.0,0.0,-0.12160245999999998,0.15102241,9.76546207,0.0,0.0,0.0,0.0,0.0,0.0,0.0,0.0,0.0
1704780823944812329,12004,1704780823944326482,imu_link,0.003871888073853144,-0.00345709314186841,-0.9669634565500558,-0.25486217978845044,0.0,0.0,0.0,0.0,0.0,0.0,0.0,0.0,0.0,-0.029321531433504733,-0.002967059728390361,-0.05305800926062761,0.0,0.0,0.0,0.0,0.0,0.0,0.0,0.0,0.0,-0.0980665,-0.5109264649999999,9.919426475,0.0,0.0,0.0,0.0,0.0,0.0,0.0,0.0,0.0
1704780824044780617,12005,1704780824044307091,imu_link,0.004472185844234434,-0.0031928549224767566,-0.9655690272322289,-0.2600889441729997,0.0,0.0,0.0,0.0,0.0,0.0,0.0,0.0,0.0,0.0054105206811824215,0.010297442586766544,-0.13980087308474579,0.0,0.0,0.0,0.0,0.0,0.0,0.0,0.0,0.0,-0.09610516999999999,-0.679600845,9.75369409,0.0,0.0,0.0,0.0,0.0,0.0,0.0,0.0,0.0
1704780824145143320,12006,1704780824144640145,imu_link,0.003712670172716815,-0.003924988881604546,-0.9637527527175201,-0.26674227668644934,0.0,0.0,0.0,0.0,0.0,0.0,0.0,0.0,0.0,0.013439035240356337,-0.017976891295541593,-0.1349139511791617,0.0,0.0,0.0,0.0,0.0,0.0,0.0,0.0,0.0,-0.08531785499999998,-0.08629852,9.80272734,0.0,0.0,0.0,0.0,0.0,0.0,0.0,0.0,0.0
1704780824245288617,12007,1704780824244848416,imu_link,0.003780722167786342,-0.004251012439500704,-0.9618173095772435,-0.2736331449783121,0.0,0.0,0.0,0.0,0.0,0.0,0.0,0.0,0.0,-0.0036651914291880917,0.00715584993317675,-0.15009831567151233,0.0,0.0,0.0,0.0,0.0,0.0,0.0,0.0,0.0,-0.14709974999999997,0.11571846999999999,9.894909849999998,0.0,0.0,0.0,0.0,0.0,0.0,0.0,0.0,0.0
1704780824344168232,12008,1704780824343772405,imu_link,0.003958204339911207,-0.0032507605076746836,-0.9596674923156818,-0.2810908560715839,0.0,0.0,0.0,0.0,0.0,0.0,0.0,0.0,0.0,-0.015184364492350668,-0.0005235987755982988,-0.15323990832510212,0.0,0.0,0.0,0.0,0.0,0.0,0.0,0.0,0.0,0.051975244999999996,-0.29910282499999996,9.74584877,0.0,0.0,0.0,0.0,0.0,0.0,0.0,0.0,0.0
1704780824444507453,12009,1704780824444074250,imu_link,0.004002425227543905,-0.0036624834693554024,-0.9577047069455367,-0.28770168769316995,0.0,0.0,0.0,0.0,0.0,0.0,0.0,0.0,0.0,0.017278759594743863,-0.0019198621771937623,-0.12845623294678266,0.0,0.0,0.0,0.0,0.0,0.0,0.0,0.0,0.0,-0.07256921,-0.31773545999999997,9.69877685,0.0,0.0,0.0,0.0,0.0,0.0,0.0,0.0,0.0
1704780824544635948,12010,1704780824544290403,imu_link,0.003278351356807217,-0.004478419455529769,-0.9557483237380214,-0.29413319745231736,0.0,0.0,0.0,0.0,0.0,0.0,0.0,0.0,0.0,0.0013962634015954637,-0.005934119456780722,-0.14364059743913332,0.0,0.0,0.0,0.0,0.0,0.0,0.0,0.0,0.0,-0.2353596,0.132389775,9.93805911,0.0,0.0,0.0,0.0,0.0,0.0,0.0,0.0,0.0
1704780824644861239,12011,1704780824644384055,imu_link,0.0032914866530469713,-0.004061705789536072,-0.9534110692233627,-0.30162891397221264,0.0,0.0,0.0,0.0,0.0,0.0,0.0,0.0,0.0,-0.022863813201125717,-0.005585053606381855,-0.16615534478986016,0.0,0.0,0.0,0.0,0.0,0.0,0.0,0.0,0.0,-0.12552512,-0.24712757999999999,9.876277215,0.0,0.0,0.0,0.0,0.0,0.0,0.0,0.0,0.0
1704780824745592491,12012,1704780824745108794,imu_link,0.0033953916545782677,-0.003949310956151221,-0.9509319338658616,-0.3093563178805569,0.0,0.0,0.0,0.0,0.0,0.0,0.0,0.0,0.0,0.00715584993317675,0.008552113334772213,-0.15760323145508795,0.0,0.0,0.0,0.0,0.0,0.0,0.0,0.0,0.0,-0.09904716499999999,-0.45600922499999996,9.725254805,0.0,0.0,0.0,0.0,0.0,0.0,0.0,0.0,0.0
1704780824845274122,12013,1704780824844817939,imu_link,0.0033356794661864916,-0.004886779221440793,-0.9484400353000639,-0.3169013917157086,0.0,0.0,0.0,0.0,0.0,0.0,0.0,0.0,0.0,0.01902408884673819,-0.00017453292519943296,-0.1621410875102732,0.0,0.0,0.0,0.0,0.0,0.0,0.0,0.0,0.0,-0.09218251,0.10395048999999999,9.80665,0.0,0.0,0.0,0.0,0.0,0.0,0.0,0.0,0.0
1704780824944804693,12014,1704780824944064689,imu_link,0.003487767402074506,-0.005437548374450123,-0.9460307980411717,-0.32401234190044137,0.0,0.0,0.0,0.0,0.0,0.0,0.0,0.0,0.0,-0.00890117918517108,0.0020943951023931952,-0.14032447186034408,0.0,0.0,0.0,0.0,0.0,0.0,0.0,0.0,0.0,-0.20593965,0.051975244999999996,9.845876599999999,0.0,0.0,0.0,0.0,0.0,0.0,0.0,0.0,0.0
1704780825044499025,12015,1704780825044058191,imu_link,0.0033451680395426625,-0.004964601821434721,-0.9436340780373778,-0.33093638262676683,0.0,0.0,0.0,0.0,0.0,0.0,0.0,0.0,0.0,-0.0013962634015954637,0.0054105206811824215,-0.15638150097869194,0.0,0.0,0.0,0.0,0.0,0.0,0.0,0.0,0.0,0.075511205,-0.41089863499999996,9.586000375,0.0,0.0,0.0,0.0,0.0,0.0,0.0,0.0,0.0
1704780825144635910,12016,1704780825144285609,imu_link,0.004105754643431275,-0.006115003127320819,-0.940876063467212,-0.3386709062054248,0.0,0.0,0.0,0.0,0.0,0.0,0.0,0.0,0.0,0.011519173063162576,0.017627825445142728,-0.16667894356545848,0.0,0.0,0.0,0.0,0.0,0.0,0.0,0.0,0.0,-0.14906107999999998,-0.10198916,10.178322034999999,0.0,0.0,0.0,0.0,0.0,0.0,0.0,0.0,0.0
1704780825244795649,12017,1704780825244342403,imu_link,0.003973592339827658,-0.006118253768375329,-0.9380669257872147,-0.3463772802579098,0.0,0.0,0.0,0.0,0.0,0.0,0.0,0.0,0.0,-0.0291469985083053,-0.012566370614359173,-0.16859880574265224,0.0,0.0,0.0,0.0,0.0,0.0,0.0,0.0,0.0,-0.5334817599999999,-0.20986230999999997,9.930213789999998,0.0,0.0,0.0,0.0,0.0,0.0,0.0,0.0,0.0
1704780825343882120,12018,1704780825343502037,imu_link,0.004035447330408672,-0.0050895604362867705,-0.9342404273425619,-0.35658468202966365,0.0,0.0,0.0,0.0,0.0,0.0,0.0,0.0,0.0,-0.0036651914291880917,0.028623399732707,-0.26232298657474773,0.0,0.0,0.0,0.0,0.0,0.0,0.0,0.0,0.0,-1.38862164,-0.76688003,9.75369409,0.0,0.0,0.0,0.0,0.0,0.0,0.0,0.0,0.0
1704780825444488240,12019,1704780825444117593,imu_link,0.0041855056585039605,-0.0057862367835487365,-0.9297764149189367,-0.36805545678166035,0.0,0.0,0.0,0.0,0.0,0.0,0.0,0.0,0.0,0.008028514559173916,-0.04084070449666731,-0.20682151636132803,0.0,0.0,0.0,0.0,0.0,0.0,0.0,0.0,0.0,-1.2405412249999999,0.44424124499999995,10.009647654999998,0.0,0.0,0.0,0.0,0.0,0.0,0.0,0.0,0.0
1704780825544275999,12020,1704780825543855510,imu_link,0.0028627672999853157,-0.004551068837774152,-0.9266741937372258,-0.37582712913955835,0.0,0.0,0.0,0.0,0.0,0.0,0.0,0.0,0.0,-0.024609142453120045,-0.01064650843716541,-0.15428710587629874,0.0,0.0,0.0,0.0,0.0,0.0,0.0,0.0,0.0,-0.40305331499999997,-0.014709975,9.95571108,0.0,0.0,0.0,0.0,0.0,0.0,0.0,0.0,0.0
1704780825644717693,12021,1704780825644266147,imu_link,0.0024324399740829157,-0.0034688071118219614,-0.9233328699634016,-0.3839771631987267,0.0,0.0,0.0,0.0,0.0,0.0,0.0,0.0,0.0,-0.00471238898038469,-0.04136430327226561,-0.19024088846738194,0.0,0.0,0.0,0.0,0.0,0.0,0.0,0.0,0.0,-0.21084297499999996,-0.45993188499999993,9.838031280000001,0.0,0.0,0.0,0.0,0.0,0.0,0.0,0.0,0.0
1704780825744875017,12022,1704780825744391598,imu_link,7.348455916071671e-05,-0.0024978464379777584,-0.9198861465146306,-0.3921775526641668,0.0,0.0,0.0,0.0,0.0,0.0,0.0,0.0,0.0,0.0054105206811824215,-0.02199114857512855,-0.16126842288427604,0.0,0.0,0.0,0.0,0.0,0.0,0.0,0.0,0.0,0.6825428399999999,0.24320491999999996,9.838031280000001,0.0,0.0,0.0,0.0,0.0,0.0,0.0,0.0,0.0
1704780825844805817,12023,1704780825844395120,imu_link,-0.0008480245274582691,-0.0023907912410655327,-0.9172308098290635,-0.3983480971110106,0.0,0.0,0.0,0.0,0.0,0.0,0.0,0.0,0.0,0.007504915783575617,-0.041189770347066175,-0.11798425743481668,0.0,0.0,0.0,0.0,0.0,0.0,0.0,0.0,0.0,0.4707192,0.069627215,9.88706453,0.0,0.0,0.0,0.0,0.0,0.0,0.0,0.0,0.0
1704780825944023227,12024,1704780825943589486,imu_link,-0.0018289712002038296,-0.0017686049526854676,-0.9149928334837109,-0.4034620695608453,0.0,0.0,0.0,0.0,0.0,0.0,0.0,0.0,0.0,0.0158824961931484,0.01902408884673819,-0.10663961729685353,0.0,0.0,0.0,0.0,0.0,0.0,0.0,0.0,0.0,0.71196279,-0.16475172,9.98513103,0.0,0.0,0.0,0.0,0.0,0.0,0.0,0.0,0.0
1704780826044393247,12025,1704780826043892232,imu_link,-0.0015295483850370013,-0.0034265662123994524,-0.9131481850371584,-0.4076104896700691,0.0,0.0,0.0,0.0,0.0,0.0,0.0,0.0,0.0,0.027925268031909273,0.008726646259971648,-0.07749261878854824,0.0,0.0,0.0,0.0,0.0,0.0,0.0,0.0,0.0,0.546230405,0.02941995,9.60855567,0.0,0.0,0.0,0.0,0.0,0.0,0.0,0.0,0.0
1704780826144456574,12026,1704780826143997012,imu_link,-0.0017317702864460551,-0.00362253534325555,-0.9113601862281047,-0.4115901956651011,0.0,0.0,0.0,0.0,0.0,0.0,0.0,0.0,0.0,-0.009599310885968814,-0.01780235837034216,-0.09686577348568529,0.0,0.0,0.0,0.0,0.0,0.0,0.0,0.0,0.0,0.395207995,0.28831551,9.930213789999998,0.0,0.0,0.0,0.0,0.0,0.0,0.0,0.0,0.0
1704780826244573013,12027,1704780826244119555,imu_link,-0.0014355229943229266,-0.0025101788729787076,-0.9094505035520207,-0.41580214028397505,0.0,0.0,0.0,0.0,0.0,0.0,0.0,0.0,0.0,-0.027925268031909273,0.020594885173533087,-0.0853466004225227,0.0,0.0,0.0,0.0,0.0,0.0,0.0,0.0,0.0,0.29321883499999996,-0.18828767999999999,10.023376964999999,0.0,0.0,0.0,0.0,0.0,0.0,0.0,0.0,0.0
1704780826343770157,12028,1704780826343350345,imu_link,-4.4531807210769145e-05,-0.0023830894171335865,-0.9076275041319118,-0.41976973764794495,0.0,0.0,0.0,0.0,0.0,0.0,0.0,0.0,0.0,-0.0015707963267948967,0.017627825445142728,-0.09442231253289324,0.0,0.0,0.0,0.0,0.0,0.0,0.0,0.0,0.0,-0.00784532,-0.220649625,9.568348405,0.0,0.0,0.0,0.0,0.0,0.0,0.0,0.0,0.0
1704780826443993216,12029,1704780826443503775,imu_link,0.0014520761429018183,-0.0018370006596445364,-0.9054913177005058,-0.42435832791693057,0.0,0.0,0.0,0.0,0.0,0.0,0.0,0.0,0.0,-0.045727626402251434,0.023736477827122886,-0.10262536001726656,0.0,0.0,0.0,0.0,0.0,0.0,0.0,0.0,0.0,0.033342609999999995,0.28537351499999997,10.164592724999999,0.0,0.0,0.0,0.0,0.0,0.0,0.0,0.0,0.0
1704780826544316946,12030,1704780826543790985,imu_link,0.0033084816605756674,0.0004587866321997967,-0.9034821198836126,-0.4286127652258404,0.0,0.0,0.0,0.0,0.0,0.0,0.0,0.0,0.0,-0.05619960191421742,0.0005235987755982988,-0.08848819307611251,0.0,0.0,0.0,0.0,0.0,0.0,0.0,0.0,0.0,-0.22555294999999997,-0.4932744949999999,9.67327956,0.0,0.0,0.0,0.0,0.0,0.0,0.0,0.0,0.0
1704780826644251215,12031,1704780826643869569,imu_link,0.0033273857472325002,0.0018861659684690673,-0.9012625652693336,-0.43325645907033955,0.0,0.0,0.0,0.0,0.0,0.0,0.0,0.0,0.0,0.0012217304763960308,-0.009599310885968814,-0.1218239817892042,0.0,0.0,0.0,0.0,0.0,0.0,0.0,0.0,0.0,-0.1176798,-0.6648908699999999,9.821359975,0.0,0.0,0.0,0.0,0.0,0.0,0.0,0.0,0.0
1704780826744411657,12032,1704780826743986322,imu_link,0.0025712312480862002,0.0004925762626529364,-0.8986010352161283,-0.43875884680197236,0.0,0.0,0.0,0.0,0.0,0.0,0.0,0.0,0.0,0.01902408884673819,-0.006108652381980153,-0.11501719770642631,0.0,0.0,0.0,0.0,0.0,0.0,0.0,0.0,0.0,-0.07060788,-0.08629852,9.886083865,0.0,0.0,0.0,0.0,0.0,0.0,0.0,0.0,0.0
1704780826844601282,12033,1704780826844211423,imu_link,0.0028100489777591973,-2.8236128926282036e-05,-0.8961360296788513,-0.44377057038394147,0.0,0.0,0.0,0.0,0.0,0.0,0.0,0.0,0.0,-0.005759586531581288,0.018675022996339326,-0.11972958668681102,0.0,0.0,0.0,0.0,0.0,0.0,0.0,0.0,0.0,-0.155925735,0.03530394,9.65758892,0.0,0.0,0.0,0.0,0.0,0.0,0.0,0.0,0.0
1704780826943731127,12034,1704780826943375791,imu_link,0.0029674007354348053,0.0004595184863412235,-0.8930946404498182,-0.44985880737787687,0.0,0.0,0.0,0.0,0.0,0.0,0.0,0.0,0.0,-0.008726646259971648,-0.006108652381980153,-0.14852751934471745,0.0,0.0,0.0,0.0,0.0,0.0,0.0,0.0,0.0,-0.07747253500000001,-0.561921045,10.194012675,0.0,0.0,0.0,0.0,0.0,0.0,0.0,0.0,0.0
1704780827043893154,12035,1704780827043455934,imu_link,0.0030759296274690388,-0.0006959704879012916,-0.889652249868967,-0.45662777903352736,0.0,0.0,0.0,0.0,0.0,0.0,0.0,0.0,0.0,0.029670597283903602,0.023212879051524585,-0.14957471689591406,0.0,0.0,0.0,0.0,0.0,0.0,0.0,0.0,0.0,-0.00196133,-0.283412185,9.474204564999999,0.0,0.0,0.0,0.0,0.0,0.0,0.0,0.0,0.0
1704780827144268766,12036,1704780827143763255,imu_link,0.0031782543260334317,-0.0012663242119160328,-0.886360578927268,-0.4629829578355422,0.0,0.0,0.0,0.0,0.0,0.0,0.0,0.0,0.0,-0.016929693744344998,-0.009773843811168246,-0.14067353771074298,0.0,0.0,0.0,0.0,0.0,0.0,0.0,0.0,0.0,-0.22947561,0.281450855,10.350919075,0.0,0.0,0.0,0.0,0.0,0.0,0.0,0.0,0.0
1704780827244317795,12037,1704780827243919752,imu_link,0.004481704290730119,-0.000308251272469488,-0.8828602210098768,-0.46961436249990796,0.0,0.0,0.0,0.0,0.0,0.0,0.0,0.0,0.0,-0.018675022996339326,0.03752457891787808,-0.15847589608108512,0.0,0.0,0.0,0.0,0.0,0.0,0.0,0.0,0.0,-0.102969825,-0.5982056499999999,9.514411829999998,0.0,0.0,0.0,0.0,0.0,0.0,0.0,0.0,0.0
1704780827343640464,12038,1704780827343005107,imu_link,0.005294414539996535,-0.0004870988326480185,-0.8791840050185038,-0.47645274396211584,0.0,0.0,0.0,0.0,0.0,0.0,0.0,0.0,0.0,0.006806784082777885,-0.0036651914291880917,-0.14608405839192537,0.0,0.0,0.0,0.0,0.0,0.0,0.0,0.0,0.0,-0.0784532,-0.263798885,9.93609778,0.0,0.0,0.0,0.0,0.0,0.0,0.0,0.0,0.0
1704780827443272001,12039,1704780827442838148,imu_link,0.005130062563802034,-0.0006361384188934712,-0.8757102503849016,-0.48280931552406536,0.0,0.0,0.0,0.0,0.0,0.0,0.0,0.0,0.0,-0.016755160819145562,-0.0,-0.1509709802975095,0.0,0.0,0.0,0.0,0.0,0.0,0.0,0.0,0.0,-0.13925443,-0.00392266,9.85960591,0.0,0.0,0.0,0.0,0.0,0.0,0.0,0.0,0.0
1704780827544187953,12040,1704780827543746877,imu_link,0.005884959814256056,0.0004951641787174707,-0.8716345626902319,-0.4901207108297191,0.0,0.0,0.0,0.0,0.0,0.0,0.0,0.0,0.0,-0.03316125578789226,0.007853981633974483,-0.1864011641129944,0.0,0.0,0.0,0.0,0.0,0.0,0.0,0.0,0.0,-0.161809725,-0.661948875,9.750752095,0.0,0.0,0.0,0.0,0.0,0.0,0.0,0.0,0.0
1704780827643999434,12041,1704780827643526431,imu_link,0.006354878107684821,0.0003691160944406368,-0.8666273474403489,-0.49891534346625394,0.0,0.0,0.0,0.0,0.0,0.0,0.0,0.0,0.0,0.02495820830351891,0.008552113334772213,-0.2090904443889207,0.0,0.0,0.0,0.0,0.0,0.0,0.0,0.0,0.0,-0.140235095,-0.73549875,9.894909849999998,0.0,0.0,0.0,0.0,0.0,0.0,0.0,0.0,0.0
1704780827744197794,12042,1704780827743715091,imu_link,0.005468149105162697,-0.0006905396535063944,-0.8614887415333417,-0.5077467584452412,0.0,0.0,0.0,0.0,0.0,0.0,0.0,0.0,0.0,0.021118483949131385,-0.005585053606381855,-0.19739673840055869,0.0,0.0,0.0,0.0,0.0,0.0,0.0,0.0,0.0,-0.14611908499999998,0.038245934999999995,9.792920689999999,0.0,0.0,0.0,0.0,0.0,0.0,0.0,0.0,0.0
1704780827844258686,12043,1704780827843874424,imu_link,0.0056260200142219975,-0.0006390180713169748,-0.8565299704878072,-0.5160662256056486,0.0,0.0,0.0,0.0,0.0,0.0,0.0,0.0,0.0,-0.008377580409572781,-0.0022689280275926286,-0.19355701404617112,0.0,0.0,0.0,0.0,0.0,0.0,0.0,0.0,0.0,-0.29616083,-0.21966896,9.882161205,0.0,0.0,0.0,0.0,0.0,0.0,0.0,0.0,0.0
1704780827943559085,12044,1704780827943130037,imu_link,0.0053342594220547514,0.0005053115456626757,-0.851310116494699,-0.524635469531409,0.0,0.0,0.0,0.0,0.0,0.0,0.0,0.0,0.0,0.006632251157578452,-0.010297442586766544,-0.20804324683772407,0.0,0.0,0.0,0.0,0.0,0.0,0.0,0.0,0.0,0.04412992499999999,-0.695291485,9.69681552,0.0,0.0,0.0,0.0,0.0,0.0,0.0,0.0,0.0
1704780828043576271,12045,1704780828043162322,imu_link,0.005215455234926241,-0.00040108204256321346,-0.8457688850147685,-0.533523787005568,0.0,0.0,0.0,0.0,0.0,0.0,0.0,0.0,0.0,0.02076941809873252,0.007504915783575617,-0.20559978588493202,0.0,0.0,0.0,0.0,0.0,0.0,0.0,0.0,0.0,-0.07354987499999999,-0.240262925,9.99493768,0.0,0.0,0.0,0.0,0.0,0.0,0.0,0.0,0.0
1704780828144028383,12046,1704780828143553900,imu_link,0.005090451430221628,-0.0004803281153008751,-0.8402776511584791,-0.5421322030212994,0.0,0.0,0.0,0.0,0.0,0.0,0.0,0.0,0.0,-0.00942477796076938,0.0038397243543875246,-0.20978857608971838,0.0,0.0,0.0,0.0,0.0,0.0,0.0,0.0,0.0,-0.12944777999999998,-0.12944777999999998,9.691912194999999,0.0,0.0,0.0,0.0,0.0,0.0,0.0,0.0,0.0
1704780828244024147,12047,1704780828243526160,imu_link,0.005686871007560797,0.00021744476011167262,-0.8343620558888976,-0.551187419947854,0.0,0.0,0.0,0.0,0.0,0.0,0.0,0.0,0.0,-0.01832595714594046,-0.0036651914291880917,-0.22130774915288098,0.0,0.0,0.0,0.0,0.0,0.0,0.0,0.0,0.0,-0.09316317499999999,-0.5079844699999999,9.59678769,0.0,0.0,0.0,0.0,0.0,0.0,0.0,0.0,0.0
1704780828343210748,12048,1704780828342685821,imu_link,0.005909916372694483,0.0006385063700804989,-0.8283489478461917,-0.5601809402328771,0.0,0.0,0.0,0.0,0.0,0.0,0.0,0.0,0.0,0.00645771823237902,0.0005235987755982988,-0.2082177797629235,0.0,0.0,0.0,0.0,0.0,0.0,0.0,0.0,0.0,-0.15298373999999998,-0.49425515999999997,10.185186689999998,0.0,0.0,0.0,0.0,0.0,0.0,0.0,0.0,0.0
1704780828443287780,12049,1704780828442883729,imu_link,0.0054139719610910055,0.0009236035855454522,-0.8223885398016321,-0.5688997499269627,0.0,0.0,0.0,0.0,0.0,0.0,0.0,0.0,0.0,0.009075712110370514,-0.002617993877991494,-0.21223203704251045,0.0,0.0,0.0,0.0,0.0,0.0,0.0,0.0,0.0,-0.012748645,-0.197113665,9.454591265,0.0,0.0,0.0,0.0,0.0,0.0,0.0,0.0,0.0
1704780828543708236,12050,1704780828543238786,imu_link,0.0061529012605548855,0.0009935466135634762,-0.8165361124065125,-0.5772607138956054,0.0,0.0,0.0,0.0,0.0,0.0,0.0,0.0,0.0,-0.008552113334772213,0.010821041362364843,-0.1898918226169831,0.0,0.0,0.0,0.0,0.0,0.0,0.0,0.0,0.0,-0.17651969999999997,-0.267721545,10.19695467,0.0,0.0,0.0,0.0,0.0,0.0,0.0,0.0,0.0
1704780828643677590,12051,1704780828643232540,imu_link,0.006538578750495542,0.0013114183597924202,-0.811262874266551,-0.5846435461087236,0.0,0.0,0.0,0.0,0.0,0.0,0.0,0.0,0.0,-0.005585053606381855,0.007853981633974483,-0.18133970928221083,0.0,0.0,0.0,0.0,0.0,0.0,0.0,0.0,0.0,-0.00392266,-0.4550285599999999,9.62620764,0.0,0.0,0.0,0.0,0.0,0.0,0.0,0.0,0.0
1704780828742853310,12052,1704780828742492971,imu_link,0.006310509244350647,0.0007789300598162875,-0.805975623807366,-0.5919145753986517,0.0,0.0,0.0,0.0,0.0,0.0,0.0,0.0,0.0,0.017627825445142728,-0.00890117918517108,-0.18151424220741028,0.0,0.0,0.0,0.0,0.0,0.0,0.0,0.0,0.0,-0.24222425499999997,-0.42266661499999997,10.014550980000001,0.0,0.0,0.0,0.0,0.0,0.0,0.0,0.0,0.0
1704780828843018238,12053,1704780828842600230,imu_link,0.005183293397022389,0.0003705738030524365,-0.8004670587862973,-0.5993542224282993,0.0,0.0,0.0,0.0,0.0,0.0,0.0,0.0,0.0,0.02530727415391778,-0.0036651914291880917,-0.18186330805780915,0.0,0.0,0.0,0.0,0.0,0.0,0.0,0.0,0.0,-0.11964113,-0.17848102999999998,9.659550249999999,0.0,0.0,0.0,0.0,0.0,0.0,0.0,0.0,0.0
1704780828943745947,12054,1704780828943177930,imu_link,0.00481606183876249,-0.00015707431568761114,-0.7956294455805668,-0.6057644477857581,0.0,0.0,0.0,0.0,0.0,0.0,0.0,0.0,0.0,0.007853981633974483,-0.007853981633974483,-0.14206980111233844,0.0,0.0,0.0,0.0,0.0,0.0,0.0,0.0,0.0,-0.09904716499999999,-0.07649186999999999,9.69877685,0.0,0.0,0.0,0.0,0.0,0.0,0.0,0.0,0.0
1704780829043423596,12055,1704780829042920336,imu_link,0.004667426993003638,0.0004726644508205621,-0.7911148709851176,-0.611649615891143,0.0,0.0,0.0,0.0,0.0,0.0,0.0,0.0,0.0,-0.011519173063162576,-0.0006981317007977319,-0.16004669240788,0.0,0.0,0.0,0.0,0.0,0.0,0.0,0.0,0.0,0.004903325,-0.38442067999999996,10.201857995,0.0,0.0,0.0,0.0,0.0,0.0,0.0,0.0,0.0
1704780829143695565,12056,1704780829143247161,imu_link,0.0046611699219106534,-5.110938226585409e-06,-0.785638931565599,-0.6186677158841418,0.0,0.0,0.0,0.0,0.0,0.0,0.0,0.0,0.0,0.02722713633111154,-0.00034906585039886593,-0.18605209826259553,0.0,0.0,0.0,0.0,0.0,0.0,0.0,0.0,0.0,-0.06374322499999999,-0.383440015,9.421248655,0.0,0.0,0.0,0.0,0.0,0.0,0.0,0.0,0.0
1704780829243602522,12057,1704780829243142915,imu_link,0.004442708251608366,-0.0008734193972685892,-0.7807003548555905,-0.6248891544988621,0.0,0.0,0.0,0.0,0.0,0.0,0.0,0.0,0.0,0.003490658503988659,0.024609142453120045,-0.12688543661998775,0.0,0.0,0.0,0.0,0.0,0.0,0.0,0.0,0.0,0.06864655,0.43541525999999997,9.989053689999999,0.0,0.0,0.0,0.0,0.0,0.0,0.0,0.0,0.0
1704780829342557381,12058,1704780829342301938,imu_link,0.005241831134536404,-0.0008765815279251914,-0.777087711347048,-0.6293698782787344,0.0,0.0,0.0,0.0,0.0,0.0,0.0,0.0,0.0,-0.010995574287564275,-0.0041887902047863905,-0.11676252695842064,0.0,0.0,0.0,0.0,0.0,0.0,0.0,0.0,0.0,-0.10198916,-0.38834334,9.63209163,0.0,0.0,0.0,0.0,0.0,0.0,0.0,0.0,0.0
1704780829443119933,12059,1704780829442642976,imu_link,0.0059232715403349425,-0.001584777476913889,-0.7732262349839077,-0.6341006173055023,0.0,0.0,0.0,0.0,0.0,0.0,0.0,0.0,0.0,0.02565634000431664,0.04153883619746504,-0.11885692206081383,0.0,0.0,0.0,0.0,0.0,0.0,0.0,0.0,0.0,-0.0980665,-0.30204482,9.853721919999998,0.0,0.0,0.0,0.0,0.0,0.0,0.0,0.0,0.0
1704780829543291381,12060,1704780829542801780,imu_link,0.005439304833386843,-0.0031463340072929342,-0.7700569806059728,-0.6379441677492288,0.0,0.0,0.0,0.0,0.0,0.0,0.0,0.0,0.0,0.021642082724729686,-0.015009831567151233,-0.09005898940290741,0.0,0.0,0.0,0.0,0.0,0.0,0.0,0.0,0.0,-0.26870221,0.030400614999999995,9.964537065,0.0,0.0,0.0,0.0,0.0,0.0,0.0,0.0,0.0
1704780829643334286,12061,1704780829642955789,imu_link,0.005123436897247306,-0.0032594249686128435,-0.7672100287243314,-0.6413672102376644,0.0,0.0,0.0,0.0,0.0,0.0,0.0,0.0,0.0,-0.015184364492350668,0.017976891295541593,-0.08901179185171079,0.0,0.0,0.0,0.0,0.0,0.0,0.0,0.0,0.0,-0.05295591,0.17063570999999997,9.88706453,0.0,0.0,0.0,0.0,0.0,0.0,0.0,0.0,0.0
1704780829743047635,12062,1704780829742528600,imu_link,0.006362804589026936,-0.002743908613976202,-0.7641804577313397,-0.6449652810072805,0.0,0.0,0.0,0.0,0.0,0.0,0.0,0.0,0.0,-0.02600540585471551,-0.0,-0.09407324668249435,0.0,0.0,0.0,0.0,0.0,0.0,0.0,0.0,0.0,-0.18730701499999997,-0.373633365,9.66347291,0.0,0.0,0.0,0.0,0.0,0.0,0.0,0.0,0.0
1704780829842829348,12063,1704780829842347298,imu_link,0.006237622868568912,-0.0029045274468368974,-0.7613585209673165,-0.6482945768180701,0.0,0.0,0.0,0.0,0.0,0.0,0.0,0.0,0.0,0.017104226669544427,0.004537856055185257,-0.08272860654453122,0.0,0.0,0.0,0.0,0.0,0.0,0.0,0.0,0.0,-0.13631243499999998,-0.375594695,9.57913572,0.0,0.0,0.0,0.0,0.0,0.0,0.0,0.0,0.0
1704780829943010464,12064,1704780829942612805,imu_link,0.00628150133677385,-0.003668971733246966,-0.7586323583856632,-0.6514783390087372,0.0,0.0,0.0,0.0,0.0,0.0,0.0,0.0,0.0,0.004537856055185257,0.015009831567151233,-0.08377580409572781,0.0,0.0,0.0,0.0,0.0,0.0,0.0,0.0,0.0,-0.12748644999999997,0.21084297499999996,10.185186689999998,0.0,0.0,0.0,0.0,0.0,0.0,0.0,0.0,0.0
1704780830042962224,12065,1704780830042576657,imu_link,0.006780507531163105,-0.0031009786342789496,-0.7559566054671897,-0.6545792689198562,0.0,0.0,0.0,0.0,0.0,0.0,0.0,0.0,0.0,-0.024434609527920613,-0.010471975511965976,-0.08080874436733745,0.0,0.0,0.0,0.0,0.0,0.0,0.0,0.0,0.0,-0.132389775,-0.142196425,9.45949459,0.0,0.0,0.0,0.0,0.0,0.0,0.0,0.0,0.0
1704780830143207346,12066,1704780830142772785,imu_link,0.006660511297550246,-0.0024551382585730214,-0.753325858817012,-0.6576091242698796,0.0,0.0,0.0,0.0,0.0,0.0,0.0,0.0,0.0,0.014660765716752367,-0.011344640137963142,-0.07714355293814937,0.0,0.0,0.0,0.0,0.0,0.0,0.0,0.0,0.0,-0.234378935,-0.4932744949999999,10.18322536,0.0,0.0,0.0,0.0,0.0,0.0,0.0,0.0,0.0
1704780830243342883,12067,1704780830242975244,imu_link,0.005096673609136616,-0.003322959157881022,-0.7506773886183955,-0.6606409312763049,0.0,0.0,0.0,0.0,0.0,0.0,0.0,0.0,0.0,0.023561944901923447,0.0027925268031909274,-0.08639379797371932,0.0,0.0,0.0,0.0,0.0,0.0,0.0,0.0,0.0,0.023535959999999998,0.03138128,9.5124505,0.0,0.0,0.0,0.0,0.0,0.0,0.0,0.0,0.0
1704780830342764341,12068,1704780830342242743,imu_link,0.005429315046824992,-0.004005857821756705,-0.7476099085392106,-0.6641038324653966,0.0,0.0,0.0,0.0,0.0,0.0,0.0,0.0,0.0,-0.019547687622336492,-0.0024434609527920616,-0.09128071987930345,0.0,0.0,0.0,0.0,0.0,0.0,0.0,0.0,0.0,-0.20593965,0.330484105,10.070448885,0.0,0.0,0.0,0.0,0.0,0.0,0.0,0.0,0.0
1704780830442788302,12069,1704780830442345301,imu_link,0.005015721074189924,-0.0023762506889098787,-0.7455864821723289,-0.666385769338347,0.0,0.0,0.0,0.0,0.0,0.0,0.0,0.0,0.0,-0.01658062789394613,-0.02530727415391778,-0.034557519189487726,0.0,0.0,0.0,0.0,0.0,0.0,0.0,0.0,0.0,-0.14709974999999997,-0.28635417999999996,9.817437315000001,0.0,0.0,0.0,0.0,0.0,0.0,0.0,0.0,0.0
