%time,field.header.seq,field.header.stamp,field.header.frame_id,field.status.status,field.status.service,field.latitude,field.longitude,field.altitude,field.position_covariance0,field.position_covariance1,field.position_covariance2,field.position_covariance3,field.position_covariance4,field.position_covariance5,field.position_covariance6,field.position_covariance7,field.position_covariance8,field.position_covariance_type
1704779910031946641,2862,1704779910031626825,gnss_link,0,1,36.90411263,118.16645613,1.6065755764607803,0.0,0.0,0.0,0.0,0.0,0.0,0.0,0.0,0.0,2
1704779910131612501,2863,1704779910131252817,gnss_link,0,1,36.90411263,118.16645613,1.6065755764607803,0.0,0.0,0.0,0.0,0.0,0.0,0.0,0.0,0.0,2
1704779910231212541,2864,1704779910230992737,gnss_link,0,1,36.90411264,118.16645614,1.6065755764607803,0.0,0.0,0.0,0.0,0.0,0.0,0.0,0.0,0.0,2
1704779910331818058,2865,1704779910331369833,gnss_link,0,1,36.90411264,118.16645615,1.6065755764607803,0.0,0.0,0.0,0.0,0.0,0.0,0.0,0.0,0.0,2
1704779910431923641,2866,1704779910431499297,gnss_link,0,1,36.90411265,118.16645615,1.6065755764607803,0.0,0.0,0.0,0.0,0.0,0.0,0.0,0.0,0.0,2
1704779910531374980,2867,1704779910531074662,gnss_link,0,1,36.90411265,118.16645616,1.6065755764607803,0.0,0.0,0.0,0.0,0.0,0.0,0.0,0.0,0.0,2
1704779910630993207,2868,1704779910630686414,gnss_link,0,1,36.90411266,118.16645615,1.6065755764607803,0.0,0.0,0.0,0.0,0.0,0.0,0.0,0.0,0.0,2
1704779910730846871,2869,1704779910730221793,gnss_link,0,1,36.90411266,118.16645616,1.6065755764607803,0.0,0.0,0.0,0.0,0.0,0.0,0.0,0.0,0.0,2
1704779910831345390,2870,1704779910831091576,gnss_link,0,1,36.90411266,118.16645614,1.6065755764607803,0.0,0.0,0.0,0.0,0.0,0.0,0.0,0.0,0.0,2
1704779910932631096,2871,1704779910932317549,gnss_link,0,1,36.90411266,118.16645615,1.6065755764607803,0.0,0.0,0.0,0.0,0.0,0.0,0.0,0.0,0.0,2
1704779911031243898,2872,1704779911030816096,gnss_link,0,1,36.90411266,118.16645614,1.6065755764607803,0.0,0.0,0.0,0.0,0.0,0.0,0.0,0.0,0.0,2
1704779911130601398,2873,1704779911130316178,gnss_link,0,1,36.90411266,118.16645614,1.6065755764607803,0.0,0.0,0.0,0.0,0.0,0.0,0.0,0.0,0.0,2
1704779911231552317,2874,1704779911231160792,gnss_link,0,1,36.90411266,118.16645613,1.6065755764607803,0.0,0.0,0.0,0.0,0.0,0.0,0.0,0.0,0.0,2
1704779911331783141,2875,1704779911330908304,gnss_link,0,1,36.90411266,118.16645614,1.6065755764607803,0.0,0.0,0.0,0.0,0.0,0.0,0.0,0.0,0.0,2
1704779911430977664,2876,1704779911430578811,gnss_link,0,1,36.90411266,118.16645613,1.6065755764607803,0.0,0.0,0.0,0.0,0.0,0.0,0.0,0.0,0.0,2
1704779911530324231,2877,1704779911529934502,gnss_link,0,1,36.90411265,118.16645614,1.6065755764607803,0.0,0.0,0.0,0.0,0.0,0.0,0.0,0.0,0.0,2
1704779911631065775,2878,1704779911630825782,gnss_link,0,1,36.90411266,118.16645613,1.6065755764607803,0.0,0.0,0.0,0.0,0.0,0.0,0.0,0.0,0.0,2
1704779911730693069,2879,1704779911730347758,gnss_link,0,1,36.90411265,118.16645613,1.6065755764607803,0.0,0.0,0.0,0.0,0.0,0.0,0.0,0.0,0.0,2
1704779911831110241,2880,1704779911830340731,gnss_link,0,1,36.90411266,118.16645612,1.6065755764607803,0.0,0.0,0.0,0.0,0.0,0.0,0.0,0.0,0.0,2
1704779911929999318,2881,1704779911929643428,gnss_link,0,1,36.90411266,118.16645612,1.6065755764607803,0.0,0.0,0.0,0.0,0.0,0.0,0.0,0.0,0.0,2
1704779912031183965,2882,1704779912030564262,gnss_link,0,1,36.90411265,118.16645611,1.6065755764607803,0.0,0.0,0.0,0.0,0.0,0.0,0.0,0.0,0.0,2
1704779912131076827,2883,1704779912130312619,gnss_link,0,1,36.90411265,118.16645611,1.6065755764607803,0.0,0.0,0.0,0.0,0.0,0.0,0.0,0.0,0.0,2
1704779912232716969,2884,1704779912231115087,gnss_link,0,1,36.90411265,118.16645611,1.6065755764607803,0.0,0.0,0.0,0.0,0.0,0.0,0.0,0.0,0.0,2
1704779912331236577,2885,1704779912330493903,gnss_link,0,1,36.90411265,118.16645611,1.6065755764607803,0.0,0.0,0.0,0.0,0.0,0.0,0.0,0.0,0.0,2
1704779912430957280,2886,1704779912430352762,gnss_link,0,1,36.90411265,118.1664561,1.6065755764607803,0.0,0.0,0.0,0.0,0.0,0.0,0.0,0.0,0.0,2
1704779912530775058,2887,1704779912529865444,gnss_link,0,1,36.90411265,118.1664561,1.606401043535581,0.0,0.0,0.0,0.0,0.0,0.0,0.0,0.0,0.0,2
1704779912631439815,2888,1704779912630944861,gnss_link,0,1,36.90411265,118.16645611,1.606401043535581,0.0,0.0,0.0,0.0,0.0,0.0,0.0,0.0,0.0,2
1704779912730918936,2889,1704779912730102195,gnss_link,0,1,36.90411265,118.16645611,1.606401043535581,0.0,0.0,0.0,0.0,0.0,0.0,0.0,0.0,0.0,2
1704779912830592939,2890,1704779912830018677,gnss_link,0,1,36.90411265,118.16645611,1.606401043535581,0.0,0.0,0.0,0.0,0.0,0.0,0.0,0.0,0.0,2
1704779912930782422,2891,1704779912929575916,gnss_link,0,1,36.90411265,118.16645611,1.606401043535581,0.0,0.0,0.0,0.0,0.0,0.0,0.0,0.0,0.0,2
1704779913030841319,2892,1704779913030145033,gnss_link,0,1,36.90411266,118.16645611,1.606401043535581,0.0,0.0,0.0,0.0,0.0,0.0,0.0,0.0,0.0,2
1704779913132541933,2893,1704779913131910353,gnss_link,0,1,36.90411266,118.16645611,1.606401043535581,0.0,0.0,0.0,0.0,0.0,0.0,0.0,0.0,0.0,2
1704779913231363322,2894,1704779913230764031,gnss_link,0,1,36.90411266,118.1664561,1.606401043535581,0.0,0.0,0.0,0.0,0.0,0.0,0.0,0.0,0.0,2
1704779913331499536,2895,1704779913330228282,gnss_link,0,1,36.90411266,118.1664561,1.606401043535581,0.0,0.0,0.0,0.0,0.0,0.0,0.0,0.0,0.0,2
1704779913430594272,2896,1704779913429971075,gnss_link,0,1,36.90411267,118.1664561,1.606401043535581,0.0,0.0,0.0,0.0,0.0,0.0,0.0,0.0,0.0,2
1704779913530179339,2897,1704779913529527324,gnss_link,0,1,36.90411267,118.1664561,1.606401043535581,0.0,0.0,0.0,0.0,0.0,0.0,0.0,0.0,0.0,2
1704779913631358251,2898,1704779913630631075,gnss_link,0,1,36.90411267,118.1664561,1.6065755764607803,0.0,0.0,0.0,0.0,0.0,0.0,0.0,0.0,0.0,2
1704779913730879334,2899,1704779913730155216,gnss_link,0,1,36.90411267,118.1664561,1.6065755764607803,0.0,0.0,0.0,0.0,0.0,0.0,0.0,0.0,0.0,2
1704779913830460406,2900,1704779913829887352,gnss_link,0,1,36.90411268,118.16645609,1.6065755764607803,0.0,0.0,0.0,0.0,0.0,0.0,0.0,0.0,0.0,2
1704779913929937448,2901,1704779913929303456,gnss_link,0,1,36.90411268,118.16645609,1.6065755764607803,0.0,0.0,0.0,0.0,0.0,0.0,0.0,0.0,0.0,2
1704779914031012036,2902,1704779914030025049,gnss_link,0,1,36.90411268,118.16645608,1.6065755764607803,0.0,0.0,0.0,0.0,0.0,0.0,0.0,0.0,0.0,2
1704779914131132128,2903,1704779914130506924,gnss_link,0,1,36.90411268,118.16645608,1.6065755764607803,0.0,0.0,0.0,0.0,0.0,0.0,0.0,0.0,0.0,2
1704779914230190200,2904,1704779914229699552,gnss_link,0,1,36.90411269,118.16645608,1.6065755764607803,0.0,0.0,0.0,0.0,0.0,0.0,0.0,0.0,0.0,2
1704779914331076494,2905,1704779914330375514,gnss_link,0,1,36.90411269,118.16645608,1.6065755764607803,0.0,0.0,0.0,0.0,0.0,0.0,0.0,0.0,0.0,2
1704779914430723315,2906,1704779914430099436,gnss_link,0,1,36.90411269,118.16645607,1.6065755764607803,0.0,0.0,0.0,0.0,0.0,0.0,0.0,0.0,0.0,2
1704779914529965400,2907,1704779914529212654,gnss_link,0,1,36.90411269,118.16645607,1.6065755764607803,0.0,0.0,0.0,0.0,0.0,0.0,0.0,0.0,0.0,2
1704779914630547344,2908,1704779914630069311,gnss_link,0,1,36.9041127,118.16645607,1.6065755764607803,0.0,0.0,0.0,0.0,0.0,0.0,0.0,0.0,0.0,2
1704779914730191821,2909,1704779914729630647,gnss_link,0,1,36.9041127,118.16645607,1.6065755764607803,0.0,0.0,0.0,0.0,0.0,0.0,0.0,0.0,0.0,2
1704779914830045023,2910,1704779914829454424,gnss_link,0,1,36.90411271,118.16645606,1.6065755764607803,0.0,0.0,0.0,0.0,0.0,0.0,0.0,0.0,0.0,2
1704779914929517427,2911,1704779914928945697,gnss_link,0,1,36.90411271,118.16645605,1.6065755764607803,0.0,0.0,0.0,0.0,0.0,0.0,0.0,0.0,0.0,2
1704779915030523522,2912,1704779915029879023,gnss_link,0,1,36.90411271,118.16645606,1.606401043535581,0.0,0.0,0.0,0.0,0.0,0.0,0.0,0.0,0.0,2
1704779915129717876,2913,1704779915129196129,gnss_link,0,1,36.90411271,118.16645605,1.606401043535581,0.0,0.0,0.0,0.0,0.0,0.0,0.0,0.0,0.0,2
1704779915230805252,2914,1704779915230252572,gnss_link,0,1,36.90411272,118.16645605,1.606401043535581,0.0,0.0,0.0,0.0,0.0,0.0,0.0,0.0,0.0,2
1704779915330660810,2915,1704779915329685752,gnss_link,0,1,36.90411272,118.16645605,1.606401043535581,0.0,0.0,0.0,0.0,0.0,0.0,0.0,0.0,0.0,2
1704779915430015206,2916,1704779915429464866,gnss_link,0,1,36.90411274,118.16645605,1.606401043535581,0.0,0.0,0.0,0.0,0.0,0.0,0.0,0.0,0.0,2
1704779915529503103,2917,1704779915528957239,gnss_link,0,1,36.90411274,118.16645605,1.606401043535581,0.0,0.0,0.0,0.0,0.0,0.0,0.0,0.0,0.0,2
1704779915630398293,2918,1704779915629856915,gnss_link,0,1,36.90411275,118.16645605,1.606401043535581,0.0,0.0,0.0,0.0,0.0,0.0,0.0,0.0,0.0,2
1704779915729904503,2919,1704779915729362668,gnss_link,0,1,36.90411275,118.16645604,1.6065755764607803,0.0,0.0,0.0,0.0,0.0,0.0,0.0,0.0,0.0,2
1704779915829618629,2920,1704779915829132051,gnss_link,0,1,36.90411277,118.16645604,1.6065755764607803,0.0,0.0,0.0,0.0,0.0,0.0,0.0,0.0,0.0,2
1704779915929647219,2921,1704779915928705455,gnss_link,0,1,36.90411277,118.16645604,1.6065755764607803,0.0,0.0,0.0,0.0,0.0,0.0,0.0,0.0,0.0,2
1704779916029839149,2922,1704779916029333227,gnss_link,0,1,36.90411279,118.16645603,1.6065755764607803,0.0,0.0,0.0,0.0,0.0,0.0,0.0,0.0,0.0,2
1704779916129824503,2923,1704779916129068422,gnss_link,0,1,36.90411279,118.16645603,1.6065755764607803,0.0,0.0,0.0,0.0,0.0,0.0,0.0,0.0,0.0,2
1704779916230475196,2924,1704779916229860427,gnss_link,0,1,36.90411279,118.16645603,1.6065755764607803,0.0,0.0,0.0,0.0,0.0,0.0,0.0,0.0,0.0,2
1704779916329783815,2925,1704779916329206320,gnss_link,0,1,36.90411279,118.16645603,1.6065755764607803,0.0,0.0,0.0,0.0,0.0,0.0,0.0,0.0,0.0,2
1704779916429681840,2926,1704779916429138848,gnss_link,0,1,36.9041128,118.16645602,1.6065755764607803,0.0,0.0,0.0,0.0,0.0,0.0,0.0,0.0,0.0,2
1704779916529337126,2927,1704779916528830967,gnss_link,0,1,36.9041128,118.16645602,1.6065755764607803,0.0,0.0,0.0,0.0,0.0,0.0,0.0,0.0,0.0,2
1704779916629977861,2928,1704779916629487528,gnss_link,0,1,36.90411281,118.16645601,1.6065755764607803,0.0,0.0,0.0,0.0,0.0,0.0,0.0,0.0,0.0,2
1704779916729537130,2929,1704779916728990261,gnss_link,0,1,36.90411281,118.16645601,1.6065755764607803,0.0,0.0,0.0,0.0,0.0,0.0,0.0,0.0,0.0,2
1704779916829480707,2930,1704779916828991484,gnss_link,0,1,36.90411282,118.16645601,1.6065755764607803,0.0,0.0,0.0,0.0,0.0,0.0,0.0,0.0,0.0,2
1704779916928934722,2931,1704779916928353553,gnss_link,0,1,36.90411282,118.166456,1.6065755764607803,0.0,0.0,0.0,0.0,0.0,0.0,0.0,0.0,0.0,2
1704779917029328321,2932,1704779917028837566,gnss_link,0,1,36.90411282,118.166456,1.6065755764607803,0.0,0.0,0.0,0.0,0.0,0.0,0.0,0.0,0.0,2
1704779917129303825,2933,1704779917128741192,gnss_link,0,1,36.90411282,118.166456,1.6065755764607803,0.0,0.0,0.0,0.0,0.0,0.0,0.0,0.0,0.0,2
1704779917229842885,2934,1704779917229352043,gnss_link,0,1,36.90411281,118.16645601,1.6065755764607803,0.0,0.0,0.0,0.0,0.0,0.0,0.0,0.0,0.0,2
1704779917329634614,2935,1704779917329181328,gnss_link,0,1,36.90411281,118.16645601,1.6065755764607803,0.0,0.0,0.0,0.0,0.0,0.0,0.0,0.0,0.0,2
1704779917428664543,2936,1704779917428105665,gnss_link,0,1,36.9041128,118.16645601,1.6065755764607803,0.0,0.0,0.0,0.0,0.0,0.0,0.0,0.0,0.0,2
1704779917529152253,2937,1704779917528687600,gnss_link,0,1,36.9041128,118.16645601,1.6065755764607803,0.0,0.0,0.0,0.0,0.0,0.0,0.0,0.0,0.0,2
1704779917629212343,2938,1704779917628746238,gnss_link,0,1,36.9041128,118.16645601,1.6065755764607803,0.0,0.0,0.0,0.0,0.0,0.0,0.0,0.0,0.0,2
1704779917729659963,2939,1704779917729159186,gnss_link,0,1,36.9041128,118.166456,1.6065755764607803,0.0,0.0,0.0,0.0,0.0,0.0,0.0,0.0,0.0,2
1704779917828982305,2940,1704779917828451533,gnss_link,0,1,36.90411279,118.16645601,1.6065755764607803,0.0,0.0,0.0,0.0,0.0,0.0,0.0,0.0,0.0,2
1704779917928836472,2941,1704779917928234231,gnss_link,0,1,36.90411279,118.16645601,1.6065755764607803,0.0,0.0,0.0,0.0,0.0,0.0,0.0,0.0,0.0,2
1704779918029589187,2942,1704779918029107147,gnss_link,0,1,36.90411278,118.16645602,1.6065755764607803,0.0,0.0,0.0,0.0,0.0,0.0,0.0,0.0,0.0,2
1704779918128851384,2943,1704779918128250573,gnss_link,0,1,36.90411278,118.16645601,1.6065755764607803,0.0,0.0,0.0,0.0,0.0,0.0,0.0,0.0,0.0,2
1704779918229647733,2944,1704779918229039925,gnss_link,0,1,36.90411278,118.16645603,1.6065755764607803,0.0,0.0,0.0,0.0,0.0,0.0,0.0,0.0,0.0,2
1704779918329453895,2945,1704779918329001468,gnss_link,0,1,36.90411278,118.16645607,1.6065755764607803,0.0,0.0,0.0,0.0,0.0,0.0,0.0,0.0,0.0,2
1704779918428137938,2946,1704779918427629918,gnss_link,0,1,36.90411276,118.16645617,1.6065755764607803,0.0,0.0,0.0,0.0,0.0,0.0,0.0,0.0,0.0,2
1704779918528882903,2947,1704779918528317291,gnss_link,0,1,36.90411276,118.16645632,1.606401043535581,0.0,0.0,0.0,0.0,0.0,0.0,0.0,0.0,0.0,2
1704779918629114695,2948,1704779918628620462,gnss_link,0,1,36.90411273,118.16645657,1.606401043535581,0.0,0.0,0.0,0.0,0.0,0.0,0.0,0.0,0.0,2
1704779918728818019,2949,1704779918728238421,gnss_link,0,1,36.90411272,118.16645684,1.6062265106103815,0.0,0.0,0.0,0.0,0.0,0.0,0.0,0.0,0.0,2
1704779918828498047,2950,1704779918828031523,gnss_link,0,1,36.9041127,118.16645717,1.606401043535581,0.0,0.0,0.0,0.0,0.0,0.0,0.0,0.0,0.0,2
1704779918928773060,2951,1704779918928198492,gnss_link,0,1,36.90411269,118.16645751,1.6062265106103815,0.0,0.0,0.0,0.0,0.0,0.0,0.0,0.0,0.0,2
1704779919028195680,2952,1704779919027677502,gnss_link,0,1,36.90411269,118.16645786,1.6062265106103815,0.0,0.0,0.0,0.0,0.0,0.0,0.0,0.0,0.0,2
1704779919129056467,2953,1704779919128528768,gnss_link,0,1,36.90411267,118.16645821,1.6058774447599826,0.0,0.0,0.0,0.0,0.0,0.0,0.0,0.0,0.0,2
1704779919229432440,2954,1704779919228839448,gnss_link,0,1,36.90411266,118.16645857,1.6058774447599826,0.0,0.0,0.0,0.0,0.0,0.0,0.0,0.0,0.0,2
1704779919329224300,2955,1704779919328632644,gnss_link,0,1,36.90411265,118.16645892,1.6058774447599826,0.0,0.0,0.0,0.0,0.0,0.0,0.0,0.0,0.0,2
1704779919428266026,2956,1704779919427578177,gnss_link,0,1,36.90411264,118.16645931,1.6058774447599826,0.0,0.0,0.0,0.0,0.0,0.0,0.0,0.0,0.0,2
1704779919528540198,2957,1704779919528063521,gnss_link,0,1,36.90411263,118.16645972,1.6057029118347832,0.0,0.0,0.0,0.0,0.0,0.0,0.0,0.0,0.0,2
1704779919628771221,2958,1704779919628165730,gnss_link,0,1,36.9041126,118.16646019,1.6057029118347832,0.0,0.0,0.0,0.0,0.0,0.0,0.0,0.0,0.0,2
1704779919728377876,2959,1704779919727834644,gnss_link,0,1,36.90411259,118.1664607,1.6053538459843844,0.0,0.0,0.0,0.0,0.0,0.0,0.0,0.0,0.0,2
1704779919828287024,2960,1704779919827840170,gnss_link,0,1,36.90411256,118.16646127,1.605179313059185,0.0,0.0,0.0,0.0,0.0,0.0,0.0,0.0,0.0,2
1704779919928305091,2961,1704779919927680187,gnss_link,0,1,36.90411254,118.16646189,1.605179313059185,0.0,0.0,0.0,0.0,0.0,0.0,0.0,0.0,0.0,2
1704779920028071639,2962,1704779920027466134,gnss_link,0,1,36.90411251,118.16646257,1.604830247208786,0.0,0.0,0.0,0.0,0.0,0.0,0.0,0.0,0.0,2
1704779920128765922,2963,1704779920128158398,gnss_link,0,1,36.90411249,118.1664633,1.604830247208786,0.0,0.0,0.0,0.0,0.0,0.0,0.0,0.0,0.0,2
1704779920227939507,2964,1704779920227421052,gnss_link,0,1,36.90411246,118.16646411,1.604830247208786,0.0,0.0,0.0,0.0,0.0,0.0,0.0,0.0,0.0,2
1704779920327574899,2965,1704779920326948001,gnss_link,0,1,36.90411243,118.16646496,1.6046557142835864,0.0,0.0,0.0,0.0,0.0,0.0,0.0,0.0,0.0,2
1704779920428257860,2966,1704779920427767628,gnss_link,0,1,36.9041124,118.16646587,1.6044811813583872,0.0,0.0,0.0,0.0,0.0,0.0,0.0,0.0,0.0,2
1704779920528251315,2967,1704779920527686827,gnss_link,0,1,36.90411236,118.16646682,1.6043066484331878,0.0,0.0,0.0,0.0,0.0,0.0,0.0,0.0,0.0,2
1704779920628090265,2968,1704779920627484598,gnss_link,0,1,36.90411233,118.1664678,1.6041321155079882,0.0,0.0,0.0,0.0,0.0,0.0,0.0,0.0,0.0,2
1704779920728545659,2969,1704779920728108935,gnss_link,0,1,36.90411229,118.16646879,1.603957582582789,0.0,0.0,0.0,0.0,0.0,0.0,0.0,0.0,0.0,2
1704779920827699057,2970,1704779920827222783,gnss_link,0,1,36.90411226,118.1664698,1.6043066484331878,0.0,0.0,0.0,0.0,0.0,0.0,0.0,0.0,0.0,2
1704779920927691418,2971,1704779920927118012,gnss_link,0,1,36.90411224,118.16647078,1.6044811813583872,0.0,0.0,0.0,0.0,0.0,0.0,0.0,0.0,0.0,2
1704779921028878294,2972,1704779921028141818,gnss_link,0,1,36.90411221,118.16647177,1.6044811813583872,0.0,0.0,0.0,0.0,0.0,0.0,0.0,0.0,0.0,2
1704779921128410663,2973,1704779921127819684,gnss_link,0,1,36.90411218,118.16647274,1.604830247208786,0.0,0.0,0.0,0.0,0.0,0.0,0.0,0.0,0.0,2
1704779921227076154,2974,1704779921226491053,gnss_link,0,1,36.90411215,118.16647369,1.6046557142835864,0.0,0.0,0.0,0.0,0.0,0.0,0.0,0.0,0.0,2
1704779921328422647,2975,1704779921327701267,gnss_link,0,1,36.90411212,118.16647463,1.6044811813583872,0.0,0.0,0.0,0.0,0.0,0.0,0.0,0.0,0.0,2
1704779921427744345,2976,1704779921427229069,gnss_link,0,1,36.9041121,118.16647557,1.6043066484331878,0.0,0.0,0.0,0.0,0.0,0.0,0.0,0.0,0.0,2
1704779921527796962,2977,1704779921527298741,gnss_link,0,1,36.90411209,118.16647648,1.603957582582789,0.0,0.0,0.0,0.0,0.0,0.0,0.0,0.0,0.0,2
1704779921628076110,2978,1704779921627554545,gnss_link,0,1,36.90411205,118.16647737,1.6034339838071907,0.0,0.0,0.0,0.0,0.0,0.0,0.0,0.0,0.0,2
1704779921727945099,2979,1704779921727376392,gnss_link,0,1,36.90411202,118.16647826,1.6034339838071907,0.0,0.0,0.0,0.0,0.0,0.0,0.0,0.0,0.0,2
1704779921828051251,2980,1704779921827342257,gnss_link,0,1,36.90411199,118.16647915,1.6030849179567916,0.0,0.0,0.0,0.0,0.0,0.0,0.0,0.0,0.0,2
1704779921928897626,2981,1704779921928367306,gnss_link,0,1,36.90411197,118.16648005,1.6027358521063928,0.0,0.0,0.0,0.0,0.0,0.0,0.0,0.0,0.0,2
1704779922026951817,2982,1704779922026333164,gnss_link,0,1,36.90411194,118.16648096,1.6025613191811934,0.0,0.0,0.0,0.0,0.0,0.0,0.0,0.0,0.0,2
1704779922127560869,2983,1704779922126998455,gnss_link,0,1,36.90411192,118.16648189,1.6022122533307945,0.0,0.0,0.0,0.0,0.0,0.0,0.0,0.0,0.0,2
1704779922227635257,2984,1704779922227018075,gnss_link,0,1,36.90411188,118.16648285,1.601688654555196,0.0,0.0,0.0,0.0,0.0,0.0,0.0,0.0,0.0,2
1704779922327716163,2985,1704779922327216216,gnss_link,0,1,36.90411184,118.16648386,1.6015141216299968,0.0,0.0,0.0,0.0,0.0,0.0,0.0,0.0,0.0,2
1704779922427974581,2986,1704779922427356618,gnss_link,0,1,36.90411182,118.16648492,1.6013395887047974,0.0,0.0,0.0,0.0,0.0,0.0,0.0,0.0,0.0,2
1704779922527978318,2987,1704779922527463979,gnss_link,0,1,36.9041118,118.16648603,1.6011650557795978,0.0,0.0,0.0,0.0,0.0,0.0,0.0,0.0,0.0,2
1704779922626984872,2988,1704779922626390871,gnss_link,0,1,36.90411177,118.16648722,1.6013395887047974,0.0,0.0,0.0,0.0,0.0,0.0,0.0,0.0,0.0,2
1704779922727413545,2989,1704779922726872295,gnss_link,0,1,36.90411174,118.16648843,1.6011650557795978,0.0,0.0,0.0,0.0,0.0,0.0,0.0,0.0,0.0,2
1704779922827560654,2990,1704779922827104982,gnss_link,0,1,36.90411172,118.16648967,1.6013395887047974,0.0,0.0,0.0,0.0,0.0,0.0,0.0,0.0,0.0,2
1704779922927260647,2991,1704779922926690252,gnss_link,0,1,36.90411169,118.16649093,1.6009905228543986,0.0,0.0,0.0,0.0,0.0,0.0,0.0,0.0,0.0,2
1704779923026539139,2992,1704779923026034531,gnss_link,0,1,36.90411166,118.16649221,1.6009905228543986,0.0,0.0,0.0,0.0,0.0,0.0,0.0,0.0,0.0,2
1704779923127461014,2993,1704779923126712281,gnss_link,0,1,36.90411163,118.16649349,1.6011650557795978,0.0,0.0,0.0,0.0,0.0,0.0,0.0,0.0,0.0,2
1704779923227339811,2994,1704779923226772922,gnss_link,0,1,36.9041116,118.16649477,1.600815989929199,0.0,0.0,0.0,0.0,0.0,0.0,0.0,0.0,0.0,2
1704779923327533178,2995,1704779923326945020,gnss_link,0,1,36.90411156,118.16649604,1.6006414570039995,0.0,0.0,0.0,0.0,0.0,0.0,0.0,0.0,0.0,2
1704779923428094180,2996,1704779923427410939,gnss_link,0,1,36.90411153,118.1664973,1.6002923911536007,0.0,0.0,0.0,0.0,0.0,0.0,0.0,0.0,0.0,2
1704779923527358416,2997,1704779923526916936,gnss_link,0,1,36.9041115,118.16649854,1.6002923911536007,0.0,0.0,0.0,0.0,0.0,0.0,0.0,0.0,0.0,2
1704779923627299280,2998,1704779923626725188,gnss_link,0,1,36.90411147,118.16649978,1.6001178582284015,0.0,0.0,0.0,0.0,0.0,0.0,0.0,0.0,0.0,2
1704779923727120187,2999,1704779923726585836,gnss_link,0,1,36.90411144,118.166501,1.5997687923780024,0.0,0.0,0.0,0.0,0.0,0.0,0.0,0.0,0.0,2
1704779923827324950,3000,1704779923826826086,gnss_link,0,1,36.90411141,118.16650222,1.5994197265276036,0.0,0.0,0.0,0.0,0.0,0.0,0.0,0.0,0.0,2
1704779923927044764,3001,1704779923926525031,gnss_link,0,1,36.90411137,118.16650345,1.5990706606772047,0.0,0.0,0.0,0.0,0.0,0.0,0.0,0.0,0.0,2
1704779924026658461,3002,1704779924025969647,gnss_link,0,1,36.90411134,118.1665047,1.5990706606772047,0.0,0.0,0.0,0.0,0.0,0.0,0.0,0.0,0.0,2
1704779924126842597,3003,1704779924126251821,gnss_link,0,1,36.90411132,118.16650599,1.5988961277520053,0.0,0.0,0.0,0.0,0.0,0.0,0.0,0.0,0.0,2
1704779924227190583,3004,1704779924226458680,gnss_link,0,1,36.90411129,118.16650735,1.5988961277520053,0.0,0.0,0.0,0.0,0.0,0.0,0.0,0.0,0.0,2
1704779924327079540,3005,1704779924326614668,gnss_link,0,1,36.90411125,118.16650875,1.598372528976407,0.0,0.0,0.0,0.0,0.0,0.0,0.0,0.0,0.0,2
1704779924427446074,3006,1704779924426846465,gnss_link,0,1,36.90411121,118.16651022,1.5981979960512074,0.0,0.0,0.0,0.0,0.0,0.0,0.0,0.0,0.0,2
1704779924527124039,3007,1704779924526576449,gnss_link,0,1,36.90411118,118.16651173,1.5981979960512074,0.0,0.0,0.0,0.0,0.0,0.0,0.0,0.0,0.0,2
1704779924627008246,3008,1704779924626453096,gnss_link,0,1,36.90411113,118.16651328,1.5980234631260082,0.0,0.0,0.0,0.0,0.0,0.0,0.0,0.0,0.0,2
1704779924726718499,3009,1704779924726250036,gnss_link,0,1,36.90411108,118.16651484,1.598372528976407,0.0,0.0,0.0,0.0,0.0,0.0,0.0,0.0,0.0,2
1704779924826459837,3010,1704779924825978269,gnss_link,0,1,36.90411104,118.1665164,1.5985470619016064,0.0,0.0,0.0,0.0,0.0,0.0,0.0,0.0,0.0,2
1704779924927235519,3011,1704779924926718097,gnss_link,0,1,36.904111,118.16651797,1.5988961277520053,0.0,0.0,0.0,0.0,0.0,0.0,0.0,0.0,0.0,2
1704779925027022355,3012,1704779925026257699,gnss_link,0,1,36.90411096,118.16651954,1.6004669240788003,0.0,0.0,0.0,0.0,0.0,0.0,0.0,0.0,0.0,2
1704779925126355456,3013,1704779925125805383,gnss_link,0,1,36.90411092,118.16652109,1.6065755764607803,0.0,0.0,0.0,0.0,0.0,0.0,0.0,0.0,0.0,2
1704779925226697359,3014,1704779925226169631,gnss_link,0,1,36.90411085,118.16652264,1.613731426393957,0.0,0.0,0.0,0.0,0.0,0.0,0.0,0.0,0.0,2
1704779925326896297,3015,1704779925326312408,gnss_link,0,1,36.90411079,118.16652417,1.6201891446263361,0.0,0.0,0.0,0.0,0.0,0.0,0.0,0.0,0.0,2
1704779925427148464,3016,1704779925426585869,gnss_link,0,1,36.90411071,118.16652571,1.626995928709114,0.0,0.0,0.0,0.0,0.0,0.0,0.0,0.0,0.0,2
1704779925527217109,3017,1704779925526760654,gnss_link,0,1,36.90411064,118.16652722,1.631010185988701,0.0,0.0,0.0,0.0,0.0,0.0,0.0,0.0,0.0,2
1704779925626368208,3018,1704779925625789303,gnss_link,0,1,36.90411057,118.16652875,1.6315337847642992,0.0,0.0,0.0,0.0,0.0,0.0,0.0,0.0,0.0,2
1704779925726589371,3019,1704779925726036225,gnss_link,0,1,36.90411049,118.16653022,1.633104581091094,0.0,0.0,0.0,0.0,0.0,0.0,0.0,0.0,0.0,2
1704779925826948704,3020,1704779925826296572,gnss_link,0,1,36.90411041,118.16653163,1.6339772457170914,0.0,0.0,0.0,0.0,0.0,0.0,0.0,0.0,0.0,2
1704779925926884603,3021,1704779925926296721,gnss_link,0,1,36.90411034,118.16653287,1.633802712791892,0.0,0.0,0.0,0.0,0.0,0.0,0.0,0.0,0.0,2
1704779926026204461,3022,1704779926025571659,gnss_link,0,1,36.90411028,118.16653404,1.634675377417889,0.0,0.0,0.0,0.0,0.0,0.0,0.0,0.0,0.0,2
1704779926126145706,3023,1704779926125727886,gnss_link,0,1,36.90411021,118.16653516,1.6348499103430885,0.0,0.0,0.0,0.0,0.0,0.0,0.0,0.0,0.0,2
1704779926226007412,3024,1704779926225479228,gnss_link,0,1,36.90411016,118.1665363,1.6351989761934873,0.0,0.0,0.0,0.0,0.0,0.0,0.0,0.0,0.0,2
1704779926326634774,3025,1704779926326094644,gnss_link,0,1,36.9041101,118.16653745,1.6358971078942852,0.0,0.0,0.0,0.0,0.0,0.0,0.0,0.0,0.0,2
1704779926426704052,3026,1704779926426184412,gnss_link,0,1,36.90411004,118.16653863,1.6362461737446838,0.0,0.0,0.0,0.0,0.0,0.0,0.0,0.0,0.0,2
1704779926526649153,3027,1704779926526060531,gnss_link,0,1,36.90410997,118.16653983,1.6369443054454818,0.0,0.0,0.0,0.0,0.0,0.0,0.0,0.0,0.0,2
1704779926626606672,3028,1704779926625977170,gnss_link,0,1,36.90410991,118.16654108,1.6374679042210798,0.0,0.0,0.0,0.0,0.0,0.0,0.0,0.0,0.0,2
1704779926726273110,3029,1704779926725773911,gnss_link,0,1,36.90410984,118.16654238,1.6378169700714789,0.0,0.0,0.0,0.0,0.0,0.0,0.0,0.0,0.0,2
1704779926826417156,3030,1704779926825898426,gnss_link,0,1,36.90410976,118.16654375,1.6379915029966783,0.0,0.0,0.0,0.0,0.0,0.0,0.0,0.0,0.0,2
1704779926926177190,3031,1704779926925624135,gnss_link,0,1,36.90410969,118.16654516,1.6385151017722765,0.0,0.0,0.0,0.0,0.0,0.0,0.0,0.0,0.0,2
1704779927025969954,3032,1704779927025503721,gnss_link,0,1,36.9041096,118.16654665,1.6388641676226756,0.0,0.0,0.0,0.0,0.0,0.0,0.0,0.0,0.0,2
1704779927125832493,3033,1704779927125270572,gnss_link,0,1,36.9041095,118.16654817,1.639562299323473,0.0,0.0,0.0,0.0,0.0,0.0,0.0,0.0,0.0,2
1704779927226006729,3034,1704779927225515907,gnss_link,0,1,36.90410942,118.16654974,1.640260431024271,0.0,0.0,0.0,0.0,0.0,0.0,0.0,0.0,0.0,2
1704779927325877395,3035,1704779927325334582,gnss_link,0,1,36.90410933,118.16655129,1.6406094968746698,0.0,0.0,0.0,0.0,0.0,0.0,0.0,0.0,0.0,2
1704779927426638637,3036,1704779927425942067,gnss_link,0,1,36.90410923,118.16655288,1.641133095650268,0.0,0.0,0.0,0.0,0.0,0.0,0.0,0.0,0.0,2
1704779927526195049,3037,1704779927525639552,gnss_link,0,1,36.90410914,118.16655444,1.6420057602762652,0.0,0.0,0.0,0.0,0.0,0.0,0.0,0.0,0.0,2
1704779927626123012,3038,1704779927625618082,gnss_link,0,1,36.90410905,118.16655602,1.6428784249022623,0.0,0.0,0.0,0.0,0.0,0.0,0.0,0.0,0.0,2
1704779927725981647,3039,1704779927725444900,gnss_link,0,1,36.90410896,118.16655755,1.6434020236778606,0.0,0.0,0.0,0.0,0.0,0.0,0.0,0.0,0.0,2
1704779927826972344,3040,1704779927826419606,gnss_link,0,1,36.90410886,118.1665591,1.6439256224534589,0.0,0.0,0.0,0.0,0.0,0.0,0.0,0.0,0.0,2
1704779927926383922,3041,1704779927925842342,gnss_link,0,1,36.90410877,118.16656062,1.6437510895282597,0.0,0.0,0.0,0.0,0.0,0.0,0.0,0.0,0.0,2
1704779928025437827,3042,1704779928024883623,gnss_link,0,1,36.90410868,118.16656216,1.6407840297998693,0.0,0.0,0.0,0.0,0.0,0.0,0.0,0.0,0.0,2
1704779928125585920,3043,1704779928125075756,gnss_link,0,1,36.90410859,118.16656366,1.6371188383706812,0.0,0.0,0.0,0.0,0.0,0.0,0.0,0.0,0.0,2
1704779928225859345,3044,1704779928225285506,gnss_link,0,1,36.9041085,118.16656518,1.633802712791892,0.0,0.0,0.0,0.0,0.0,0.0,0.0,0.0,0.0,2
1704779928326001016,3045,1704779928325415584,gnss_link,0,1,36.90410843,118.16656668,1.6297884555123048,0.0,0.0,0.0,0.0,0.0,0.0,0.0,0.0,0.0,2
1704779928426225673,3046,1704779928425598656,gnss_link,0,1,36.90410836,118.16656821,1.6268213957839144,0.0,0.0,0.0,0.0,0.0,0.0,0.0,0.0,0.0,2
1704779928526346278,3047,1704779928525810634,gnss_link,0,1,36.90410828,118.1665697,1.6259487311579173,0.0,0.0,0.0,0.0,0.0,0.0,0.0,0.0,0.0,2
1704779928625102561,3048,1704779928624549073,gnss_link,0,1,36.90410821,118.16657124,1.6247270006815215,0.0,0.0,0.0,0.0,0.0,0.0,0.0,0.0,0.0,2
1704779928725640185,3049,1704779928725104397,gnss_link,0,1,36.90410815,118.16657274,1.6243779348311225,0.0,0.0,0.0,0.0,0.0,0.0,0.0,0.0,0.0,2
1704779928825586362,3050,1704779928825230566,gnss_link,0,1,36.90410808,118.16657428,1.6238543360555244,0.0,0.0,0.0,0.0,0.0,0.0,0.0,0.0,0.0,2
1704779928925785317,3051,1704779928925301578,gnss_link,0,1,36.904108,118.1665758,1.623330737279926,0.0,0.0,0.0,0.0,0.0,0.0,0.0,0.0,0.0,2
1704779929025093355,3052,1704779929024624982,gnss_link,0,1,36.90410794,118.16657734,1.6229816714295269,0.0,0.0,0.0,0.0,0.0,0.0,0.0,0.0,0.0,2
1704779929125355493,3053,1704779929124758115,gnss_link,0,1,36.90410788,118.16657885,1.6222835397287294,0.0,0.0,0.0,0.0,0.0,0.0,0.0,0.0,0.0,2
1704779929225090665,3054,1704779929224580492,gnss_link,0,1,36.90410781,118.16658037,1.6224580726539286,0.0,0.0,0.0,0.0,0.0,0.0,0.0,0.0,0.0,2
1704779929325508082,3055,1704779929325056009,gnss_link,0,1,36.90410774,118.16658187,1.6222835397287294,0.0,0.0,0.0,0.0,0.0,0.0,0.0,0.0,0.0,2
1704779929424759511,3056,1704779929424332469,gnss_link,0,1,36.90410768,118.16658342,1.6222835397287294,0.0,0.0,0.0,0.0,0.0,0.0,0.0,0.0,0.0,2
1704779929524513118,3057,1704779929524012551,gnss_link,0,1,36.9041076,118.16658491,1.6219344738783306,0.0,0.0,0.0,0.0,0.0,0.0,0.0,0.0,0.0,2
1704779929625497623,3058,1704779929624960570,gnss_link,0,1,36.90410754,118.16658645,1.6214108751027323,0.0,0.0,0.0,0.0,0.0,0.0,0.0,0.0,0.0,2
1704779929725213383,3059,1704779929724773066,gnss_link,0,1,36.90410748,118.16658796,1.6217599409531311,0.0,0.0,0.0,0.0,0.0,0.0,0.0,0.0,0.0,2
1704779929825658128,3060,1704779929824916804,gnss_link,0,1,36.90410741,118.16658951,1.6221090068035298,0.0,0.0,0.0,0.0,0.0,0.0,0.0,0.0,0.0,2
1704779929925376806,3061,1704779929924843671,gnss_link,0,1,36.90410734,118.16659103,1.6219344738783306,0.0,0.0,0.0,0.0,0.0,0.0,0.0,0.0,0.0,2
1704779930025064734,3062,1704779930024340065,gnss_link,0,1,36.90410726,118.16659257,1.6219344738783306,0.0,0.0,0.0,0.0,0.0,0.0,0.0,0.0,0.0,2
1704779930125015646,3063,1704779930124508483,gnss_link,0,1,36.90410721,118.16659408,1.6217599409531311,0.0,0.0,0.0,0.0,0.0,0.0,0.0,0.0,0.0,2
1704779930225298317,3064,1704779930224692734,gnss_link,0,1,36.90410715,118.16659562,1.6215854080279315,0.0,0.0,0.0,0.0,0.0,0.0,0.0,0.0,0.0,2
1704779930325058896,3065,1704779930324451941,gnss_link,0,1,36.90410708,118.16659712,1.6212363421775327,0.0,0.0,0.0,0.0,0.0,0.0,0.0,0.0,0.0,2
1704779930424939403,3066,1704779930424384589,gnss_link,0,1,36.90410701,118.16659864,1.6210618092523332,0.0,0.0,0.0,0.0,0.0,0.0,0.0,0.0,0.0,2
1704779930524612568,3067,1704779930524089250,gnss_link,0,1,36.90410695,118.16660012,1.6212363421775327,0.0,0.0,0.0,0.0,0.0,0.0,0.0,0.0,0.0,2
1704779930624499794,3068,1704779930623985990,gnss_link,0,1,36.90410688,118.16660166,1.6207127434019344,0.0,0.0,0.0,0.0,0.0,0.0,0.0,0.0,0.0,2
1704779930725132959,3069,1704779930724566157,gnss_link,0,1,36.90410681,118.16660316,1.6203636775515355,0.0,0.0,0.0,0.0,0.0,0.0,0.0,0.0,0.0,2
1704779930825302664,3070,1704779930824646769,gnss_link,0,1,36.90410675,118.16660469,1.620538210476735,0.0,0.0,0.0,0.0,0.0,0.0,0.0,0.0,0.0,2
1704779930925109312,3071,1704779930924509166,gnss_link,0,1,36.90410669,118.16660619,1.6210618092523332,0.0,0.0,0.0,0.0,0.0,0.0,0.0,0.0,0.0,2
1704779931024417764,3072,1704779931023965367,gnss_link,0,1,36.90410661,118.16660773,1.6210618092523332,0.0,0.0,0.0,0.0,0.0,0.0,0.0,0.0,0.0,2
1704779931124277254,3073,1704779931123794568,gnss_link,0,1,36.90410655,118.16660924,1.6214108751027323,0.0,0.0,0.0,0.0,0.0,0.0,0.0,0.0,0.0,2
1704779931225276061,3074,1704779931224748976,gnss_link,0,1,36.90410648,118.16661078,1.6215854080279315,0.0,0.0,0.0,0.0,0.0,0.0,0.0,0.0,0.0,2
1704779931324956642,3075,1704779931324409679,gnss_link,0,1,36.90410642,118.16661228,1.6215854080279315,0.0,0.0,0.0,0.0,0.0,0.0,0.0,0.0,0.0,2
1704779931423894885,3076,1704779931423278018,gnss_link,0,1,36.90410635,118.16661381,1.6214108751027323,0.0,0.0,0.0,0.0,0.0,0.0,0.0,0.0,0.0,2
1704779931524711255,3077,1704779931524119379,gnss_link,0,1,36.90410628,118.16661532,1.6214108751027323,0.0,0.0,0.0,0.0,0.0,0.0,0.0,0.0,0.0,2
1704779931624646273,3078,1704779931624100338,gnss_link,0,1,36.90410622,118.16661686,1.6212363421775327,0.0,0.0,0.0,0.0,0.0,0.0,0.0,0.0,0.0,2
1704779931724316303,3079,1704779931723778059,gnss_link,0,1,36.90410615,118.16661836,1.620887276327134,0.0,0.0,0.0,0.0,0.0,0.0,0.0,0.0,0.0,2
1704779931825369493,3080,1704779931824809293,gnss_link,0,1,36.90410608,118.16661991,1.6203636775515355,0.0,0.0,0.0,0.0,0.0,0.0,0.0,0.0,0.0,2
1704779931925159829,3081,1704779931924604368,gnss_link,0,1,36.90410602,118.16662142,1.6203636775515355,0.0,0.0,0.0,0.0,0.0,0.0,0.0,0.0,0.0,2
1704779932024351077,3082,1704779932023691739,gnss_link,0,1,36.90410596,118.16662297,1.6207127434019344,0.0,0.0,0.0,0.0,0.0,0.0,0.0,0.0,0.0,2
1704779932124454012,3083,1704779932123950609,gnss_link,0,1,36.9041059,118.16662448,1.6207127434019344,0.0,0.0,0.0,0.0,0.0,0.0,0.0,0.0,0.0,2
1704779932224109642,3084,1704779932223619900,gnss_link,0,1,36.90410584,118.16662604,1.6207127434019344,0.0,0.0,0.0,0.0,0.0,0.0,0.0,0.0,0.0,2
1704779932325013801,3085,1704779932324488069,gnss_link,0,1,36.90410578,118.16662755,1.6203636775515355,0.0,0.0,0.0,0.0,0.0,0.0,0.0,0.0,0.0,2
1704779932423924787,3086,1704779932423443279,gnss_link,0,1,36.90410572,118.1666291,1.6200146117011365,0.0,0.0,0.0,0.0,0.0,0.0,0.0,0.0,0.0,2
1704779932523691569,3087,1704779932523192575,gnss_link,0,1,36.90410565,118.1666306,1.6196655458507379,0.0,0.0,0.0,0.0,0.0,0.0,0.0,0.0,0.0,2
1704779932624534634,3088,1704779932623987216,gnss_link,0,1,36.90410559,118.16663212,1.6191419470751394,0.0,0.0,0.0,0.0,0.0,0.0,0.0,0.0,0.0,2
1704779932724496654,3089,1704779932723990602,gnss_link,0,1,36.90410553,118.16663362,1.618618348299541,0.0,0.0,0.0,0.0,0.0,0.0,0.0,0.0,0.0,2
1704779932824651460,3090,1704779932824068363,gnss_link,0,1,36.90410546,118.16663513,1.6180947495239428,0.0,0.0,0.0,0.0,0.0,0.0,0.0,0.0,0.0,2
1704779932926559259,3091,1704779932925969772,gnss_link,0,1,36.9041054,118.16663663,1.617745683673544,0.0,0.0,0.0,0.0,0.0,0.0,0.0,0.0,0.0,2
1704779933023839897,3092,1704779933023417538,gnss_link,0,1,36.90410534,118.16663817,1.6172220848979457,0.0,0.0,0.0,0.0,0.0,0.0,0.0,0.0,0.0,2
1704779933124614201,3093,1704779933124091865,gnss_link,0,1,36.90410528,118.16663967,1.6172220848979457,0.0,0.0,0.0,0.0,0.0,0.0,0.0,0.0,0.0,2
1704779933223771393,3094,1704779933223217641,gnss_link,0,1,36.90410522,118.16664121,1.6172220848979457,0.0,0.0,0.0,0.0,0.0,0.0,0.0,0.0,0.0,2
1704779933323483646,3095,1704779933323018390,gnss_link,0,1,36.90410517,118.16664271,1.6170475519727465,0.0,0.0,0.0,0.0,0.0,0.0,0.0,0.0,0.0,2
1704779933423736433,3096,1704779933423255928,gnss_link,0,1,36.90410511,118.16664425,1.6166984861223475,0.0,0.0,0.0,0.0,0.0,0.0,0.0,0.0,0.0,2
1704779933523831076,3097,1704779933523592128,gnss_link,0,1,36.90410506,118.16664575,1.6163494202719486,0.0,0.0,0.0,0.0,0.0,0.0,0.0,0.0,0.0,2
1704779933624494586,3098,1704779933623928382,gnss_link,0,1,36.904105,118.16664727,1.6158258214963503,0.0,0.0,0.0,0.0,0.0,0.0,0.0,0.0,0.0,2
1704779933724302067,3099,1704779933723699978,gnss_link,0,1,36.90410493,118.16664876,1.6154767556459515,0.0,0.0,0.0,0.0,0.0,0.0,0.0,0.0,0.0,2
1704779933823818927,3100,1704779933823405268,gnss_link,0,1,36.90410488,118.16665029,1.6154767556459515,0.0,0.0,0.0,0.0,0.0,0.0,0.0,0.0,0.0,2
1704779933923791462,3101,1704779933923355808,gnss_link,0,1,36.90410482,118.16665178,1.6149531568703532,0.0,0.0,0.0,0.0,0.0,0.0,0.0,0.0,0.0,2
1704779934023926192,3102,1704779934023481959,gnss_link,0,1,36.90410477,118.16665332,1.6146040910199544,0.0,0.0,0.0,0.0,0.0,0.0,0.0,0.0,0.0,2
1704779934123657470,3103,1704779934123211968,gnss_link,0,1,36.90410472,118.16665483,1.6144295580947547,0.0,0.0,0.0,0.0,0.0,0.0,0.0,0.0,0.0,2
1704779934223492784,3104,1704779934223122748,gnss_link,0,1,36.90410466,118.16665637,1.6142550251695553,0.0,0.0,0.0,0.0,0.0,0.0,0.0,0.0,0.0,2
1704779934323155360,3105,1704779934322811304,gnss_link,0,1,36.9041046,118.16665788,1.6142550251695553,0.0,0.0,0.0,0.0,0.0,0.0,0.0,0.0,0.0,2
1704779934423853147,3106,1704779934423268585,gnss_link,0,1,36.90410455,118.16665943,1.6142550251695553,0.0,0.0,0.0,0.0,0.0,0.0,0.0,0.0,0.0,2
1704779934523150770,3107,1704779934522839600,gnss_link,0,1,36.9041045,118.16666094,1.6139059593191565,0.0,0.0,0.0,0.0,0.0,0.0,0.0,0.0,0.0,2
1704779934624328905,3108,1704779934623824193,gnss_link,0,1,36.90410445,118.16666248,1.6135568934687576,0.0,0.0,0.0,0.0,0.0,0.0,0.0,0.0,0.0,2
1704779934724162612,3109,1704779934723767005,gnss_link,0,1,36.90410439,118.16666399,1.613207827618359,0.0,0.0,0.0,0.0,0.0,0.0,0.0,0.0,0.0,2
1704779934823138725,3110,1704779934822610804,gnss_link,0,1,36.90410434,118.16666552,1.61285876176796,0.0,0.0,0.0,0.0,0.0,0.0,0.0,0.0,0.0,2
1704779934923330100,3111,1704779934922994397,gnss_link,0,1,36.90410428,118.16666703,1.61285876176796,0.0,0.0,0.0,0.0,0.0,0.0,0.0,0.0,0.0,2
1704779935023109419,3112,1704779935022750142,gnss_link,0,1,36.90410422,118.16666857,1.6123351629923615,0.0,0.0,0.0,0.0,0.0,0.0,0.0,0.0,0.0,2
1704779935123818766,3113,1704779935123481968,gnss_link,0,1,36.90410417,118.16667008,1.6121606300671623,0.0,0.0,0.0,0.0,0.0,0.0,0.0,0.0,0.0,2
1704779935222837446,3114,1704779935222452926,gnss_link,0,1,36.90410411,118.16667162,1.6118115642167632,0.0,0.0,0.0,0.0,0.0,0.0,0.0,0.0,0.0,2
1704779935322547614,3115,1704779935322175125,gnss_link,0,1,36.90410406,118.16667313,1.611637031291564,0.0,0.0,0.0,0.0,0.0,0.0,0.0,0.0,0.0,2
1704779935423576657,3116,1704779935423184197,gnss_link,0,1,36.90410401,118.16667468,1.611637031291564,0.0,0.0,0.0,0.0,0.0,0.0,0.0,0.0,0.0,2
1704779935523442232,3117,1704779935523073334,gnss_link,0,1,36.90410396,118.1666762,1.6114624983663643,0.0,0.0,0.0,0.0,0.0,0.0,0.0,0.0,0.0,2
1704779935623802686,3118,1704779935623343224,gnss_link,0,1,36.90410389,118.16667774,1.611287965441165,0.0,0.0,0.0,0.0,0.0,0.0,0.0,0.0,0.0,2
1704779935723591289,3119,1704779935723308536,gnss_link,0,1,36.90410384,118.16667925,1.610938899590766,0.0,0.0,0.0,0.0,0.0,0.0,0.0,0.0,0.0,2
1704779935822776043,3120,1704779935822461781,gnss_link,0,1,36.90410379,118.16668077,1.6104153008151678,0.0,0.0,0.0,0.0,0.0,0.0,0.0,0.0,0.0,2
1704779935922587135,3121,1704779935922268616,gnss_link,0,1,36.90410374,118.16668227,1.6102407678899686,0.0,0.0,0.0,0.0,0.0,0.0,0.0,0.0,0.0,2
1704779936023641603,3122,1704779936023126847,gnss_link,0,1,36.90410369,118.1666838,1.6098917020395695,0.0,0.0,0.0,0.0,0.0,0.0,0.0,0.0,0.0,2
1704779936123526523,3123,1704779936123020972,gnss_link,0,1,36.90410364,118.16668529,1.6095426361891707,0.0,0.0,0.0,0.0,0.0,0.0,0.0,0.0,0.0,2
1704779936222327330,3124,1704779936221859851,gnss_link,0,1,36.90410358,118.16668682,1.6090190374135724,0.0,0.0,0.0,0.0,0.0,0.0,0.0,0.0,0.0,2
1704779936323087565,3125,1704779936322605244,gnss_link,0,1,36.90410353,118.16668833,1.608844504488373,0.0,0.0,0.0,0.0,0.0,0.0,0.0,0.0,0.0,2
1704779936422860495,3126,1704779936422521082,gnss_link,0,1,36.90410348,118.16668987,1.6086699715631736,0.0,0.0,0.0,0.0,0.0,0.0,0.0,0.0,0.0,2
1704779936522524379,3127,1704779936522214811,gnss_link,0,1,36.90410343,118.16669143,1.6086699715631736,0.0,0.0,0.0,0.0,0.0,0.0,0.0,0.0,0.0,2
1704779936623904382,3128,1704779936623392746,gnss_link,0,1,36.90410338,118.16669304,1.608495438637974,0.0,0.0,0.0,0.0,0.0,0.0,0.0,0.0,0.0,2
1704779936723259801,3129,1704779936723002731,gnss_link,0,1,36.90410333,118.16669461,1.6086699715631736,0.0,0.0,0.0,0.0,0.0,0.0,0.0,0.0,0.0,2
1704779936822415796,3130,1704779936822139401,gnss_link,0,1,36.90410328,118.16669621,1.6107643666655669,0.0,0.0,0.0,0.0,0.0,0.0,0.0,0.0,0.0,2
1704779936922972883,3131,1704779936922453513,gnss_link,0,1,36.90410322,118.16669774,1.6130332946931594,0.0,0.0,0.0,0.0,0.0,0.0,0.0,0.0,0.0,2
1704779937022984756,3132,1704779937022584193,gnss_link,0,1,36.90410315,118.16669927,1.6151276897955527,0.0,0.0,0.0,0.0,0.0,0.0,0.0,0.0,0.0,2
1704779937123291377,3133,1704779937122744270,gnss_link,0,1,36.90410309,118.16670078,1.6179202165987436,0.0,0.0,0.0,0.0,0.0,0.0,0.0,0.0,0.0,2
1704779937222208228,3134,1704779937221725607,gnss_link,0,1,36.90410303,118.16670231,1.6196655458507379,0.0,0.0,0.0,0.0,0.0,0.0,0.0,0.0,0.0,2
1704779937322893025,3135,1704779937322291698,gnss_link,0,1,36.90410296,118.16670382,1.620887276327134,0.0,0.0,0.0,0.0,0.0,0.0,0.0,0.0,0.0,2
1704779937422828253,3136,1704779937422299798,gnss_link,0,1,36.90410289,118.16670535,1.6222835397287294,0.0,0.0,0.0,0.0,0.0,0.0,0.0,0.0,0.0,2
1704779937523026816,3137,1704779937522550767,gnss_link,0,1,36.90410282,118.16670685,1.6240288689807236,0.0,0.0,0.0,0.0,0.0,0.0,0.0,0.0,0.0,2
1704779937622253169,3138,1704779937621674526,gnss_link,0,1,36.90410276,118.16670838,1.625774198232718,0.0,0.0,0.0,0.0,0.0,0.0,0.0,0.0,0.0,2
1704779937722446644,3139,1704779937721858579,gnss_link,0,1,36.90410268,118.16670989,1.6268213957839144,0.0,0.0,0.0,0.0,0.0,0.0,0.0,0.0,0.0,2
1704779937822495341,3140,1704779937822019924,gnss_link,0,1,36.90410261,118.16671143,1.6283921921107094,0.0,0.0,0.0,0.0,0.0,0.0,0.0,0.0,0.0,2
1704779937923073073,3141,1704779937922375381,gnss_link,0,1,36.90410254,118.16671297,1.6292648567367065,0.0,0.0,0.0,0.0,0.0,0.0,0.0,0.0,0.0,2
1704779938022862364,3142,1704779938022294321,gnss_link,0,1,36.90410246,118.16671453,1.6299629884375044,0.0,0.0,0.0,0.0,0.0,0.0,0.0,0.0,0.0,2
1704779938122937963,3143,1704779938122472033,gnss_link,0,1,36.90410237,118.16671606,1.6308356530635015,0.0,0.0,0.0,0.0,0.0,0.0,0.0,0.0,0.0,2
1704779938221995840,3144,1704779938221628018,gnss_link,0,1,36.90410229,118.16671761,1.631010185988701,0.0,0.0,0.0,0.0,0.0,0.0,0.0,0.0,0.0,2
1704779938321825576,3145,1704779938321395363,gnss_link,0,1,36.90410221,118.16671914,1.6287412579611082,0.0,0.0,0.0,0.0,0.0,0.0,0.0,0.0,0.0,2
1704779938422764100,3146,1704779938422404357,gnss_link,0,1,36.90410213,118.16672068,1.625425132382319,0.0,0.0,0.0,0.0,0.0,0.0,0.0,0.0,0.0,2
1704779938522391187,3147,1704779938522086905,gnss_link,0,1,36.90410206,118.1667222,1.6224580726539286,0.0,0.0,0.0,0.0,0.0,0.0,0.0,0.0,0.0,2
1704779938621564644,3148,1704779938621017071,gnss_link,0,1,36.90410201,118.16672374,1.6217599409531311,0.0,0.0,0.0,0.0,0.0,0.0,0.0,0.0,0.0,2
1704779938722496787,3149,1704779938721724922,gnss_link,0,1,36.90410194,118.16672526,1.6210618092523332,0.0,0.0,0.0,0.0,0.0,0.0,0.0,0.0,0.0,2
1704779938821975835,3150,1704779938821600802,gnss_link,0,1,36.90410187,118.16672681,1.6200146117011365,0.0,0.0,0.0,0.0,0.0,0.0,0.0,0.0,0.0,2
1704779938922199817,3151,1704779938921786464,gnss_link,0,1,36.90410182,118.16672832,1.6189674141499402,0.0,0.0,0.0,0.0,0.0,0.0,0.0,0.0,0.0,2
1704779939022307914,3152,1704779939021990730,gnss_link,0,1,36.90410176,118.16672984,1.6172220848979457,0.0,0.0,0.0,0.0,0.0,0.0,0.0,0.0,0.0,2
1704779939122255905,3153,1704779939121760338,gnss_link,0,1,36.9041017,118.16673135,1.6160003544215498,0.0,0.0,0.0,0.0,0.0,0.0,0.0,0.0,0.0,2
1704779939221316455,3154,1704779939220950519,gnss_link,0,1,36.90410164,118.16673287,1.6149531568703532,0.0,0.0,0.0,0.0,0.0,0.0,0.0,0.0,0.0,2
1704779939321785115,3155,1704779939321495905,gnss_link,0,1,36.90410158,118.16673437,1.6140804922443561,0.0,0.0,0.0,0.0,0.0,0.0,0.0,0.0,0.0,2
1704779939422226877,3156,1704779939421748456,gnss_link,0,1,36.90410152,118.1667359,1.613207827618359,0.0,0.0,0.0,0.0,0.0,0.0,0.0,0.0,0.0,2
1704779939521876937,3157,1704779939521430965,gnss_link,0,1,36.90410147,118.16673741,1.612509695917561,0.0,0.0,0.0,0.0,0.0,0.0,0.0,0.0,0.0,2
1704779939622244203,3158,1704779939621629412,gnss_link,0,1,36.90410143,118.16673894,1.6123351629923615,0.0,0.0,0.0,0.0,0.0,0.0,0.0,0.0,0.0,2
1704779939721429963,3159,1704779939721141879,gnss_link,0,1,36.90410137,118.16674046,1.6121606300671623,0.0,0.0,0.0,0.0,0.0,0.0,0.0,0.0,0.0,2
1704779939821921462,3160,1704779939821394802,gnss_link,0,1,36.90410132,118.166742,1.6119860971419628,0.0,0.0,0.0,0.0,0.0,0.0,0.0,0.0,0.0,2
1704779939921745722,3161,1704779939921293598,gnss_link,0,1,36.90410127,118.16674352,1.6118115642167632,0.0,0.0,0.0,0.0,0.0,0.0,0.0,0.0,0.0,2
1704779940021732219,3162,1704779940021374385,gnss_link,0,1,36.90410121,118.16674506,1.611637031291564,0.0,0.0,0.0,0.0,0.0,0.0,0.0,0.0,0.0,2
1704779940122398403,3163,1704779940121960422,gnss_link,0,1,36.90410117,118.16674658,1.6111134325159657,0.0,0.0,0.0,0.0,0.0,0.0,0.0,0.0,0.0,2
1704779940221407823,3164,1704779940221091551,gnss_link,0,1,36.90410112,118.16674811,1.6107643666655669,0.0,0.0,0.0,0.0,0.0,0.0,0.0,0.0,0.0,2
1704779940321666748,3165,1704779940321065036,gnss_link,0,1,36.90410106,118.16674962,1.6105898337403672,0.0,0.0,0.0,0.0,0.0,0.0,0.0,0.0,0.0,2
1704779940422161408,3166,1704779940421732675,gnss_link,0,1,36.90410101,118.16675114,1.6104153008151678,0.0,0.0,0.0,0.0,0.0,0.0,0.0,0.0,0.0,2
1704779940522154813,3167,1704779940521647525,gnss_link,0,1,36.90410096,118.16675265,1.610066234964769,0.0,0.0,0.0,0.0,0.0,0.0,0.0,0.0,0.0,2
1704779940621123264,3168,1704779940620748015,gnss_link,0,1,36.9041009,118.16675419,1.6095426361891707,0.0,0.0,0.0,0.0,0.0,0.0,0.0,0.0,0.0,2
1704779940720938930,3169,1704779940720474304,gnss_link,0,1,36.90410085,118.16675571,1.6091935703387719,0.0,0.0,0.0,0.0,0.0,0.0,0.0,0.0,0.0,2
1704779940821857906,3170,1704779940821418012,gnss_link,0,1,36.90410081,118.16675725,1.6090190374135724,0.0,0.0,0.0,0.0,0.0,0.0,0.0,0.0,0.0,2
1704779940921904715,3171,1704779940921350168,gnss_link,0,1,36.90410075,118.16675879,1.6090190374135724,0.0,0.0,0.0,0.0,0.0,0.0,0.0,0.0,0.0,2
1704779941021811999,3172,1704779941021389168,gnss_link,0,1,36.9041007,118.16676036,1.608844504488373,0.0,0.0,0.0,0.0,0.0,0.0,0.0,0.0,0.0,2
1704779941121506855,3173,1704779941121140112,gnss_link,0,1,36.90410065,118.16676193,1.608495438637974,0.0,0.0,0.0,0.0,0.0,0.0,0.0,0.0,0.0,2
1704779941221687523,3174,1704779941221097306,gnss_link,0,1,36.90410059,118.16676356,1.6083209057127748,0.0,0.0,0.0,0.0,0.0,0.0,0.0,0.0,0.0,2
1704779941321576642,3175,1704779941320972765,gnss_link,0,1,36.90410054,118.16676522,1.6077973069371765,0.0,0.0,0.0,0.0,0.0,0.0,0.0,0.0,0.0,2
1704779941421254273,3176,1704779941420754109,gnss_link,0,1,36.90410048,118.16676696,1.6074482410867774,0.0,0.0,0.0,0.0,0.0,0.0,0.0,0.0,0.0,2
1704779941522093901,3177,1704779941521514343,gnss_link,0,1,36.90410042,118.16676873,1.6072737081615782,0.0,0.0,0.0,0.0,0.0,0.0,0.0,0.0,0.0,2
1704779941620753521,3178,1704779941620411321,gnss_link,0,1,36.90410036,118.16677057,1.6069246423111792,0.0,0.0,0.0,0.0,0.0,0.0,0.0,0.0,0.0,2
1704779941720818045,3179,1704779941720328647,gnss_link,0,1,36.9041003,118.16677244,1.606401043535581,0.0,0.0,0.0,0.0,0.0,0.0,0.0,0.0,0.0,2
1704779941821616253,3180,1704779941821085869,gnss_link,0,1,36.90410024,118.16677433,1.606051977685182,0.0,0.0,0.0,0.0,0.0,0.0,0.0,0.0,0.0,2
1704779941921872983,3181,1704779941921124834,gnss_link,0,1,36.90410019,118.16677622,1.606051977685182,0.0,0.0,0.0,0.0,0.0,0.0,0.0,0.0,0.0,2
1704779942021829251,3182,1704779942021304961,gnss_link,0,1,36.90410013,118.16677811,1.606051977685182,0.0,0.0,0.0,0.0,0.0,0.0,0.0,0.0,0.0,2
1704779942121873962,3183,1704779942121369463,gnss_link,0,1,36.90410007,118.16677999,1.6053538459843844,0.0,0.0,0.0,0.0,0.0,0.0,0.0,0.0,0.0,2
1704779942221117998,3184,1704779942220563193,gnss_link,0,1,36.90410003,118.16678185,1.604830247208786,0.0,0.0,0.0,0.0,0.0,0.0,0.0,0.0,0.0,2
1704779942320934808,3185,1704779942320450128,gnss_link,0,1,36.90409998,118.1667837,1.6046557142835864,0.0,0.0,0.0,0.0,0.0,0.0,0.0,0.0,0.0,2
1704779942421658263,3186,1704779942421131069,gnss_link,0,1,36.90409992,118.16678554,1.6046557142835864,0.0,0.0,0.0,0.0,0.0,0.0,0.0,0.0,0.0,2
1704779942521533395,3187,1704779942520967307,gnss_link,0,1,36.90409987,118.16678737,1.6041321155079882,0.0,0.0,0.0,0.0,0.0,0.0,0.0,0.0,0.0,2
1704779942620230090,3188,1704779942619821756,gnss_link,0,1,36.90409982,118.16678922,1.6034339838071907,0.0,0.0,0.0,0.0,0.0,0.0,0.0,0.0,0.0,2
1704779942721066167,3189,1704779942720500113,gnss_link,0,1,36.90409976,118.16679105,1.603259450881991,0.0,0.0,0.0,0.0,0.0,0.0,0.0,0.0,0.0,2
1704779942821456225,3190,1704779942820579913,gnss_link,0,1,36.90409971,118.16679289,1.6034339838071907,0.0,0.0,0.0,0.0,0.0,0.0,0.0,0.0,0.0,2
1704779942921393139,3191,1704779942920874949,gnss_link,0,1,36.90409966,118.16679473,1.603259450881991,0.0,0.0,0.0,0.0,0.0,0.0,0.0,0.0,0.0,2
1704779943021375372,3192,1704779943020846117,gnss_link,0,1,36.90409959,118.16679656,1.6034339838071907,0.0,0.0,0.0,0.0,0.0,0.0,0.0,0.0,0.0,2
1704779943121567135,3193,1704779943121031700,gnss_link,0,1,36.90409955,118.16679839,1.6030849179567916,0.0,0.0,0.0,0.0,0.0,0.0,0.0,0.0,0.0,2
1704779943220206983,3194,1704779943219849144,gnss_link,0,1,36.9040995,118.1668002,1.6029103850315922,0.0,0.0,0.0,0.0,0.0,0.0,0.0,0.0,0.0,2
1704779943321008806,3195,1704779943320469164,gnss_link,0,1,36.90409944,118.16680202,1.603259450881991,0.0,0.0,0.0,0.0,0.0,0.0,0.0,0.0,0.0,2
1704779943421055707,3196,1704779943420521977,gnss_link,0,1,36.90409939,118.16680384,1.6030849179567916,0.0,0.0,0.0,0.0,0.0,0.0,0.0,0.0,0.0,2
1704779943523661411,3197,1704779943522607210,gnss_link,0,1,36.90409933,118.16680565,1.6025613191811934,0.0,0.0,0.0,0.0,0.0,0.0,0.0,0.0,0.0,2
1704779943620959989,3198,1704779943620256348,gnss_link,0,1,36.90409926,118.16680748,1.6022122533307945,0.0,0.0,0.0,0.0,0.0,0.0,0.0,0.0,0.0,2
1704779943720552114,3199,1704779943720048171,gnss_link,0,1,36.90409922,118.1668093,1.6025613191811934,0.0,0.0,0.0,0.0,0.0,0.0,0.0,0.0,0.0,2
1704779943820380280,3200,1704779943819936380,gnss_link,0,1,36.90409916,118.16681115,1.6025613191811934,0.0,0.0,0.0,0.0,0.0,0.0,0.0,0.0,0.0,2
1704779943922323815,3201,1704779943921781700,gnss_link,0,1,36.9040991,118.16681298,1.602386786255994,0.0,0.0,0.0,0.0,0.0,0.0,0.0,0.0,0.0,2
1704779944020596006,3202,1704779944020029527,gnss_link,0,1,36.90409904,118.16681481,1.6020377204055951,0.0,0.0,0.0,0.0,0.0,0.0,0.0,0.0,0.0,2
1704779944120384988,3203,1704779944119852043,gnss_link,0,1,36.904099,118.16681663,1.6015141216299968,0.0,0.0,0.0,0.0,0.0,0.0,0.0,0.0,0.0,2
1704779944221369394,3204,1704779944220731784,gnss_link,0,1,36.90409893,118.16681846,1.6009905228543986,0.0,0.0,0.0,0.0,0.0,0.0,0.0,0.0,0.0,2
1704779944321121324,3205,1704779944320520441,gnss_link,0,1,36.90409888,118.16682028,1.600815989929199,0.0,0.0,0.0,0.0,0.0,0.0,0.0,0.0,0.0,2
1704779944420110071,3206,1704779944419422119,gnss_link,0,1,36.90409882,118.16682211,1.6001178582284015,0.0,0.0,0.0,0.0,0.0,0.0,0.0,0.0,0.0,2
1704779944520339187,3207,1704779944519855642,gnss_link,0,1,36.90409877,118.16682393,1.5994197265276036,0.0,0.0,0.0,0.0,0.0,0.0,0.0,0.0,0.0,2
1704779944620716488,3208,1704779944620096064,gnss_link,0,1,36.90409871,118.16682577,1.5997687923780024,0.0,0.0,0.0,0.0,0.0,0.0,0.0,0.0,0.0,2
1704779944720870690,3209,1704779944720305892,gnss_link,0,1,36.90409868,118.1668276,1.5997687923780024,0.0,0.0,0.0,0.0,0.0,0.0,0.0,0.0,0.0,2
1704779944820512837,3210,1704779944820022884,gnss_link,0,1,36.90409863,118.16682945,1.5994197265276036,0.0,0.0,0.0,0.0,0.0,0.0,0.0,0.0,0.0,2
1704779944921289669,3211,1704779944920637867,gnss_link,0,1,36.90409858,118.16683127,1.5990706606772047,0.0,0.0,0.0,0.0,0.0,0.0,0.0,0.0,0.0,2
1704779945020441711,3212,1704779945019963783,gnss_link,0,1,36.90409853,118.16683311,1.598372528976407,0.0,0.0,0.0,0.0,0.0,0.0,0.0,0.0,0.0,2
1704779945120557038,3213,1704779945120023511,gnss_link,0,1,36.90409848,118.16683492,1.5985470619016064,0.0,0.0,0.0,0.0,0.0,0.0,0.0,0.0,0.0,2
1704779945220736586,3214,1704779945220133381,gnss_link,0,1,36.90409842,118.16683675,1.598372528976407,0.0,0.0,0.0,0.0,0.0,0.0,0.0,0.0,0.0,2
1704779945320306210,3215,1704779945319820494,gnss_link,0,1,36.90409838,118.16683856,1.5981979960512074,0.0,0.0,0.0,0.0,0.0,0.0,0.0,0.0,0.0,2
1704779945420122554,3216,1704779945419632031,gnss_link,0,1,36.90409831,118.1668404,1.5980234631260082,0.0,0.0,0.0,0.0,0.0,0.0,0.0,0.0,0.0,2
1704779945520114765,3217,1704779945519590869,gnss_link,0,1,36.90409827,118.16684222,1.5978489302008088,0.0,0.0,0.0,0.0,0.0,0.0,0.0,0.0,0.0,2
1704779945619896593,3218,1704779945619436632,gnss_link,0,1,36.90409823,118.16684407,1.5981979960512074,0.0,0.0,0.0,0.0,0.0,0.0,0.0,0.0,0.0,2
1704779945720435474,3219,1704779945719945640,gnss_link,0,1,36.90409818,118.16684589,1.5992451936024041,0.0,0.0,0.0,0.0,0.0,0.0,0.0,0.0,0.0,2
1704779945820524762,3220,1704779945820004822,gnss_link,0,1,36.90409814,118.16684772,1.6067501093859797,0.0,0.0,0.0,0.0,0.0,0.0,0.0,0.0,0.0,2
1704779945919727091,3221,1704779945919294170,gnss_link,0,1,36.90409808,118.16684953,1.6146040910199544,0.0,0.0,0.0,0.0,0.0,0.0,0.0,0.0,0.0,2
1704779946020208638,3222,1704779946019550887,gnss_link,0,1,36.90409799,118.16685136,1.6166984861223475,0.0,0.0,0.0,0.0,0.0,0.0,0.0,0.0,0.0,2
1704779946120073591,3223,1704779946119559278,gnss_link,0,1,36.90409793,118.16685317,1.618443815374342,0.0,0.0,0.0,0.0,0.0,0.0,0.0,0.0,0.0,2
1704779946220363078,3224,1704779946219907867,gnss_link,0,1,36.90409783,118.16685501,1.6198400787759373,0.0,0.0,0.0,0.0,0.0,0.0,0.0,0.0,0.0,2
1704779946320603700,3225,1704779946320098667,gnss_link,0,1,36.90409774,118.16685684,1.6201891446263361,0.0,0.0,0.0,0.0,0.0,0.0,0.0,0.0,0.0,2
1704779946419586265,3226,1704779946419088219,gnss_link,0,1,36.90409767,118.16685868,1.6212363421775327,0.0,0.0,0.0,0.0,0.0,0.0,0.0,0.0,0.0,2
1704779946519641179,3227,1704779946519192725,gnss_link,0,1,36.90409759,118.1668605,1.6228071385043277,0.0,0.0,0.0,0.0,0.0,0.0,0.0,0.0,0.0,2
1704779946619962878,3228,1704779946619495863,gnss_link,0,1,36.90409749,118.16686235,1.6236798031303248,0.0,0.0,0.0,0.0,0.0,0.0,0.0,0.0,0.0,2
1704779946720226917,3229,1704779946719610729,gnss_link,0,1,36.90409742,118.16686417,1.6243779348311225,0.0,0.0,0.0,0.0,0.0,0.0,0.0,0.0,0.0,2
1704779946819425449,3230,1704779946818874327,gnss_link,0,1,36.90409735,118.16686601,1.6250760665319202,0.0,0.0,0.0,0.0,0.0,0.0,0.0,0.0,0.0,2
1704779946919178120,3231,1704779946918645459,gnss_link,0,1,36.90409725,118.16686784,1.625425132382319,0.0,0.0,0.0,0.0,0.0,0.0,0.0,0.0,0.0,2
1704779947019394832,3232,1704779947018893670,gnss_link,0,1,36.90409719,118.16686965,1.625774198232718,0.0,0.0,0.0,0.0,0.0,0.0,0.0,0.0,0.0,2
1704779947120051426,3233,1704779947119449556,gnss_link,0,1,36.9040971,118.16687148,1.6252505994571198,0.0,0.0,0.0,0.0,0.0,0.0,0.0,0.0,0.0,2
1704779947220053314,3234,1704779947219477945,gnss_link,0,1,36.90409704,118.16687329,1.624203401905923,0.0,0.0,0.0,0.0,0.0,0.0,0.0,0.0,0.0,2
1704779947320042787,3235,1704779947319600022,gnss_link,0,1,36.90409696,118.16687512,1.623330737279926,0.0,0.0,0.0,0.0,0.0,0.0,0.0,0.0,0.0,2
1704779947419197409,3236,1704779947418804705,gnss_link,0,1,36.9040969,118.16687696,1.6231562043547265,0.0,0.0,0.0,0.0,0.0,0.0,0.0,0.0,0.0,2
1704779947519328113,3237,1704779947518927731,gnss_link,0,1,36.90409682,118.16687879,1.6224580726539286,0.0,0.0,0.0,0.0,0.0,0.0,0.0,0.0,0.0,2
1704779947619789024,3238,1704779947619208522,gnss_link,0,1,36.90409675,118.16688062,1.6215854080279315,0.0,0.0,0.0,0.0,0.0,0.0,0.0,0.0,0.0,2
1704779947719352519,3239,1704779947719005644,gnss_link,0,1,36.90409668,118.16688244,1.620887276327134,0.0,0.0,0.0,0.0,0.0,0.0,0.0,0.0,0.0,2
1704779947819009491,3240,1704779947818671365,gnss_link,0,1,36.90409661,118.16688428,1.6198400787759373,0.0,0.0,0.0,0.0,0.0,0.0,0.0,0.0,0.0,2
1704779947919001246,3241,1704779947918535362,gnss_link,0,1,36.90409653,118.16688609,1.6191419470751394,0.0,0.0,0.0,0.0,0.0,0.0,0.0,0.0,0.0,2
1704779948019081137,3242,1704779948018790294,gnss_link,0,1,36.90409646,118.16688791,1.618443815374342,0.0,0.0,0.0,0.0,0.0,0.0,0.0,0.0,0.0,2
1704779948119270833,3243,1704779948118919903,gnss_link,0,1,36.90409638,118.16688963,1.6173966178231451,0.0,0.0,0.0,0.0,0.0,0.0,0.0,0.0,0.0,2
1704779948219323104,3244,1704779948219054369,gnss_link,0,1,36.90409631,118.1668912,1.616523953197148,0.0,0.0,0.0,0.0,0.0,0.0,0.0,0.0,0.0,2
1704779948319784053,3245,1704779948319485756,gnss_link,0,1,36.90409626,118.16689268,1.616174887346749,0.0,0.0,0.0,0.0,0.0,0.0,0.0,0.0,0.0,2
1704779948419169667,3246,1704779948418631607,gnss_link,0,1,36.90409621,118.16689414,1.6156512885711507,0.0,0.0,0.0,0.0,0.0,0.0,0.0,0.0,0.0,2
1704779948519240063,3247,1704779948518697886,gnss_link,0,1,36.90409616,118.16689561,1.6147786239451536,0.0,0.0,0.0,0.0,0.0,0.0,0.0,0.0,0.0,2
1704779948619376015,3248,1704779948618872042,gnss_link,0,1,36.90409611,118.16689717,1.6140804922443561,0.0,0.0,0.0,0.0,0.0,0.0,0.0,0.0,0.0,2
1704779948719567251,3249,1704779948719051618,gnss_link,0,1,36.90409605,118.16689878,1.613207827618359,0.0,0.0,0.0,0.0,0.0,0.0,0.0,0.0,0.0,2
1704779948818521423,3250,1704779948818005078,gnss_link,0,1,36.90409599,118.16690048,1.6121606300671623,0.0,0.0,0.0,0.0,0.0,0.0,0.0,0.0,0.0,2
1704779948919050688,3251,1704779948918553864,gnss_link,0,1,36.90409593,118.16690224,1.6114624983663643,0.0,0.0,0.0,0.0,0.0,0.0,0.0,0.0,0.0,2
1704779949019427509,3252,1704779949018888299,gnss_link,0,1,36.90409588,118.16690408,1.6111134325159657,0.0,0.0,0.0,0.0,0.0,0.0,0.0,0.0,0.0,2
1704779949119240665,3253,1704779949118690295,gnss_link,0,1,36.90409581,118.16690593,1.6098917020395695,0.0,0.0,0.0,0.0,0.0,0.0,0.0,0.0,0.0,2
1704779949219566098,3254,1704779949218980184,gnss_link,0,1,36.90409576,118.16690785,1.6090190374135724,0.0,0.0,0.0,0.0,0.0,0.0,0.0,0.0,0.0,2
1704779949319742868,3255,1704779949319168078,gnss_link,0,1,36.90409569,118.16690973,1.608844504488373,0.0,0.0,0.0,0.0,0.0,0.0,0.0,0.0,0.0,2
1704779949418330004,3256,1704779949417885484,gnss_link,0,1,36.90409565,118.16691166,1.6090190374135724,0.0,0.0,0.0,0.0,0.0,0.0,0.0,0.0,0.0,2
1704779949519029349,3257,1704779949518579021,gnss_link,0,1,36.90409558,118.16691353,1.6090190374135724,0.0,0.0,0.0,0.0,0.0,0.0,0.0,0.0,0.0,2
1704779949619191140,3258,1704779949618644715,gnss_link,0,1,36.90409554,118.16691543,1.6090190374135724,0.0,0.0,0.0,0.0,0.0,0.0,0.0,0.0,0.0,2
1704779949719200469,3259,1704779949718721319,gnss_link,0,1,36.90409549,118.16691727,1.609368103263971,0.0,0.0,0.0,0.0,0.0,0.0,0.0,0.0,0.0,2
1704779949818403462,3260,1704779949817998814,gnss_link,0,1,36.90409544,118.16691912,1.6107643666655669,0.0,0.0,0.0,0.0,0.0,0.0,0.0,0.0,0.0,2
1704779949918631527,3261,1704779949918124889,gnss_link,0,1,36.90409537,118.16692093,1.6126842288427605,0.0,0.0,0.0,0.0,0.0,0.0,0.0,0.0,0.0,2
1704779950019022803,3262,1704779950018425563,gnss_link,0,1,36.9040953,118.16692276,1.6147786239451536,0.0,0.0,0.0,0.0,0.0,0.0,0.0,0.0,0.0,2
1704779950119008092,3263,1704779950118471198,gnss_link,0,1,36.90409523,118.16692457,1.6172220848979457,0.0,0.0,0.0,0.0,0.0,0.0,0.0,0.0,0.0,2
1704779950219263742,3264,1704779950218744779,gnss_link,0,1,36.90409515,118.1669264,1.6210618092523332,0.0,0.0,0.0,0.0,0.0,0.0,0.0,0.0,0.0,2
1704779950319373082,3265,1704779950318851302,gnss_link,0,1,36.90409509,118.16692821,1.6243779348311225,0.0,0.0,0.0,0.0,0.0,0.0,0.0,0.0,0.0,2
1704779950418525990,3266,1704779950418086375,gnss_link,0,1,36.904095,118.16693003,1.6259487311579173,0.0,0.0,0.0,0.0,0.0,0.0,0.0,0.0,0.0,2
1704779950518451815,3267,1704779950518034848,gnss_link,0,1,36.90409491,118.16693184,1.6278685933351111,0.0,0.0,0.0,0.0,0.0,0.0,0.0,0.0,0.0,2
1704779950618747591,3268,1704779950618213608,gnss_link,0,1,36.90409481,118.16693366,1.6292648567367065,0.0,0.0,0.0,0.0,0.0,0.0,0.0,0.0,0.0,2
1704779950719572094,3269,1704779950719021003,gnss_link,0,1,36.90409472,118.16693546,1.6304865872131027,0.0,0.0,0.0,0.0,0.0,0.0,0.0,0.0,0.0,2
1704779950818728607,3270,1704779950817999988,gnss_link,0,1,36.90409462,118.16693729,1.632231916465097,0.0,0.0,0.0,0.0,0.0,0.0,0.0,0.0,0.0,2
1704779950918394991,3271,1704779950917795739,gnss_link,0,1,36.90409452,118.16693909,1.633453646941493,0.0,0.0,0.0,0.0,0.0,0.0,0.0,0.0,0.0,2
1704779951018465869,3272,1704779951017976529,gnss_link,0,1,36.9040944,118.16694092,1.6339772457170914,0.0,0.0,0.0,0.0,0.0,0.0,0.0,0.0,0.0,2
1704779951118792668,3273,1704779951118237424,gnss_link,0,1,36.9040943,118.16694273,1.634675377417889,0.0,0.0,0.0,0.0,0.0,0.0,0.0,0.0,0.0,2
1704779951218825304,3274,1704779951218300676,gnss_link,0,1,36.90409419,118.16694457,1.6355480420438862,0.0,0.0,0.0,0.0,0.0,0.0,0.0,0.0,0.0,2
1704779951319525131,3275,1704779951318976775,gnss_link,0,1,36.90409409,118.16694639,1.6360716408194844,0.0,0.0,0.0,0.0,0.0,0.0,0.0,0.0,0.0,2
1704779951418055635,3276,1704779951417546719,gnss_link,0,1,36.90409396,118.16694822,1.6353735091186867,0.0,0.0,0.0,0.0,0.0,0.0,0.0,0.0,0.0,2
1704779951518321467,3277,1704779951517744216,gnss_link,0,1,36.90409388,118.16695005,1.6341517786422908,0.0,0.0,0.0,0.0,0.0,0.0,0.0,0.0,0.0,2
1704779951618486415,3278,1704779951617692357,gnss_link,0,1,36.90409376,118.16695188,1.6336281798666923,0.0,0.0,0.0,0.0,0.0,0.0,0.0,0.0,0.0,2
1704779951718692979,3279,1704779951718184514,gnss_link,0,1,36.90409366,118.16695369,1.6329300481658948,0.0,0.0,0.0,0.0,0.0,0.0,0.0,0.0,0.0,2
1704779951817783643,3280,1704779951817309371,gnss_link,0,1,36.90409355,118.16695553,1.6324064493902966,0.0,0.0,0.0,0.0,0.0,0.0,0.0,0.0,0.0,2
1704779951918118447,3281,1704779951917563429,gnss_link,0,1,36.90409345,118.16695734,1.6313592518390998,0.0,0.0,0.0,0.0,0.0,0.0,0.0,0.0,0.0,2
1704779952018188043,3282,1704779952017714021,gnss_link,0,1,36.90409335,118.16695918,1.6304865872131027,0.0,0.0,0.0,0.0,0.0,0.0,0.0,0.0,0.0,2
1704779952117958498,3283,1704779952117478499,gnss_link,0,1,36.90409327,118.166961,1.6301375213627038,0.0,0.0,0.0,0.0,0.0,0.0,0.0,0.0,0.0,2
1704779952219101261,3284,1704779952218318316,gnss_link,0,1,36.90409318,118.16696284,1.6296139225871056,0.0,0.0,0.0,0.0,0.0,0.0,0.0,0.0,0.0,2
