%time,field.header.seq,field.header.stamp,field.header.frame_id,field.status.status,field.status.service,field.latitude,field.longitude,field.altitude,field.position_covariance0,field.position_covariance1,field.position_covariance2,field.position_covariance3,field.position_covariance4,field.position_covariance5,field.position_covariance6,field.position_covariance7,field.position_covariance8,field.position_covariance_type
1704780507644091892,8840,1704780507643711484,gnss_link,0,1,36.90411402,118.16644871,4.772253773728095,0.0,0.0,0.0,0.0,0.0,0.0,0.0,0.0,0.0,2
1704780507743430591,8841,1704780507743139885,gnss_link,0,1,36.90411402,118.16644871,4.772253773728095,0.0,0.0,0.0,0.0,0.0,0.0,0.0,0.0,0.0,2
1704780507844325278,8842,1704780507843965172,gnss_link,0,1,36.90411402,118.16644872,4.772253773728095,0.0,0.0,0.0,0.0,0.0,0.0,0.0,0.0,0.0,2
1704780507943888030,8843,1704780507943532287,gnss_link,0,1,36.90411402,118.16644872,4.772253773728095,0.0,0.0,0.0,0.0,0.0,0.0,0.0,0.0,0.0,2
1704780508043814423,8844,1704780508043419057,gnss_link,0,1,36.90411402,118.16644873,4.7720792408028965,0.0,0.0,0.0,0.0,0.0,0.0,0.0,0.0,0.0,2
1704780508143473567,8845,1704780508143004092,gnss_link,0,1,36.90411402,118.16644872,4.7720792408028965,0.0,0.0,0.0,0.0,0.0,0.0,0.0,0.0,0.0,2
1704780508244081453,8846,1704780508243713214,gnss_link,0,1,36.90411401,118.16644873,4.7720792408028965,0.0,0.0,0.0,0.0,0.0,0.0,0.0,0.0,0.0,2
1704780508343588978,8847,1704780508343247709,gnss_link,0,1,36.90411401,118.16644873,4.772253773728095,0.0,0.0,0.0,0.0,0.0,0.0,0.0,0.0,0.0,2
1704780508443373474,8848,1704780508443048082,gnss_link,0,1,36.904114,118.16644873,4.772253773728095,0.0,0.0,0.0,0.0,0.0,0.0,0.0,0.0,0.0,2
1704780508542706378,8849,1704780508542460978,gnss_link,0,1,36.904114,118.16644873,4.772253773728095,0.0,0.0,0.0,0.0,0.0,0.0,0.0,0.0,0.0,2
1704780508643597365,8850,1704780508643349226,gnss_link,0,1,36.904114,118.16644873,4.7720792408028965,0.0,0.0,0.0,0.0,0.0,0.0,0.0,0.0,0.0,2
1704780508743230115,8851,1704780508742855918,gnss_link,0,1,36.904114,118.16644873,4.7720792408028965,0.0,0.0,0.0,0.0,0.0,0.0,0.0,0.0,0.0,2
1704780508843872813,8852,1704780508843587295,gnss_link,0,1,36.90411399,118.16644873,4.7720792408028965,0.0,0.0,0.0,0.0,0.0,0.0,0.0,0.0,0.0,2
1704780508943710564,8853,1704780508943273741,gnss_link,0,1,36.90411399,118.16644873,4.7720792408028965,0.0,0.0,0.0,0.0,0.0,0.0,0.0,0.0,0.0,2
1704780509042789374,8854,1704780509042469871,gnss_link,0,1,36.90411399,118.16644873,4.7720792408028965,0.0,0.0,0.0,0.0,0.0,0.0,0.0,0.0,0.0,2
1704780509143427574,8855,1704780509143038465,gnss_link,0,1,36.90411399,118.16644873,4.7720792408028965,0.0,0.0,0.0,0.0,0.0,0.0,0.0,0.0,0.0,2
1704780509243783909,8856,1704780509243450429,gnss_link,0,1,36.90411399,118.16644873,4.772253773728095,0.0,0.0,0.0,0.0,0.0,0.0,0.0,0.0,0.0,2
1704780509343118800,8857,1704780509342887918,gnss_link,0,1,36.90411399,118.16644872,4.772253773728095,0.0,0.0,0.0,0.0,0.0,0.0,0.0,0.0,0.0,2
1704780509442826001,8858,1704780509442498038,gnss_link,0,1,36.90411398,118.1664487,4.7720792408028965,0.0,0.0,0.0,0.0,0.0,0.0,0.0,0.0,0.0,2
1704780509542634632,8859,1704780509542174163,gnss_link,0,1,36.90411399,118.16644861,4.7720792408028965,0.0,0.0,0.0,0.0,0.0,0.0,0.0,0.0,0.0,2
1704780509643430622,8860,1704780509643048584,gnss_link,0,1,36.90411399,118.16644848,4.771904707877697,0.0,0.0,0.0,0.0,0.0,0.0,0.0,0.0,0.0,2
1704780509743362923,8861,1704780509742932511,gnss_link,0,1,36.904114,118.16644828,4.771904707877697,0.0,0.0,0.0,0.0,0.0,0.0,0.0,0.0,0.0,2
1704780509843241843,8862,1704780509842795588,gnss_link,0,1,36.90411401,118.16644803,4.771904707877697,0.0,0.0,0.0,0.0,0.0,0.0,0.0,0.0,0.0,2
1704780509944014400,8863,1704780509943460801,gnss_link,0,1,36.90411403,118.16644771,4.771904707877697,0.0,0.0,0.0,0.0,0.0,0.0,0.0,0.0,0.0,2
1704780510042895859,8864,1704780510042456935,gnss_link,0,1,36.90411404,118.16644732,4.7720792408028965,0.0,0.0,0.0,0.0,0.0,0.0,0.0,0.0,0.0,2
1704780510142526021,8865,1704780510142149153,gnss_link,0,1,36.90411407,118.16644688,4.7720792408028965,0.0,0.0,0.0,0.0,0.0,0.0,0.0,0.0,0.0,2
1704780510243160412,8866,1704780510242915770,gnss_link,0,1,36.90411409,118.16644636,4.771904707877697,0.0,0.0,0.0,0.0,0.0,0.0,0.0,0.0,0.0,2
1704780510343504987,8867,1704780510342972760,gnss_link,0,1,36.90411412,118.16644579,4.772777372503693,0.0,0.0,0.0,0.0,0.0,0.0,0.0,0.0,0.0,2
1704780510442399019,8868,1704780510442070650,gnss_link,0,1,36.90411415,118.16644516,4.7741736359052895,0.0,0.0,0.0,0.0,0.0,0.0,0.0,0.0,0.0,2
1704780510542721951,8869,1704780510542242643,gnss_link,0,1,36.90411419,118.16644449,4.7757444322320834,0.0,0.0,0.0,0.0,0.0,0.0,0.0,0.0,0.0,2
1704780510642973326,8870,1704780510642523546,gnss_link,0,1,36.90411424,118.16644376,4.777664294409278,0.0,0.0,0.0,0.0,0.0,0.0,0.0,0.0,0.0,2
1704780510742970267,8871,1704780510742563852,gnss_link,0,1,36.90411428,118.16644298,4.779584156586472,0.0,0.0,0.0,0.0,0.0,0.0,0.0,0.0,0.0,2
1704780510843143324,8872,1704780510842784728,gnss_link,0,1,36.90411434,118.16644214,4.780980419988067,0.0,0.0,0.0,0.0,0.0,0.0,0.0,0.0,0.0,2
1704780510943297485,8873,1704780510942888473,gnss_link,0,1,36.90411439,118.16644126,4.782900282165261,0.0,0.0,0.0,0.0,0.0,0.0,0.0,0.0,0.0,2
1704780511042517619,8874,1704780511042178620,gnss_link,0,1,36.90411445,118.16644033,4.784820144342454,0.0,0.0,0.0,0.0,0.0,0.0,0.0,0.0,0.0,2
1704780511142152263,8875,1704780511141854641,gnss_link,0,1,36.90411451,118.16643937,4.788136269921243,0.0,0.0,0.0,0.0,0.0,0.0,0.0,0.0,0.0,2
1704780511243235705,8876,1704780511242809572,gnss_link,0,1,36.90411458,118.16643839,4.792325060126029,0.0,0.0,0.0,0.0,0.0,0.0,0.0,0.0,0.0,2
1704780511343340739,8877,1704780511342762199,gnss_link,0,1,36.90411465,118.1664374,4.797037449106415,0.0,0.0,0.0,0.0,0.0,0.0,0.0,0.0,0.0,2
1704780511442023555,8878,1704780511441717624,gnss_link,0,1,36.90411473,118.16643643,4.802273436862397,0.0,0.0,0.0,0.0,0.0,0.0,0.0,0.0,0.0,2
1704780511542290982,8879,1704780511541973940,gnss_link,0,1,36.9041148,118.16643547,4.808033023393979,0.0,0.0,0.0,0.0,0.0,0.0,0.0,0.0,0.0,2
1704780511642539814,8880,1704780511642204332,gnss_link,0,1,36.90411488,118.16643453,4.815014340401956,0.0,0.0,0.0,0.0,0.0,0.0,0.0,0.0,0.0,2
1704780511742944544,8881,1704780511742398270,gnss_link,0,1,36.90411497,118.16643359,4.822519256185532,0.0,0.0,0.0,0.0,0.0,0.0,0.0,0.0,0.0,2
1704780511843333188,8882,1704780511842855773,gnss_link,0,1,36.90411506,118.16643268,4.831420435370703,0.0,0.0,0.0,0.0,0.0,0.0,0.0,0.0,0.0,2
1704780511942897510,8883,1704780511942584766,gnss_link,0,1,36.90411515,118.16643174,4.84189241088267,0.0,0.0,0.0,0.0,0.0,0.0,0.0,0.0,0.0,2
1704780512042351360,8884,1704780512041843781,gnss_link,0,1,36.90411527,118.16643083,4.853237051020632,0.0,0.0,0.0,0.0,0.0,0.0,0.0,0.0,0.0,2
1704780512142581122,8885,1704780512142050304,gnss_link,0,1,36.90411539,118.16642992,4.867199685036587,0.0,0.0,0.0,0.0,0.0,0.0,0.0,0.0,0.0,2
1704780512242711440,8886,1704780512242219204,gnss_link,0,1,36.90411551,118.16642904,4.882907648304536,0.0,0.0,0.0,0.0,0.0,0.0,0.0,0.0,0.0,2
1704780512342850258,8887,1704780512342386894,gnss_link,0,1,36.90411566,118.16642815,4.899662809123682,0.0,0.0,0.0,0.0,0.0,0.0,0.0,0.0,0.0,2
1704780512442117924,8888,1704780512441567160,gnss_link,0,1,36.90411581,118.16642729,4.9185123650452205,0.0,0.0,0.0,0.0,0.0,0.0,0.0,0.0,0.0,2
1704780512542209739,8889,1704780512541665152,gnss_link,0,1,36.90411596,118.16642641,4.938932717293554,0.0,0.0,0.0,0.0,0.0,0.0,0.0,0.0,0.0,2
1704780512642490110,8890,1704780512641960349,gnss_link,0,1,36.90411615,118.16642555,4.959876668317486,0.0,0.0,0.0,0.0,0.0,0.0,0.0,0.0,0.0,2
1704780512742836162,8891,1704780512742171097,gnss_link,0,1,36.90411635,118.16642467,4.980995152266617,0.0,0.0,0.0,0.0,0.0,0.0,0.0,0.0,0.0,2
1704780512842866013,8892,1704780512842325217,gnss_link,0,1,36.90411656,118.1664238,5.0001937740385545,0.0,0.0,0.0,0.0,0.0,0.0,0.0,0.0,0.0,2
1704780512943187859,8893,1704780512942571647,gnss_link,0,1,36.9041168,118.16642291,5.014854539755307,0.0,0.0,0.0,0.0,0.0,0.0,0.0,0.0,0.0,2
1704780513042325513,8894,1704780513041667974,gnss_link,0,1,36.90411703,118.16642204,5.027769976220065,0.0,0.0,0.0,0.0,0.0,0.0,0.0,0.0,0.0,2
1704780513142232544,8895,1704780513141760389,gnss_link,0,1,36.90411727,118.16642115,5.042256209011618,0.0,0.0,0.0,0.0,0.0,0.0,0.0,0.0,0.0,2
1704780513242347623,8896,1704780513241916121,gnss_link,0,1,36.90411753,118.1664203,5.0541244479251795,0.0,0.0,0.0,0.0,0.0,0.0,0.0,0.0,0.0,2
1704780513342869692,8897,1704780513342304186,gnss_link,0,1,36.9041178,118.16641942,5.058662303980364,0.0,0.0,0.0,0.0,0.0,0.0,0.0,0.0,0.0,2
1704780513441546776,8898,1704780513441148864,gnss_link,0,1,36.90411804,118.16641855,5.060058567381961,0.0,0.0,0.0,0.0,0.0,0.0,0.0,0.0,0.0,2
1704780513541989292,8899,1704780513541487734,gnss_link,0,1,36.90411829,118.16641768,5.061803896633954,0.0,0.0,0.0,0.0,0.0,0.0,0.0,0.0,0.0,2
1704780513642113402,8900,1704780513641645016,gnss_link,0,1,36.90411854,118.16641683,5.070006944118328,0.0,0.0,0.0,0.0,0.0,0.0,0.0,0.0,0.0,2
1704780513742634548,8901,1704780513741965776,gnss_link,0,1,36.9041188,118.16641597,5.082573314732687,0.0,0.0,0.0,0.0,0.0,0.0,0.0,0.0,0.0,2
1704780513842755534,8902,1704780513842023532,gnss_link,0,1,36.90411909,118.16641514,5.094267020721049,0.0,0.0,0.0,0.0,0.0,0.0,0.0,0.0,0.0,2
1704780513942730103,8903,1704780513942146102,gnss_link,0,1,36.90411938,118.16641429,5.109102319363001,0.0,0.0,0.0,0.0,0.0,0.0,0.0,0.0,0.0,2
1704780514041926687,8904,1704780514041338454,gnss_link,0,1,36.90411967,118.16641348,5.126904677733343,0.0,0.0,0.0,0.0,0.0,0.0,0.0,0.0,0.0,2
1704780514141878964,8905,1704780514141401542,gnss_link,0,1,36.90411999,118.16641266,5.1433107727020895,0.0,0.0,0.0,0.0,0.0,0.0,0.0,0.0,0.0,2
1704780514242231767,8906,1704780514241732859,gnss_link,0,1,36.9041203,118.16641187,5.16181126277323,0.0,0.0,0.0,0.0,0.0,0.0,0.0,0.0,0.0,2
1704780514342270466,8907,1704780514341777641,gnss_link,0,1,36.90412064,118.16641106,5.1806608186947685,0.0,0.0,0.0,0.0,0.0,0.0,0.0,0.0,0.0,2
1704780514441571633,8908,1704780514441057333,gnss_link,0,1,36.90412098,118.16641029,5.199859440466706,0.0,0.0,0.0,0.0,0.0,0.0,0.0,0.0,0.0,2
1704780514541942996,8909,1704780514541353138,gnss_link,0,1,36.90412133,118.1664095,5.22324685244343,0.0,0.0,0.0,0.0,0.0,0.0,0.0,0.0,0.0,2
1704780514642120540,8910,1704780514641471360,gnss_link,0,1,36.90412169,118.16640875,5.248379593672148,0.0,0.0,0.0,0.0,0.0,0.0,0.0,0.0,0.0,2
1704780514742150896,8911,1704780514741616507,gnss_link,0,1,36.90412208,118.16640799,5.274734065377263,0.0,0.0,0.0,0.0,0.0,0.0,0.0,0.0,0.0,2
1704780514841285291,8912,1704780514840734426,gnss_link,0,1,36.90412246,118.16640725,5.3051027943619635,0.0,0.0,0.0,0.0,0.0,0.0,0.0,0.0,0.0,2
1704780514941332268,8913,1704780514940911093,gnss_link,0,1,36.90412289,118.16640651,5.334773391645868,0.0,0.0,0.0,0.0,0.0,0.0,0.0,0.0,0.0,2
1704780515041643043,8914,1704780515041097291,gnss_link,0,1,36.90412332,118.1664058,5.364618521854971,0.0,0.0,0.0,0.0,0.0,0.0,0.0,0.0,0.0,2
1704780515141828400,8915,1704780515141303092,gnss_link,0,1,36.90412378,118.16640507,5.393416454512876,0.0,0.0,0.0,0.0,0.0,0.0,0.0,0.0,0.0,2
1704780515241953826,8916,1704780515241360670,gnss_link,0,1,36.90412425,118.16640437,5.418549195741595,0.0,0.0,0.0,0.0,0.0,0.0,0.0,0.0,0.0,2
1704780515342452688,8917,1704780515341652347,gnss_link,0,1,36.90412475,118.16640368,5.443332871119915,0.0,0.0,0.0,0.0,0.0,0.0,0.0,0.0,0.0,2
1704780515441269150,8918,1704780515440755399,gnss_link,0,1,36.90412524,118.16640301,5.467069348947038,0.0,0.0,0.0,0.0,0.0,0.0,0.0,0.0,0.0,2
1704780515541499236,8919,1704780515541007631,gnss_link,0,1,36.90412578,118.16640237,5.487140635344972,0.0,0.0,0.0,0.0,0.0,0.0,0.0,0.0,0.0,2
1704780515641592304,8920,1704780515641108898,gnss_link,0,1,36.90412632,118.16640172,5.505292059565714,0.0,0.0,0.0,0.0,0.0,0.0,0.0,0.0,0.0,2
1704780515743007433,8921,1704780515742456624,gnss_link,0,1,36.9041269,118.16640107,5.522396286235258,0.0,0.0,0.0,0.0,0.0,0.0,0.0,0.0,0.0,2
1704780515841306765,8922,1704780515840833860,gnss_link,0,1,36.90412751,118.1664004,5.5395005129048025,0.0,0.0,0.0,0.0,0.0,0.0,0.0,0.0,0.0,2
1704780515941442223,8923,1704780515941015166,gnss_link,0,1,36.90412816,118.16639969,5.557651937125543,0.0,0.0,0.0,0.0,0.0,0.0,0.0,0.0,0.0,2
1704780516041683990,8924,1704780516041171879,gnss_link,0,1,36.90412887,118.16639895,5.575454295495885,0.0,0.0,0.0,0.0,0.0,0.0,0.0,0.0,0.0,2
1704780516142146142,8925,1704780516141379833,gnss_link,0,1,36.90412964,118.16639821,5.59570011481902,0.0,0.0,0.0,0.0,0.0,0.0,0.0,0.0,0.0,2
1704780516241111547,8926,1704780516240496517,gnss_link,0,1,36.90413041,118.16639742,5.619087526795743,0.0,0.0,0.0,0.0,0.0,0.0,0.0,0.0,0.0,2
1704780516341393837,8927,1704780516340860295,gnss_link,0,1,36.90413124,118.16639664,5.6419513399968695,0.0,0.0,0.0,0.0,0.0,0.0,0.0,0.0,0.0,2
1704780516441215075,8928,1704780516440783873,gnss_link,0,1,36.90413209,118.16639586,5.664466087347597,0.0,0.0,0.0,0.0,0.0,0.0,0.0,0.0,0.0,2
1704780516541441998,8929,1704780516540970244,gnss_link,0,1,36.90413296,118.16639513,5.686457235922725,0.0,0.0,0.0,0.0,0.0,0.0,0.0,0.0,0.0,2
1704780516640773167,8930,1704780516640233016,gnss_link,0,1,36.90413381,118.16639442,5.7079247857222555,0.0,0.0,0.0,0.0,0.0,0.0,0.0,0.0,0.0,2
1704780516740886604,8931,1704780516740377849,gnss_link,0,1,36.9041347,118.16639375,5.726774341643794,0.0,0.0,0.0,0.0,0.0,0.0,0.0,0.0,0.0,2
1704780516841211923,8932,1704780516840595442,gnss_link,0,1,36.90413557,118.1663931,5.740038843958951,0.0,0.0,0.0,0.0,0.0,0.0,0.0,0.0,0.0,2
1704780516941458759,8933,1704780516940763936,gnss_link,0,1,36.90413646,118.1663925,5.7531288133489085,0.0,0.0,0.0,0.0,0.0,0.0,0.0,0.0,0.0,2
1704780517041499621,8934,1704780517040984139,gnss_link,0,1,36.9041373,118.16639187,5.761680926683681,0.0,0.0,0.0,0.0,0.0,0.0,0.0,0.0,0.0,2
1704780517141661806,8935,1704780517141049683,gnss_link,0,1,36.9041382,118.16639128,5.767615046140461,0.0,0.0,0.0,0.0,0.0,0.0,0.0,0.0,0.0,2
1704780517240859267,8936,1704780517240284673,gnss_link,0,1,36.90413909,118.16639066,5.771629303420048,0.0,0.0,0.0,0.0,0.0,0.0,0.0,0.0,0.0,2
1704780517340881335,8937,1704780517340312432,gnss_link,0,1,36.90414004,118.16639001,5.769360375392456,0.0,0.0,0.0,0.0,0.0,0.0,0.0,0.0,0.0,2
1704780517441047946,8938,1704780517440548569,gnss_link,0,1,36.904141,118.16638932,5.76813864491606,0.0,0.0,0.0,0.0,0.0,0.0,0.0,0.0,0.0,2
1704780517541178228,8939,1704780517540718178,gnss_link,0,1,36.90414202,118.1663886,5.766742381514464,0.0,0.0,0.0,0.0,0.0,0.0,0.0,0.0,0.0,2
1704780517640308926,8940,1704780517639841169,gnss_link,0,1,36.90414305,118.16638783,5.764822519337271,0.0,0.0,0.0,0.0,0.0,0.0,0.0,0.0,0.0,2
1704780517740086182,8941,1704780517739639950,gnss_link,0,1,36.90414414,118.16638708,5.764647986412071,0.0,0.0,0.0,0.0,0.0,0.0,0.0,0.0,0.0,2
1704780517840722003,8942,1704780517839950643,gnss_link,0,1,36.90414523,118.16638632,5.763426255935675,0.0,0.0,0.0,0.0,0.0,0.0,0.0,0.0,0.0,2
1704780517940975454,8943,1704780517940467220,gnss_link,0,1,36.90414635,118.16638557,5.762728124234878,0.0,0.0,0.0,0.0,0.0,0.0,0.0,0.0,0.0,2
1704780518041130863,8944,1704780518040586564,gnss_link,0,1,36.90414745,118.1663848,5.762902657160077,0.0,0.0,0.0,0.0,0.0,0.0,0.0,0.0,0.0,2
1704780518141284814,8945,1704780518140779909,gnss_link,0,1,36.90414855,118.16638404,5.764124387636473,0.0,0.0,0.0,0.0,0.0,0.0,0.0,0.0,0.0,2
1704780518240376069,8946,1704780518239901508,gnss_link,0,1,36.90414962,118.16638328,5.764647986412071,0.0,0.0,0.0,0.0,0.0,0.0,0.0,0.0,0.0,2
1704780518340599095,8947,1704780518340083177,gnss_link,0,1,36.9041507,118.16638252,5.766044249813667,0.0,0.0,0.0,0.0,0.0,0.0,0.0,0.0,0.0,2
1704780518440393281,8948,1704780518439921320,gnss_link,0,1,36.90415177,118.16638176,5.766742381514464,0.0,0.0,0.0,0.0,0.0,0.0,0.0,0.0,0.0,2
1704780518541142228,8949,1704780518540542368,gnss_link,0,1,36.90415284,118.16638103,5.77093117171925,0.0,0.0,0.0,0.0,0.0,0.0,0.0,0.0,0.0,2
1704780518640258734,8950,1704780518639670758,gnss_link,0,1,36.90415392,118.16638033,5.7775634228768284,0.0,0.0,0.0,0.0,0.0,0.0,0.0,0.0,0.0,2
1704780518740240680,8951,1704780518739706569,gnss_link,0,1,36.90415492,118.1663797,5.784544739884806,0.0,0.0,0.0,0.0,0.0,0.0,0.0,0.0,0.0,2
1704780518840615737,8952,1704780518840198151,gnss_link,0,1,36.90415582,118.16637913,5.793620451995177,0.0,0.0,0.0,0.0,0.0,0.0,0.0,0.0,0.0,2
1704780518940753759,8953,1704780518940192612,gnss_link,0,1,36.90415669,118.16637859,5.802870697030747,0.0,0.0,0.0,0.0,0.0,0.0,0.0,0.0,0.0,2
1704780519041134435,8954,1704780519040539902,gnss_link,0,1,36.90415754,118.16637807,5.811946409141117,0.0,0.0,0.0,0.0,0.0,0.0,0.0,0.0,0.0,2
1704780519140961637,8955,1704780519140465968,gnss_link,0,1,36.90415844,118.1663775,5.822243851727883,0.0,0.0,0.0,0.0,0.0,0.0,0.0,0.0,0.0,2
1704780519240333468,8956,1704780519239707955,gnss_link,0,1,36.90415941,118.16637692,5.834984755267443,0.0,0.0,0.0,0.0,0.0,0.0,0.0,0.0,0.0,2
1704780519340295053,8957,1704780519339733358,gnss_link,0,1,36.90416045,118.16637635,5.848772856358198,0.0,0.0,0.0,0.0,0.0,0.0,0.0,0.0,0.0,2
1704780519440594217,8958,1704780519440067051,gnss_link,0,1,36.90416153,118.16637578,5.862560957448952,0.0,0.0,0.0,0.0,0.0,0.0,0.0,0.0,0.0,2
1704780519540174674,8959,1704780519539712143,gnss_link,0,1,36.90416265,118.1663752,5.8763490585397085,0.0,0.0,0.0,0.0,0.0,0.0,0.0,0.0,0.0,2
1704780519639906961,8960,1704780519639532072,gnss_link,0,1,36.90416383,118.16637463,5.883330375547685,0.0,0.0,0.0,0.0,0.0,0.0,0.0,0.0,0.0,2
1704780519739865682,8961,1704780519739399820,gnss_link,0,1,36.904165,118.16637407,5.881235980445293,0.0,0.0,0.0,0.0,0.0,0.0,0.0,0.0,0.0,2
1704780519840162079,8962,1704780519839625226,gnss_link,0,1,36.90416618,118.16637345,5.8829813096972865,0.0,0.0,0.0,0.0,0.0,0.0,0.0,0.0,0.0,2
1704780519939518232,8963,1704780519939281584,gnss_link,0,1,36.90416736,118.16637286,5.884552106024082,0.0,0.0,0.0,0.0,0.0,0.0,0.0,0.0,0.0,2
1704780520040885768,8964,1704780520040328823,gnss_link,0,1,36.90416852,118.16637226,5.884552106024082,0.0,0.0,0.0,0.0,0.0,0.0,0.0,0.0,0.0,2
1704780520140743079,8965,1704780520140184323,gnss_link,0,1,36.90416967,118.16637166,5.886821034051675,0.0,0.0,0.0,0.0,0.0,0.0,0.0,0.0,0.0,2
1704780520240166657,8966,1704780520239410035,gnss_link,0,1,36.90417081,118.16637108,5.887693698677671,0.0,0.0,0.0,0.0,0.0,0.0,0.0,0.0,0.0,2
1704780520339801796,8967,1704780520339173306,gnss_link,0,1,36.90417195,118.16637052,5.887693698677671,0.0,0.0,0.0,0.0,0.0,0.0,0.0,0.0,0.0,2
1704780520440434436,8968,1704780520439927935,gnss_link,0,1,36.90417309,118.16636996,5.887693698677671,0.0,0.0,0.0,0.0,0.0,0.0,0.0,0.0,0.0,2
1704780520540281841,8969,1704780520539851417,gnss_link,0,1,36.90417424,118.16636942,5.888042764528071,0.0,0.0,0.0,0.0,0.0,0.0,0.0,0.0,0.0,2
1704780520639531916,8970,1704780520639050358,gnss_link,0,1,36.90417536,118.16636884,5.88821729745327,0.0,0.0,0.0,0.0,0.0,0.0,0.0,0.0,0.0,2
1704780520739655721,8971,1704780520739057246,gnss_link,0,1,36.90417649,118.16636826,5.887868231602871,0.0,0.0,0.0,0.0,0.0,0.0,0.0,0.0,0.0,2
1704780520839841619,8972,1704780520839288388,gnss_link,0,1,36.90417761,118.16636769,5.887170099902073,0.0,0.0,0.0,0.0,0.0,0.0,0.0,0.0,0.0,2
1704780520939583383,8973,1704780520939117271,gnss_link,0,1,36.90417875,118.16636711,5.887170099902073,0.0,0.0,0.0,0.0,0.0,0.0,0.0,0.0,0.0,2
1704780521040603500,8974,1704780521040076757,gnss_link,0,1,36.9041799,118.16636649,5.886646501126474,0.0,0.0,0.0,0.0,0.0,0.0,0.0,0.0,0.0,2
1704780521140305468,8975,1704780521139754949,gnss_link,0,1,36.90418111,118.1663659,5.886646501126474,0.0,0.0,0.0,0.0,0.0,0.0,0.0,0.0,0.0,2
1704780521239228975,8976,1704780521238699424,gnss_link,0,1,36.90418235,118.16636527,5.885948369425678,0.0,0.0,0.0,0.0,0.0,0.0,0.0,0.0,0.0,2
1704780521339996189,8977,1704780521339390081,gnss_link,0,1,36.90418364,118.16636459,5.885948369425678,0.0,0.0,0.0,0.0,0.0,0.0,0.0,0.0,0.0,2
1704780521440063740,8978,1704780521439420509,gnss_link,0,1,36.90418496,118.1663639,5.8862974352760755,0.0,0.0,0.0,0.0,0.0,0.0,0.0,0.0,0.0,2
1704780521539620152,8979,1704780521539146127,gnss_link,0,1,36.90418632,118.16636322,5.8862974352760755,0.0,0.0,0.0,0.0,0.0,0.0,0.0,0.0,0.0,2
1704780521639544571,8980,1704780521639056536,gnss_link,0,1,36.90418768,118.16636248,5.8862974352760755,0.0,0.0,0.0,0.0,0.0,0.0,0.0,0.0,0.0,2
1704780521739247755,8981,1704780521738767953,gnss_link,0,1,36.90418907,118.1663618,5.885948369425678,0.0,0.0,0.0,0.0,0.0,0.0,0.0,0.0,0.0,2
1704780521839729617,8982,1704780521839177995,gnss_link,0,1,36.90419047,118.16636111,5.886122902350876,0.0,0.0,0.0,0.0,0.0,0.0,0.0,0.0,0.0,2
1704780521939772766,8983,1704780521939224488,gnss_link,0,1,36.90419187,118.1663604,5.886646501126474,0.0,0.0,0.0,0.0,0.0,0.0,0.0,0.0,0.0,2
1704780522039528346,8984,1704780522039276382,gnss_link,0,1,36.90419327,118.16635967,5.88821729745327,0.0,0.0,0.0,0.0,0.0,0.0,0.0,0.0,0.0,2
1704780522139728633,8985,1704780522139456408,gnss_link,0,1,36.90419466,118.16635897,5.889788093780064,0.0,0.0,0.0,0.0,0.0,0.0,0.0,0.0,0.0,2
1704780522239056310,8986,1704780522238719556,gnss_link,0,1,36.90419604,118.16635824,5.8908352913312605,0.0,0.0,0.0,0.0,0.0,0.0,0.0,0.0,0.0,2
1704780522338726525,8987,1704780522338428869,gnss_link,0,1,36.90419741,118.16635756,5.891533423032059,0.0,0.0,0.0,0.0,0.0,0.0,0.0,0.0,0.0,2
1704780522440006629,8988,1704780522439461867,gnss_link,0,1,36.90419878,118.16635688,5.891882488882457,0.0,0.0,0.0,0.0,0.0,0.0,0.0,0.0,0.0,2
1704780522539566815,8989,1704780522539218111,gnss_link,0,1,36.90420013,118.16635622,5.8917079559572585,0.0,0.0,0.0,0.0,0.0,0.0,0.0,0.0,0.0,2
1704780522638663881,8990,1704780522638146574,gnss_link,0,1,36.90420148,118.16635554,5.8917079559572585,0.0,0.0,0.0,0.0,0.0,0.0,0.0,0.0,0.0,2
1704780522739071558,8991,1704780522738647831,gnss_link,0,1,36.90420283,118.16635486,5.8917079559572585,0.0,0.0,0.0,0.0,0.0,0.0,0.0,0.0,0.0,2
1704780522839213517,8992,1704780522838821111,gnss_link,0,1,36.9042042,118.16635417,5.891882488882457,0.0,0.0,0.0,0.0,0.0,0.0,0.0,0.0,0.0,2
1704780522939546103,8993,1704780522939027228,gnss_link,0,1,36.90420556,118.16635348,5.891882488882457,0.0,0.0,0.0,0.0,0.0,0.0,0.0,0.0,0.0,2
1704780523039585318,8994,1704780523039084727,gnss_link,0,1,36.90420691,118.16635278,5.892406087658056,0.0,0.0,0.0,0.0,0.0,0.0,0.0,0.0,0.0,2
1704780523139358713,8995,1704780523138871603,gnss_link,0,1,36.90420826,118.1663521,5.892580620583256,0.0,0.0,0.0,0.0,0.0,0.0,0.0,0.0,0.0,2
1704780523239302061,8996,1704780523238809760,gnss_link,0,1,36.90420963,118.16635142,5.892755153508455,0.0,0.0,0.0,0.0,0.0,0.0,0.0,0.0,0.0,2
1704780523338966434,8997,1704780523338643142,gnss_link,0,1,36.90421098,118.16635078,5.893453285209253,0.0,0.0,0.0,0.0,0.0,0.0,0.0,0.0,0.0,2
1704780523439546338,8998,1704780523438917416,gnss_link,0,1,36.90421234,118.16635012,5.895198614461247,0.0,0.0,0.0,0.0,0.0,0.0,0.0,0.0,0.0,2
1704780523539720577,8999,1704780523539135583,gnss_link,0,1,36.90421369,118.16634945,5.897467542488839,0.0,0.0,0.0,0.0,0.0,0.0,0.0,0.0,0.0,2
1704780523638641701,9000,1704780523638091991,gnss_link,0,1,36.90421505,118.16634878,5.898863805890436,0.0,0.0,0.0,0.0,0.0,0.0,0.0,0.0,0.0,2
1704780523738845673,9001,1704780523738366460,gnss_link,0,1,36.90421643,118.16634812,5.901132733918028,0.0,0.0,0.0,0.0,0.0,0.0,0.0,0.0,0.0,2
1704780523839076966,9002,1704780523838559304,gnss_link,0,1,36.9042178,118.16634746,5.902005398544025,0.0,0.0,0.0,0.0,0.0,0.0,0.0,0.0,0.0,2
1704780523939215877,9003,1704780523938663208,gnss_link,0,1,36.90421918,118.16634682,5.90357619487082,0.0,0.0,0.0,0.0,0.0,0.0,0.0,0.0,0.0,2
1704780524038325630,9004,1704780524037862457,gnss_link,0,1,36.90422057,118.16634615,5.904797925347216,0.0,0.0,0.0,0.0,0.0,0.0,0.0,0.0,0.0,2
1704780524138201634,9005,1704780524137685897,gnss_link,0,1,36.90422192,118.16634549,5.905321524122814,0.0,0.0,0.0,0.0,0.0,0.0,0.0,0.0,0.0,2
1704780524239272172,9006,1704780524238624076,gnss_link,0,1,36.90422329,118.16634485,5.9061941887488105,0.0,0.0,0.0,0.0,0.0,0.0,0.0,0.0,0.0,2
1704780524338821790,9007,1704780524338252496,gnss_link,0,1,36.90422464,118.16634421,5.90671778752441,0.0,0.0,0.0,0.0,0.0,0.0,0.0,0.0,0.0,2
1704780524439166283,9008,1704780524438601655,gnss_link,0,1,36.90422602,118.16634358,5.907764985075606,0.0,0.0,0.0,0.0,0.0,0.0,0.0,0.0,0.0,2
1704780524539249071,9009,1704780524538696994,gnss_link,0,1,36.90422737,118.16634291,5.908114050926005,0.0,0.0,0.0,0.0,0.0,0.0,0.0,0.0,0.0,2
1704780524638313872,9010,1704780524637835792,gnss_link,0,1,36.90422875,118.16634225,5.9082885838512045,0.0,0.0,0.0,0.0,0.0,0.0,0.0,0.0,0.0,2
1704780524738589129,9011,1704780524738065221,gnss_link,0,1,36.90423012,118.16634163,5.910033913103199,0.0,0.0,0.0,0.0,0.0,0.0,0.0,0.0,0.0,2
1704780524838792388,9012,1704780524838497640,gnss_link,0,1,36.90423148,118.16634097,5.912128308205592,0.0,0.0,0.0,0.0,0.0,0.0,0.0,0.0,0.0,2
1704780524938844539,9013,1704780524938287951,gnss_link,0,1,36.90423283,118.16634032,5.918062427662372,0.0,0.0,0.0,0.0,0.0,0.0,0.0,0.0,0.0,2
1704780525037736714,9014,1704780525037458117,gnss_link,0,1,36.90423421,118.16633973,5.924345612969552,0.0,0.0,0.0,0.0,0.0,0.0,0.0,0.0,0.0,2
1704780525137863315,9015,1704780525137528112,gnss_link,0,1,36.90423556,118.1663391,5.932723193379125,0.0,0.0,0.0,0.0,0.0,0.0,0.0,0.0,0.0,2
1704780525238215627,9016,1704780525237755710,gnss_link,0,1,36.90423697,118.16633852,5.94371876766669,0.0,0.0,0.0,0.0,0.0,0.0,0.0,0.0,0.0,2
1704780525338256816,9017,1704780525337927743,gnss_link,0,1,36.90423836,118.16633799,5.951049150525066,0.0,0.0,0.0,0.0,0.0,0.0,0.0,0.0,0.0,2
1704780525438452701,9018,1704780525438109961,gnss_link,0,1,36.90423977,118.16633737,5.953667144403057,0.0,0.0,0.0,0.0,0.0,0.0,0.0,0.0,0.0,2
1704780525538890938,9019,1704780525538372597,gnss_link,0,1,36.90424116,118.16633681,5.955587006580251,0.0,0.0,0.0,0.0,0.0,0.0,0.0,0.0,0.0,2
1704780525637892795,9020,1704780525637492910,gnss_link,0,1,36.9042426,118.16633628,5.956459671206248,0.0,0.0,0.0,0.0,0.0,0.0,0.0,0.0,0.0,2
1704780525737984890,9021,1704780525737655193,gnss_link,0,1,36.90424398,118.16633571,5.956459671206248,0.0,0.0,0.0,0.0,0.0,0.0,0.0,0.0,0.0,2
1704780525838669867,9022,1704780525837999579,gnss_link,0,1,36.90424538,118.16633513,5.958205000458242,0.0,0.0,0.0,0.0,0.0,0.0,0.0,0.0,0.0,2
1704780525938192532,9023,1704780525937913002,gnss_link,0,1,36.90424676,118.16633458,5.958554066308641,0.0,0.0,0.0,0.0,0.0,0.0,0.0,0.0,0.0,2
1704780526037099160,9024,1704780526036806435,gnss_link,0,1,36.90424818,118.16633401,5.958728599233841,0.0,0.0,0.0,0.0,0.0,0.0,0.0,0.0,0.0,2
1704780526137637622,9025,1704780526137304347,gnss_link,0,1,36.90424956,118.16633345,5.958554066308641,0.0,0.0,0.0,0.0,0.0,0.0,0.0,0.0,0.0,2
1704780526237695846,9026,1704780526237413589,gnss_link,0,1,36.90425097,118.1663329,5.958205000458242,0.0,0.0,0.0,0.0,0.0,0.0,0.0,0.0,0.0,2
1704780526337548127,9027,1704780526337240864,gnss_link,0,1,36.90425236,118.16633234,5.9576814016826445,0.0,0.0,0.0,0.0,0.0,0.0,0.0,0.0,0.0,2
1704780526437669292,9028,1704780526437397177,gnss_link,0,1,36.90425378,118.16633175,5.957157802907045,0.0,0.0,0.0,0.0,0.0,0.0,0.0,0.0,0.0,2
1704780526538409962,9029,1704780526538062522,gnss_link,0,1,36.90425519,118.16633118,5.957157802907045,0.0,0.0,0.0,0.0,0.0,0.0,0.0,0.0,0.0,2
1704780526637847502,9030,1704780526637374483,gnss_link,0,1,36.9042566,118.1663306,5.956808737056647,0.0,0.0,0.0,0.0,0.0,0.0,0.0,0.0,0.0,2
1704780526739311001,9031,1704780526738720656,gnss_link,0,1,36.90425798,118.16633002,5.956983269981846,0.0,0.0,0.0,0.0,0.0,0.0,0.0,0.0,0.0,2
1704780526837616706,9032,1704780526837074287,gnss_link,0,1,36.90425939,118.16632944,5.957332335832245,0.0,0.0,0.0,0.0,0.0,0.0,0.0,0.0,0.0,2
1704780526937140201,9033,1704780526936727273,gnss_link,0,1,36.90426077,118.16632887,5.956808737056647,0.0,0.0,0.0,0.0,0.0,0.0,0.0,0.0,0.0,2
1704780527038182773,9034,1704780527037667778,gnss_link,0,1,36.90426216,118.1663283,5.95576153950545,0.0,0.0,0.0,0.0,0.0,0.0,0.0,0.0,0.0,2
1704780527138111094,9035,1704780527137518928,gnss_link,0,1,36.90426354,118.16632775,5.955237940729852,0.0,0.0,0.0,0.0,0.0,0.0,0.0,0.0,0.0,2
1704780527237917472,9036,1704780527237427925,gnss_link,0,1,36.90426494,118.16632719,5.954888874879453,0.0,0.0,0.0,0.0,0.0,0.0,0.0,0.0,0.0,2
1704780527338419536,9037,1704780527337916658,gnss_link,0,1,36.90426632,118.16632662,5.954714341954253,0.0,0.0,0.0,0.0,0.0,0.0,0.0,0.0,0.0,2
1704780527437773689,9038,1704780527437030532,gnss_link,0,1,36.90426776,118.16632604,5.9543652761038555,0.0,0.0,0.0,0.0,0.0,0.0,0.0,0.0,0.0,2
1704780527537452379,9039,1704780527536907878,gnss_link,0,1,36.90426915,118.16632548,5.954539809029054,0.0,0.0,0.0,0.0,0.0,0.0,0.0,0.0,0.0,2
1704780527638245795,9040,1704780527637782916,gnss_link,0,1,36.9042706,118.16632488,5.955587006580251,0.0,0.0,0.0,0.0,0.0,0.0,0.0,0.0,0.0,2
1704780527738186449,9041,1704780527737578698,gnss_link,0,1,36.90427201,118.16632428,5.95576153950545,0.0,0.0,0.0,0.0,0.0,0.0,0.0,0.0,0.0,2
1704780527837447762,9042,1704780527836819614,gnss_link,0,1,36.90427347,118.1663237,5.954539809029054,0.0,0.0,0.0,0.0,0.0,0.0,0.0,0.0,0.0,2
1704780527937064096,9043,1704780527936470728,gnss_link,0,1,36.90427485,118.16632313,5.954016210253456,0.0,0.0,0.0,0.0,0.0,0.0,0.0,0.0,0.0,2
1704780528037927969,9044,1704780528037379942,gnss_link,0,1,36.90427626,118.16632259,5.953318078552658,0.0,0.0,0.0,0.0,0.0,0.0,0.0,0.0,0.0,2
1704780528137437356,9045,1704780528137112102,gnss_link,0,1,36.90427763,118.16632206,5.951921815151063,0.0,0.0,0.0,0.0,0.0,0.0,0.0,0.0,0.0,2
1704780528238031314,9046,1704780528237525001,gnss_link,0,1,36.90427904,118.16632146,5.950351018824268,0.0,0.0,0.0,0.0,0.0,0.0,0.0,0.0,0.0,2
1704780528337973582,9047,1704780528337558572,gnss_link,0,1,36.90428042,118.16632082,5.948082090796675,0.0,0.0,0.0,0.0,0.0,0.0,0.0,0.0,0.0,2
1704780528436949254,9048,1704780528436647671,gnss_link,0,1,36.90428186,118.16632024,5.945987695694282,0.0,0.0,0.0,0.0,0.0,0.0,0.0,0.0,0.0,2
1704780528537196248,9049,1704780528536905375,gnss_link,0,1,36.90428325,118.16631967,5.942147971339894,0.0,0.0,0.0,0.0,0.0,0.0,0.0,0.0,0.0,2
1704780528637284649,9050,1704780528637000059,gnss_link,0,1,36.90428465,118.16631906,5.939529977461903,0.0,0.0,0.0,0.0,0.0,0.0,0.0,0.0,0.0,2
1704780528737792230,9051,1704780528737319456,gnss_link,0,1,36.90428602,118.16631847,5.937784648209909,0.0,0.0,0.0,0.0,0.0,0.0,0.0,0.0,0.0,2
1704780528836695524,9052,1704780528836374550,gnss_link,0,1,36.9042874,118.16631784,5.936388384808313,0.0,0.0,0.0,0.0,0.0,0.0,0.0,0.0,0.0,2
1704780528937034833,9053,1704780528936501448,gnss_link,0,1,36.90428875,118.16631724,5.933770390930322,0.0,0.0,0.0,0.0,0.0,0.0,0.0,0.0,0.0,2
1704780529037795504,9054,1704780529037245784,gnss_link,0,1,36.90429015,118.16631667,5.92818533732394,0.0,0.0,0.0,0.0,0.0,0.0,0.0,0.0,0.0,2
1704780529137352918,9055,1704780529136890210,gnss_link,0,1,36.90429151,118.16631605,5.918760559363171,0.0,0.0,0.0,0.0,0.0,0.0,0.0,0.0,0.0,2
1704780529237662989,9056,1704780529237149041,gnss_link,0,1,36.9042929,118.1663154,5.907415919225207,0.0,0.0,0.0,0.0,0.0,0.0,0.0,0.0,0.0,2
1704780529337803888,9057,1704780529337225799,gnss_link,0,1,36.90429427,118.16631475,5.895547680311646,0.0,0.0,0.0,0.0,0.0,0.0,0.0,0.0,0.0,2
1704780529436980249,9058,1704780529436488139,gnss_link,0,1,36.90429566,118.16631407,5.882806776772087,0.0,0.0,0.0,0.0,0.0,0.0,0.0,0.0,0.0,2
1704780529537040700,9059,1704780529536581915,gnss_link,0,1,36.904297,118.16631336,5.870065873232528,0.0,0.0,0.0,0.0,0.0,0.0,0.0,0.0,0.0,2
1704780529637224338,9060,1704780529636782498,gnss_link,0,1,36.90429835,118.16631263,5.857848568468568,0.0,0.0,0.0,0.0,0.0,0.0,0.0,0.0,0.0,2
1704780529737327069,9061,1704780529736982752,gnss_link,0,1,36.90429967,118.1663119,5.846852994181004,0.0,0.0,0.0,0.0,0.0,0.0,0.0,0.0,0.0,2
1704780529836658052,9062,1704780529836166120,gnss_link,0,1,36.90430102,118.16631115,5.833937557716246,0.0,0.0,0.0,0.0,0.0,0.0,0.0,0.0,0.0,2
1704780529937089115,9063,1704780529936481964,gnss_link,0,1,36.90430233,118.16631037,5.818578660298696,0.0,0.0,0.0,0.0,0.0,0.0,0.0,0.0,0.0,2
1704780530037117363,9064,1704780530036511462,gnss_link,0,1,36.90430367,118.16630956,5.8037433616567435,0.0,0.0,0.0,0.0,0.0,0.0,0.0,0.0,0.0,2
1704780530137126349,9065,1704780530136645923,gnss_link,0,1,36.90430496,118.16630872,5.788209931313994,0.0,0.0,0.0,0.0,0.0,0.0,0.0,0.0,0.0,2
1704780530237454162,9066,1704780530236939818,gnss_link,0,1,36.90430626,118.16630784,5.77093117171925,0.0,0.0,0.0,0.0,0.0,0.0,0.0,0.0,0.0,2
1704780530337469403,9067,1704780530337002129,gnss_link,0,1,36.90430754,118.16630696,5.7519070828725125,0.0,0.0,0.0,0.0,0.0,0.0,0.0,0.0,0.0,2
1704780530436845182,9068,1704780530436300264,gnss_link,0,1,36.90430883,118.16630603,5.72799607212019,0.0,0.0,0.0,0.0,0.0,0.0,0.0,0.0,0.0,2
1704780530536958383,9069,1704780530536372918,gnss_link,0,1,36.90431005,118.16630506,5.705481324769463,0.0,0.0,0.0,0.0,0.0,0.0,0.0,0.0,0.0,2
1704780530637287038,9070,1704780530636662005,gnss_link,0,1,36.9043113,118.16630403,5.687155367623523,0.0,0.0,0.0,0.0,0.0,0.0,0.0,0.0,0.0,2
1704780530737215511,9071,1704780530736721346,gnss_link,0,1,36.9043125,118.166303,5.673192733607569,0.0,0.0,0.0,0.0,0.0,0.0,0.0,0.0,0.0,2
1704780530836426416,9072,1704780530835882169,gnss_link,0,1,36.90431373,118.16630194,5.659230099591613,0.0,0.0,0.0,0.0,0.0,0.0,0.0,0.0,0.0,2
1704780530936542160,9073,1704780530936027692,gnss_link,0,1,36.90431492,118.16630089,5.6440457350992626,0.0,0.0,0.0,0.0,0.0,0.0,0.0,0.0,0.0,2
1704780531036879174,9074,1704780531036233944,gnss_link,0,1,36.90431615,118.16629978,5.629035903532111,0.0,0.0,0.0,0.0,0.0,0.0,0.0,0.0,0.0,2
1704780531136936861,9075,1704780531136349083,gnss_link,0,1,36.90431731,118.16629866,5.614724203665758,0.0,0.0,0.0,0.0,0.0,0.0,0.0,0.0,0.0,2
1704780531237147271,9076,1704780531236624838,gnss_link,0,1,36.90431849,118.1662975,5.599016240397809,0.0,0.0,0.0,0.0,0.0,0.0,0.0,0.0,0.0,2
1704780531337294835,9077,1704780531336757848,gnss_link,0,1,36.90431962,118.16629636,5.5801666844762705,0.0,0.0,0.0,0.0,0.0,0.0,0.0,0.0,0.0,2
1704780531436449846,9078,1704780531435939887,gnss_link,0,1,36.9043208,118.1662952,5.559571799302738,0.0,0.0,0.0,0.0,0.0,0.0,0.0,0.0,0.0,2
1704780531536770247,9079,1704780531536176220,gnss_link,0,1,36.90432187,118.166294,5.536707986101612,0.0,0.0,0.0,0.0,0.0,0.0,0.0,0.0,0.0,2
1704780531636751250,9080,1704780531636238018,gnss_link,0,1,36.90432294,118.16629279,5.511749777798093,0.0,0.0,0.0,0.0,0.0,0.0,0.0,0.0,0.0,2
1704780531736857580,9081,1704780531736347862,gnss_link,0,1,36.90432395,118.16629156,5.487838767045771,0.0,0.0,0.0,0.0,0.0,0.0,0.0,0.0,0.0,2
1704780531836305328,9082,1704780531835837142,gnss_link,0,1,36.90432498,118.16629031,5.462531492891853,0.0,0.0,0.0,0.0,0.0,0.0,0.0,0.0,0.0,2
1704780531936323538,9083,1704780531935788729,gnss_link,0,1,36.90432596,118.16628904,5.435129823635542,0.0,0.0,0.0,0.0,0.0,0.0,0.0,0.0,0.0,2
1704780532036595837,9084,1704780532036161436,gnss_link,0,1,36.90432697,118.16628771,5.40493562757604,0.0,0.0,0.0,0.0,0.0,0.0,0.0,0.0,0.0,2
1704780532136401883,9085,1704780532135965303,gnss_link,0,1,36.90432789,118.16628632,5.374915964441737,0.0,0.0,0.0,0.0,0.0,0.0,0.0,0.0,0.0,2
1704780532236731186,9086,1704780532236204508,gnss_link,0,1,36.90432882,118.16628487,5.341754708653845,0.0,0.0,0.0,0.0,0.0,0.0,0.0,0.0,0.0,2
1704780532337115664,9087,1704780532336436640,gnss_link,0,1,36.90432968,118.1662834,5.307720788239956,0.0,0.0,0.0,0.0,0.0,0.0,0.0,0.0,0.0,2
1704780532436129735,9088,1704780532435641568,gnss_link,0,1,36.90433055,118.16628185,5.273686867826067,0.0,0.0,0.0,0.0,0.0,0.0,0.0,0.0,0.0,2
1704780532536267383,9089,1704780532535815955,gnss_link,0,1,36.9043313,118.16628029,5.239827480337377,0.0,0.0,0.0,0.0,0.0,0.0,0.0,0.0,0.0,2
1704780532636477086,9090,1704780532635972201,gnss_link,0,1,36.9043321,118.16627869,5.208237020876279,0.0,0.0,0.0,0.0,0.0,0.0,0.0,0.0,0.0,2
1704780532736500651,9091,1704780532736018985,gnss_link,0,1,36.9043328,118.16627709,5.179613621143571,0.0,0.0,0.0,0.0,0.0,0.0,0.0,0.0,0.0,2
1704780532835707582,9092,1704780532835276555,gnss_link,0,1,36.90433348,118.16627544,5.148546760458073,0.0,0.0,0.0,0.0,0.0,0.0,0.0,0.0,0.0,2
1704780532936090687,9093,1704780532935519310,gnss_link,0,1,36.90433408,118.16627379,5.119574294874966,0.0,0.0,0.0,0.0,0.0,0.0,0.0,0.0,0.0,2
1704780533036081504,9094,1704780533035626962,gnss_link,0,1,36.90433466,118.16627222,5.095139685347046,0.0,0.0,0.0,0.0,0.0,0.0,0.0,0.0,0.0,2
1704780533136349430,9095,1704780533135808225,gnss_link,0,1,36.90433513,118.16627079,5.07227587214592,0.0,0.0,0.0,0.0,0.0,0.0,0.0,0.0,0.0,2
1704780533235923172,9096,1704780533235315575,gnss_link,0,1,36.90433559,118.16626943,5.0516809869723875,0.0,0.0,0.0,0.0,0.0,0.0,0.0,0.0,0.0,2
1704780533337115780,9097,1704780533335471617,gnss_link,0,1,36.90433596,118.16626808,5.0342276944524444,0.0,0.0,0.0,0.0,0.0,0.0,0.0,0.0,0.0,2
1704780533435755921,9098,1704780533435269667,gnss_link,0,1,36.90433637,118.16626673,5.02619917989327,0.0,0.0,0.0,0.0,0.0,0.0,0.0,0.0,0.0,2
1704780533535981946,9099,1704780533535476860,gnss_link,0,1,36.90433673,118.16626534,5.017821599483698,0.0,0.0,0.0,0.0,0.0,0.0,0.0,0.0,0.0,2
1704780533636060733,9100,1704780533635570792,gnss_link,0,1,36.90433712,118.16626391,5.0076986898221305,0.0,0.0,0.0,0.0,0.0,0.0,0.0,0.0,0.0,2
1704780533736089138,9101,1704780533735681605,gnss_link,0,1,36.90433748,118.16626249,4.999670175262956,0.0,0.0,0.0,0.0,0.0,0.0,0.0,0.0,0.0,2
1704780533835312867,9102,1704780533834918402,gnss_link,0,1,36.90433788,118.16626106,4.992688858254979,0.0,0.0,0.0,0.0,0.0,0.0,0.0,0.0,0.0,2
1704780533935616277,9103,1704780533935096213,gnss_link,0,1,36.9043382,118.1662596,4.988500068050192,0.0,0.0,0.0,0.0,0.0,0.0,0.0,0.0,0.0,2
1704780534035709970,9104,1704780534035232423,gnss_link,0,1,36.90433857,118.16625816,4.988674600975392,0.0,0.0,0.0,0.0,0.0,0.0,0.0,0.0,0.0,2
1704780534135815867,9105,1704780534135375876,gnss_link,0,1,36.90433891,118.1662567,4.987103804648598,0.0,0.0,0.0,0.0,0.0,0.0,0.0,0.0,0.0,2
1704780534235014622,9106,1704780534234589986,gnss_link,0,1,36.90433927,118.16625525,4.986405672947799,0.0,0.0,0.0,0.0,0.0,0.0,0.0,0.0,0.0,2
1704780534335211642,9107,1704780534334734158,gnss_link,0,1,36.9043396,118.16625379,4.986754738798199,0.0,0.0,0.0,0.0,0.0,0.0,0.0,0.0,0.0,2
1704780534435447832,9108,1704780534435025459,gnss_link,0,1,36.90433998,118.16625232,4.986929271723398,0.0,0.0,0.0,0.0,0.0,0.0,0.0,0.0,0.0,2
1704780534535563647,9109,1704780534535168944,gnss_link,0,1,36.9043403,118.16625086,4.987976469274595,0.0,0.0,0.0,0.0,0.0,0.0,0.0,0.0,0.0,2
1704780534635746084,9110,1704780534635294516,gnss_link,0,1,36.90434066,118.16624939,4.988500068050192,0.0,0.0,0.0,0.0,0.0,0.0,0.0,0.0,0.0,2
1704780534735827260,9111,1704780534735241776,gnss_link,0,1,36.904341,118.16624793,4.988500068050192,0.0,0.0,0.0,0.0,0.0,0.0,0.0,0.0,0.0,2
1704780534835441745,9112,1704780534834887027,gnss_link,0,1,36.90434137,118.16624647,4.986754738798199,0.0,0.0,0.0,0.0,0.0,0.0,0.0,0.0,0.0,2
1704780534935290274,9113,1704780534934859077,gnss_link,0,1,36.90434171,118.16624501,4.97715542791223,0.0,0.0,0.0,0.0,0.0,0.0,0.0,0.0,0.0,2
1704780535035393235,9114,1704780535035019996,gnss_link,0,1,36.90434206,118.16624354,4.964938123148269,0.0,0.0,0.0,0.0,0.0,0.0,0.0,0.0,0.0,2
1704780535135304283,9115,1704780535135045161,gnss_link,0,1,36.90434237,118.16624207,4.9553388122623,0.0,0.0,0.0,0.0,0.0,0.0,0.0,0.0,0.0,2
1704780535234951507,9116,1704780535234419807,gnss_link,0,1,36.90434269,118.1662406,4.943121507498341,0.0,0.0,0.0,0.0,0.0,0.0,0.0,0.0,0.0,2
1704780535334990988,9117,1704780535334522750,gnss_link,0,1,36.90434297,118.16623913,4.931078735659579,0.0,0.0,0.0,0.0,0.0,0.0,0.0,0.0,0.0,2
1704780535435234129,9118,1704780535434754196,gnss_link,0,1,36.90434325,118.16623764,4.920432227222414,0.0,0.0,0.0,0.0,0.0,0.0,0.0,0.0,0.0,2
1704780535535764318,9119,1704780535535068849,gnss_link,0,1,36.9043435,118.16623615,4.910309317560846,0.0,0.0,0.0,0.0,0.0,0.0,0.0,0.0,0.0,2
1704780535635696483,9120,1704780535635121772,gnss_link,0,1,36.90434374,118.16623464,4.8998373420488806,0.0,0.0,0.0,0.0,0.0,0.0,0.0,0.0,0.0,2
1704780535735651365,9121,1704780535735226889,gnss_link,0,1,36.90434397,118.16623314,4.887270971434521,0.0,0.0,0.0,0.0,0.0,0.0,0.0,0.0,0.0,2
1704780535835156340,9122,1704780535834712730,gnss_link,0,1,36.90434419,118.16623163,4.875751798371359,0.0,0.0,0.0,0.0,0.0,0.0,0.0,0.0,0.0,2
1704780535935094163,9123,1704780535934566478,gnss_link,0,1,36.9043444,118.16623013,4.865105289934194,0.0,0.0,0.0,0.0,0.0,0.0,0.0,0.0,0.0,2
1704780536035304108,9124,1704780536034855769,gnss_link,0,1,36.9043446,118.16622862,4.856029577823824,0.0,0.0,0.0,0.0,0.0,0.0,0.0,0.0,0.0,2
1704780536135471215,9125,1704780536134874721,gnss_link,0,1,36.90434477,118.16622713,4.852015320544236,0.0,0.0,0.0,0.0,0.0,0.0,0.0,0.0,0.0,2
1704780536234648483,9126,1704780536234124594,gnss_link,0,1,36.90434496,118.16622563,4.850619057142641,0.0,0.0,0.0,0.0,0.0,0.0,0.0,0.0,0.0,2
1704780536335282882,9127,1704780536334659942,gnss_link,0,1,36.90434513,118.16622414,4.846430266937855,0.0,0.0,0.0,0.0,0.0,0.0,0.0,0.0,0.0,2
1704780536434897259,9128,1704780536434471006,gnss_link,0,1,36.90434532,118.16622263,4.8404961474810735,0.0,0.0,0.0,0.0,0.0,0.0,0.0,0.0,0.0,2
1704780536535176132,9129,1704780536534653368,gnss_link,0,1,36.90434547,118.16622113,4.835260159725091,0.0,0.0,0.0,0.0,0.0,0.0,0.0,0.0,0.0,2
1704780536635318516,9130,1704780536634874384,gnss_link,0,1,36.90434565,118.16621961,4.828627908567513,0.0,0.0,0.0,0.0,0.0,0.0,0.0,0.0,0.0,2
1704780536735632713,9131,1704780536735054786,gnss_link,0,1,36.90434579,118.16621814,4.822344723260333,0.0,0.0,0.0,0.0,0.0,0.0,0.0,0.0,0.0,2
1704780536834695542,9132,1704780536834157598,gnss_link,0,1,36.90434594,118.16621676,4.817806867205148,0.0,0.0,0.0,0.0,0.0,0.0,0.0,0.0,0.0,2
1704780536934758418,9133,1704780536934319810,gnss_link,0,1,36.90434603,118.16621554,4.816061537953153,0.0,0.0,0.0,0.0,0.0,0.0,0.0,0.0,0.0,2
1704780537034671476,9134,1704780537034153215,gnss_link,0,1,36.90434616,118.16621438,4.815712472102755,0.0,0.0,0.0,0.0,0.0,0.0,0.0,0.0,0.0,2
1704780537135644186,9135,1704780537134775271,gnss_link,0,1,36.90434626,118.16621326,4.815712472102755,0.0,0.0,0.0,0.0,0.0,0.0,0.0,0.0,0.0,2
1704780537234291320,9136,1704780537233813746,gnss_link,0,1,36.90434638,118.16621214,4.816061537953153,0.0,0.0,0.0,0.0,0.0,0.0,0.0,0.0,0.0,2
1704780537334104354,9137,1704780537333589403,gnss_link,0,1,36.90434647,118.166211,4.8164106038035515,0.0,0.0,0.0,0.0,0.0,0.0,0.0,0.0,0.0,2
1704780537435035579,9138,1704780537434482485,gnss_link,0,1,36.90434661,118.16620982,4.816759669653951,0.0,0.0,0.0,0.0,0.0,0.0,0.0,0.0,0.0,2
1704780537534741954,9139,1704780537534292048,gnss_link,0,1,36.90434671,118.16620863,4.816934202579151,0.0,0.0,0.0,0.0,0.0,0.0,0.0,0.0,0.0,2
1704780537634428002,9140,1704780537634057455,gnss_link,0,1,36.90434683,118.1662074,4.817108735504349,0.0,0.0,0.0,0.0,0.0,0.0,0.0,0.0,0.0,2
1704780537736818121,9141,1704780537736283299,gnss_link,0,1,36.90434694,118.16620615,4.817283268429549,0.0,0.0,0.0,0.0,0.0,0.0,0.0,0.0,0.0,2
1704780537834689231,9142,1704780537834212063,gnss_link,0,1,36.90434708,118.16620482,4.816061537953153,0.0,0.0,0.0,0.0,0.0,0.0,0.0,0.0,0.0,2
1704780537935177667,9143,1704780537934413978,gnss_link,0,1,36.90434719,118.16620345,4.810127418496372,0.0,0.0,0.0,0.0,0.0,0.0,0.0,0.0,0.0,2
1704780538033889819,9144,1704780538033428313,gnss_link,0,1,36.90434732,118.166202,4.8040187661143925,0.0,0.0,0.0,0.0,0.0,0.0,0.0,0.0,0.0,2
1704780538134190397,9145,1704780538133758524,gnss_link,0,1,36.90434743,118.16620051,4.7986082454332095,0.0,0.0,0.0,0.0,0.0,0.0,0.0,0.0,0.0,2
1704780538234511329,9146,1704780538234061892,gnss_link,0,1,36.90434756,118.16619896,4.7919759942756315,0.0,0.0,0.0,0.0,0.0,0.0,0.0,0.0,0.0,2
1704780538334658611,9147,1704780538334093997,gnss_link,0,1,36.90434765,118.16619739,4.7853437431180526,0.0,0.0,0.0,0.0,0.0,0.0,0.0,0.0,0.0,2
1704780538434949421,9148,1704780538434448314,gnss_link,0,1,36.90434777,118.1661958,4.779758689511671,0.0,0.0,0.0,0.0,0.0,0.0,0.0,0.0,0.0,2
1704780538534965393,9149,1704780538534372770,gnss_link,0,1,36.90434785,118.16619422,4.778187893184875,0.0,0.0,0.0,0.0,0.0,0.0,0.0,0.0,0.0,2
1704780538633762034,9150,1704780538633336691,gnss_link,0,1,36.90434796,118.16619264,4.778013360259677,0.0,0.0,0.0,0.0,0.0,0.0,0.0,0.0,0.0,2
1704780538734661966,9151,1704780538733958471,gnss_link,0,1,36.90434805,118.1661911,4.777838827334477,0.0,0.0,0.0,0.0,0.0,0.0,0.0,0.0,0.0,2
1704780538834501752,9152,1704780538833962580,gnss_link,0,1,36.90434815,118.16618954,4.778013360259677,0.0,0.0,0.0,0.0,0.0,0.0,0.0,0.0,0.0,2
1704780538934560202,9153,1704780538933967829,gnss_link,0,1,36.90434823,118.16618802,4.7787114919604745,0.0,0.0,0.0,0.0,0.0,0.0,0.0,0.0,0.0,2
1704780539033775068,9154,1704780539033284461,gnss_link,0,1,36.90434834,118.16618647,4.779409623661271,0.0,0.0,0.0,0.0,0.0,0.0,0.0,0.0,0.0,2
1704780539133998951,9155,1704780539133497840,gnss_link,0,1,36.90434842,118.16618493,4.779758689511671,0.0,0.0,0.0,0.0,0.0,0.0,0.0,0.0,0.0,2
1704780539234598422,9156,1704780539234107209,gnss_link,0,1,36.90434852,118.16618339,4.780282288287269,0.0,0.0,0.0,0.0,0.0,0.0,0.0,0.0,0.0,2
1704780539334829865,9157,1704780539334317605,gnss_link,0,1,36.9043486,118.16618186,4.780631354137668,0.0,0.0,0.0,0.0,0.0,0.0,0.0,0.0,0.0,2
1704780539434700146,9158,1704780539434175601,gnss_link,0,1,36.90434869,118.16618033,4.780805887062868,0.0,0.0,0.0,0.0,0.0,0.0,0.0,0.0,0.0,2
1704780539534796587,9159,1704780539534109497,gnss_link,0,1,36.90434879,118.1661788,4.781154952913266,0.0,0.0,0.0,0.0,0.0,0.0,0.0,0.0,0.0,2
1704780539634080474,9160,1704780539633633738,gnss_link,0,1,36.90434889,118.16617727,4.779758689511671,0.0,0.0,0.0,0.0,0.0,0.0,0.0,0.0,0.0,2
1704780539734166857,9161,1704780539733475839,gnss_link,0,1,36.90434897,118.16617577,4.7757444322320834,0.0,0.0,0.0,0.0,0.0,0.0,0.0,0.0,0.0,2
1704780539834623541,9162,1704780539834121674,gnss_link,0,1,36.90434906,118.16617426,4.771904707877697,0.0,0.0,0.0,0.0,0.0,0.0,0.0,0.0,0.0,2
1704780539934227499,9163,1704780539933813118,gnss_link,0,1,36.90434914,118.16617276,4.766494187196514,0.0,0.0,0.0,0.0,0.0,0.0,0.0,0.0,0.0,2
1704780540033879725,9164,1704780540033293001,gnss_link,0,1,36.90434921,118.16617126,4.761083666515332,0.0,0.0,0.0,0.0,0.0,0.0,0.0,0.0,0.0,2
1704780540133692825,9165,1704780540133165253,gnss_link,0,1,36.90434927,118.16616975,4.756196744609747,0.0,0.0,0.0,0.0,0.0,0.0,0.0,0.0,0.0,2
1704780540234877449,9166,1704780540234357746,gnss_link,0,1,36.90434934,118.16616823,4.750611691003366,0.0,0.0,0.0,0.0,0.0,0.0,0.0,0.0,0.0,2
1704780540334627802,9167,1704780540333859447,gnss_link,0,1,36.90434938,118.16616671,4.746248367873379,0.0,0.0,0.0,0.0,0.0,0.0,0.0,0.0,0.0,2
1704780540433982165,9168,1704780540433459168,gnss_link,0,1,36.90434944,118.16616518,4.743979439845787,0.0,0.0,0.0,0.0,0.0,0.0,0.0,0.0,0.0,2
1704780540534370580,9169,1704780540533956212,gnss_link,0,1,36.90434948,118.16616365,4.741012380117397,0.0,0.0,0.0,0.0,0.0,0.0,0.0,0.0,0.0,2
1704780540633530917,9170,1704780540633017209,gnss_link,0,1,36.90434954,118.16616212,4.738394386239405,0.0,0.0,0.0,0.0,0.0,0.0,0.0,0.0,0.0,2
1704780540733548564,9171,1704780540732974764,gnss_link,0,1,36.90434957,118.1661606,4.736299991137012,0.0,0.0,0.0,0.0,0.0,0.0,0.0,0.0,0.0,2
1704780540834078882,9172,1704780540833621366,gnss_link,0,1,36.90434963,118.16615907,4.734205596034619,0.0,0.0,0.0,0.0,0.0,0.0,0.0,0.0,0.0,2
1704780540934191866,9173,1704780540933594897,gnss_link,0,1,36.90434966,118.16615759,4.732285733857425,0.0,0.0,0.0,0.0,0.0,0.0,0.0,0.0,0.0,2
1704780541033312979,9174,1704780541032757127,gnss_link,0,1,36.9043497,118.16615623,4.730016805829832,0.0,0.0,0.0,0.0,0.0,0.0,0.0,0.0,0.0,2
1704780541133383045,9175,1704780541132741338,gnss_link,0,1,36.90434972,118.16615501,4.7280969436526386,0.0,0.0,0.0,0.0,0.0,0.0,0.0,0.0,0.0,2
1704780541232966814,9176,1704780541232601795,gnss_link,0,1,36.90434976,118.16615385,4.726351614400644,0.0,0.0,0.0,0.0,0.0,0.0,0.0,0.0,0.0,2
1704780541334088460,9177,1704780541333625461,gnss_link,0,1,36.90434977,118.16615272,4.72460628514865,0.0,0.0,0.0,0.0,0.0,0.0,0.0,0.0,0.0,2
1704780541433945336,9178,1704780541433404254,gnss_link,0,1,36.90434981,118.16615161,4.722511890046257,0.0,0.0,0.0,0.0,0.0,0.0,0.0,0.0,0.0,2
1704780541534102480,9179,1704780541533449588,gnss_link,0,1,36.90434982,118.16615045,4.719544830317867,0.0,0.0,0.0,0.0,0.0,0.0,0.0,0.0,0.0,2
1704780541633215300,9180,1704780541632720225,gnss_link,0,1,36.90434985,118.16614927,4.716228704739078,0.0,0.0,0.0,0.0,0.0,0.0,0.0,0.0,0.0,2
1704780541732983674,9181,1704780541732521006,gnss_link,0,1,36.90434985,118.16614807,4.7127380462350885,0.0,0.0,0.0,0.0,0.0,0.0,0.0,0.0,0.0,2
1704780541833518439,9182,1704780541832981307,gnss_link,0,1,36.90434987,118.16614686,4.7092473877311,0.0,0.0,0.0,0.0,0.0,0.0,0.0,0.0,0.0,2
1704780541934199251,9183,1704780541933307563,gnss_link,0,1,36.90434987,118.16614562,4.705756729227112,0.0,0.0,0.0,0.0,0.0,0.0,0.0,0.0,0.0,2
1704780542033003900,9184,1704780542032438458,gnss_link,0,1,36.90434988,118.16614439,4.702091537797924,0.0,0.0,0.0,0.0,0.0,0.0,0.0,0.0,0.0,2
1704780542133267498,9185,1704780542132624174,gnss_link,0,1,36.90434987,118.16614314,4.6994735439199316,0.0,0.0,0.0,0.0,0.0,0.0,0.0,0.0,0.0,2
1704780542232859056,9186,1704780542232369892,gnss_link,0,1,36.90434988,118.16614188,4.697902747593137,0.0,0.0,0.0,0.0,0.0,0.0,0.0,0.0,0.0,2
1704780542333511390,9187,1704780542332992848,gnss_link,0,1,36.90434986,118.16614056,4.69703008296714,0.0,0.0,0.0,0.0,0.0,0.0,0.0,0.0,0.0,2
1704780542432488315,9188,1704780542432079322,gnss_link,0,1,36.90434989,118.16613918,4.6973791488175385,0.0,0.0,0.0,0.0,0.0,0.0,0.0,0.0,0.0,2
1704780542532296757,9189,1704780542531866310,gnss_link,0,1,36.90434988,118.16613775,4.698077280518336,0.0,0.0,0.0,0.0,0.0,0.0,0.0,0.0,0.0,2
1704780542633487258,9190,1704780542632920206,gnss_link,0,1,36.9043499,118.16613623,4.699124478069533,0.0,0.0,0.0,0.0,0.0,0.0,0.0,0.0,0.0,2
1704780542733089196,9191,1704780542732578061,gnss_link,0,1,36.90434988,118.1661347,4.700520741471128,0.0,0.0,0.0,0.0,0.0,0.0,0.0,0.0,0.0,2
1704780542833682951,9192,1704780542833189381,gnss_link,0,1,36.9043499,118.16613311,4.701218873171927,0.0,0.0,0.0,0.0,0.0,0.0,0.0,0.0,0.0,2
1704780542933612992,9193,1704780542933092682,gnss_link,0,1,36.90434989,118.16613154,4.702440603648323,0.0,0.0,0.0,0.0,0.0,0.0,0.0,0.0,0.0,2
1704780543032626635,9194,1704780543032132119,gnss_link,0,1,36.90434991,118.16612994,4.70331326827432,0.0,0.0,0.0,0.0,0.0,0.0,0.0,0.0,0.0,2
1704780543136824280,9195,1704780543132261916,gnss_link,0,1,36.9043499,118.16612838,4.7040113999751165,0.0,0.0,0.0,0.0,0.0,0.0,0.0,0.0,0.0,2
1704780543232548264,9196,1704780543232105517,gnss_link,0,1,36.90434993,118.16612681,4.704709531675915,0.0,0.0,0.0,0.0,0.0,0.0,0.0,0.0,0.0,2
1704780543333450826,9197,1704780543332752793,gnss_link,0,1,36.90434992,118.16612529,4.705407663376713,0.0,0.0,0.0,0.0,0.0,0.0,0.0,0.0,0.0,2
1704780543432164160,9198,1704780543431742035,gnss_link,0,1,36.90434996,118.16612377,4.706803926778308,0.0,0.0,0.0,0.0,0.0,0.0,0.0,0.0,0.0,2
1704780543532068718,9199,1704780543531593838,gnss_link,0,1,36.90434996,118.16612225,4.707502058479106,0.0,0.0,0.0,0.0,0.0,0.0,0.0,0.0,0.0,2
1704780543633065562,9200,1704780543632400002,gnss_link,0,1,36.90434999,118.16612072,4.7085492560303015,0.0,0.0,0.0,0.0,0.0,0.0,0.0,0.0,0.0,2
1704780543732652833,9201,1704780543732256147,gnss_link,0,1,36.90434999,118.1661192,4.709770986506698,0.0,0.0,0.0,0.0,0.0,0.0,0.0,0.0,0.0,2
1704780543833183436,9202,1704780543832739066,gnss_link,0,1,36.90435002,118.16611766,4.7106436511326955,0.0,0.0,0.0,0.0,0.0,0.0,0.0,0.0,0.0,2
1704780543932828057,9203,1704780543932234676,gnss_link,0,1,36.90435003,118.16611614,4.711341782833493,0.0,0.0,0.0,0.0,0.0,0.0,0.0,0.0,0.0,2
1704780544032726660,9204,1704780544032183157,gnss_link,0,1,36.90435006,118.1661146,4.71221444745949,0.0,0.0,0.0,0.0,0.0,0.0,0.0,0.0,0.0,2
1704780544132644469,9205,1704780544132099239,gnss_link,0,1,36.90435006,118.16611306,4.7127380462350885,0.0,0.0,0.0,0.0,0.0,0.0,0.0,0.0,0.0,2
1704780544232969693,9206,1704780544232216671,gnss_link,0,1,36.90435011,118.16611151,4.714134309636685,0.0,0.0,0.0,0.0,0.0,0.0,0.0,0.0,0.0,2
1704780544332883452,9207,1704780544332332209,gnss_link,0,1,36.90435012,118.16610998,4.7172759022902735,0.0,0.0,0.0,0.0,0.0,0.0,0.0,0.0,0.0,2
1704780544432195840,9208,1704780544431667989,gnss_link,0,1,36.90435017,118.16610844,4.719195764467467,0.0,0.0,0.0,0.0,0.0,0.0,0.0,0.0,0.0,2
1704780544532144014,9209,1704780544531638427,gnss_link,0,1,36.90435018,118.16610693,4.720941093719462,0.0,0.0,0.0,0.0,0.0,0.0,0.0,0.0,0.0,2
1704780544632054907,9210,1704780544631535538,gnss_link,0,1,36.90435023,118.16610541,4.722511890046257,0.0,0.0,0.0,0.0,0.0,0.0,0.0,0.0,0.0,2
1704780544732575641,9211,1704780544732151323,gnss_link,0,1,36.90435025,118.16610389,4.723908153447852,0.0,0.0,0.0,0.0,0.0,0.0,0.0,0.0,0.0,2
1704780544833370480,9212,1704780544832575590,gnss_link,0,1,36.9043503,118.16610237,4.725828015625046,0.0,0.0,0.0,0.0,0.0,0.0,0.0,0.0,0.0,2
1704780544932883627,9213,1704780544932372499,gnss_link,0,1,36.90435032,118.16610085,4.727398811951841,0.0,0.0,0.0,0.0,0.0,0.0,0.0,0.0,0.0,2
1704780545032218518,9214,1704780545031620108,gnss_link,0,1,36.90435037,118.16609931,4.728969608278636,0.0,0.0,0.0,0.0,0.0,0.0,0.0,0.0,0.0,2
1704780545132218419,9215,1704780545131713443,gnss_link,0,1,36.90435039,118.16609779,4.729842272904633,0.0,0.0,0.0,0.0,0.0,0.0,0.0,0.0,0.0,2
1704780545232219377,9216,1704780545231622032,gnss_link,0,1,36.90435044,118.16609626,4.730540404605431,0.0,0.0,0.0,0.0,0.0,0.0,0.0,0.0,0.0,2
1704780545332723956,9217,1704780545332186942,gnss_link,0,1,36.90435047,118.16609474,4.731238536306228,0.0,0.0,0.0,0.0,0.0,0.0,0.0,0.0,0.0,2
1704780545431677370,9218,1704780545431181491,gnss_link,0,1,36.90435051,118.16609322,4.731936668007027,0.0,0.0,0.0,0.0,0.0,0.0,0.0,0.0,0.0,2
1704780545531898089,9219,1704780545531408809,gnss_link,0,1,36.90435054,118.16609171,4.732460266782624,0.0,0.0,0.0,0.0,0.0,0.0,0.0,0.0,0.0,2
1704780545632143559,9220,1704780545631613703,gnss_link,0,1,36.9043506,118.16609021,4.733158398483423,0.0,0.0,0.0,0.0,0.0,0.0,0.0,0.0,0.0,2
1704780545731891670,9221,1704780545731384919,gnss_link,0,1,36.90435062,118.16608871,4.73385653018422,0.0,0.0,0.0,0.0,0.0,0.0,0.0,0.0,0.0,2
1704780545832415031,9222,1704780545831891805,gnss_link,0,1,36.90435067,118.1660872,4.734729194810217,0.0,0.0,0.0,0.0,0.0,0.0,0.0,0.0,0.0,2
1704780545932256038,9223,1704780545931747294,gnss_link,0,1,36.90435071,118.16608569,4.735601859436214,0.0,0.0,0.0,0.0,0.0,0.0,0.0,0.0,0.0,2
1704780546032844238,9224,1704780546031826104,gnss_link,0,1,36.90435075,118.16608418,4.736474524062212,0.0,0.0,0.0,0.0,0.0,0.0,0.0,0.0,0.0,2
1704780546132479492,9225,1704780546131988814,gnss_link,0,1,36.90435078,118.16608266,4.737172655763009,0.0,0.0,0.0,0.0,0.0,0.0,0.0,0.0,0.0,2
1704780546232149343,9226,1704780546231619011,gnss_link,0,1,36.90435084,118.16608113,4.7380453203890065,0.0,0.0,0.0,0.0,0.0,0.0,0.0,0.0,0.0,2
1704780546331877801,9227,1704780546331344245,gnss_link,0,1,36.90435086,118.1660796,4.738568919164605,0.0,0.0,0.0,0.0,0.0,0.0,0.0,0.0,0.0,2
1704780546432304467,9228,1704780546431825214,gnss_link,0,1,36.90435092,118.16607807,4.738917985015004,0.0,0.0,0.0,0.0,0.0,0.0,0.0,0.0,0.0,2
1704780546531730421,9229,1704780546531257919,gnss_link,0,1,36.90435096,118.16607655,4.739441583790602,0.0,0.0,0.0,0.0,0.0,0.0,0.0,0.0,0.0,2
1704780546631854420,9230,1704780546631267849,gnss_link,0,1,36.90435102,118.16607502,4.7401397154914,0.0,0.0,0.0,0.0,0.0,0.0,0.0,0.0,0.0,2
1704780546731763636,9231,1704780546731124368,gnss_link,0,1,36.90435106,118.16607351,4.740837847192197,0.0,0.0,0.0,0.0,0.0,0.0,0.0,0.0,0.0,2
1704780546832374425,9232,1704780546831916044,gnss_link,0,1,36.90435114,118.166072,4.741535978892995,0.0,0.0,0.0,0.0,0.0,0.0,0.0,0.0,0.0,2
1704780546932224147,9233,1704780546931725410,gnss_link,0,1,36.90435118,118.1660705,4.742234110593793,0.0,0.0,0.0,0.0,0.0,0.0,0.0,0.0,0.0,2
1704780547031713539,9234,1704780547030947542,gnss_link,0,1,36.90435124,118.16606898,4.743281308144989,0.0,0.0,0.0,0.0,0.0,0.0,0.0,0.0,0.0,2
1704780547132365166,9235,1704780547131260264,gnss_link,0,1,36.90435128,118.16606746,4.744153972770986,0.0,0.0,0.0,0.0,0.0,0.0,0.0,0.0,0.0,2
1704780547231857956,9236,1704780547231283702,gnss_link,0,1,36.90435134,118.16606594,4.744677571546585,0.0,0.0,0.0,0.0,0.0,0.0,0.0,0.0,0.0,2
1704780547331056793,9237,1704780547330837965,gnss_link,0,1,36.90435138,118.16606443,4.745201170322183,0.0,0.0,0.0,0.0,0.0,0.0,0.0,0.0,0.0,2
1704780547431206507,9238,1704780547430825892,gnss_link,0,1,36.90435144,118.1660629,4.745550236172582,0.0,0.0,0.0,0.0,0.0,0.0,0.0,0.0,0.0,2
1704780547531415478,9239,1704780547530832673,gnss_link,0,1,36.90435149,118.16606137,4.745201170322183,0.0,0.0,0.0,0.0,0.0,0.0,0.0,0.0,0.0,2
1704780547631401073,9240,1704780547631094193,gnss_link,0,1,36.90435156,118.16605984,4.744852104471785,0.0,0.0,0.0,0.0,0.0,0.0,0.0,0.0,0.0,2
1704780547731758163,9241,1704780547731223492,gnss_link,0,1,36.9043516,118.16605833,4.744153972770986,0.0,0.0,0.0,0.0,0.0,0.0,0.0,0.0,0.0,2
1704780547831655040,9242,1704780547831488032,gnss_link,0,1,36.90435167,118.1660568,4.743455841070189,0.0,0.0,0.0,0.0,0.0,0.0,0.0,0.0,0.0,2
1704780547931591229,9243,1704780547931313915,gnss_link,0,1,36.90435171,118.1660553,4.742059577668593,0.0,0.0,0.0,0.0,0.0,0.0,0.0,0.0,0.0,2
1704780548031026694,9244,1704780548030293498,gnss_link,0,1,36.90435177,118.16605377,4.741186913042596,0.0,0.0,0.0,0.0,0.0,0.0,0.0,0.0,0.0,2
1704780548130857883,9245,1704780548130649697,gnss_link,0,1,36.90435181,118.16605226,4.7403142484166,0.0,0.0,0.0,0.0,0.0,0.0,0.0,0.0,0.0,2
1704780548231019296,9246,1704780548230790638,gnss_link,0,1,36.90435187,118.16605073,4.737347188688209,0.0,0.0,0.0,0.0,0.0,0.0,0.0,0.0,0.0,2
1704780548331698528,9247,1704780548331252839,gnss_link,0,1,36.90435191,118.16604922,4.732460266782624,0.0,0.0,0.0,0.0,0.0,0.0,0.0,0.0,0.0,2
1704780548431086966,9248,1704780548430517579,gnss_link,0,1,36.90435195,118.1660477,4.726875213176243,0.0,0.0,0.0,0.0,0.0,0.0,0.0,0.0,0.0,2
1704780548530714869,9249,1704780548530378196,gnss_link,0,1,36.90435196,118.16604619,4.72146469249506,0.0,0.0,0.0,0.0,0.0,0.0,0.0,0.0,0.0,2
1704780548631713954,9250,1704780548631159738,gnss_link,0,1,36.90435199,118.16604466,4.7160541718138775,0.0,0.0,0.0,0.0,0.0,0.0,0.0,0.0,0.0,2
1704780548732879949,9251,1704780548732401948,gnss_link,0,1,36.90435199,118.16604313,4.711690848683892,0.0,0.0,0.0,0.0,0.0,0.0,0.0,0.0,0.0,2
1704780548831042502,9252,1704780548830640509,gnss_link,0,1,36.90435201,118.16604159,4.706280328002709,0.0,0.0,0.0,0.0,0.0,0.0,0.0,0.0,0.0,2
1704780548930710383,9253,1704780548930426092,gnss_link,0,1,36.90435202,118.16604007,4.701742471947524,0.0,0.0,0.0,0.0,0.0,0.0,0.0,0.0,0.0,2
1704780549031218069,9254,1704780549030982047,gnss_link,0,1,36.90435202,118.16603854,4.6973791488175385,0.0,0.0,0.0,0.0,0.0,0.0,0.0,0.0,0.0,2
1704780549131313062,9255,1704780549130804935,gnss_link,0,1,36.904352,118.16603703,4.692317693986755,0.0,0.0,0.0,0.0,0.0,0.0,0.0,0.0,0.0,2
1704780549231333822,9256,1704780549230466270,gnss_link,0,1,36.904352,118.16603551,4.687779837931569,0.0,0.0,0.0,0.0,0.0,0.0,0.0,0.0,0.0,2
1704780549332352633,9257,1704780549330587591,gnss_link,0,1,36.90435197,118.16603399,4.683241981876384,0.0,0.0,0.0,0.0,0.0,0.0,0.0,0.0,0.0,2
1704780549430475437,9258,1704780549430329110,gnss_link,0,1,36.90435195,118.16603247,4.677831461195201,0.0,0.0,0.0,0.0,0.0,0.0,0.0,0.0,0.0,2
1704780549531132302,9259,1704780549530850542,gnss_link,0,1,36.90435192,118.1660311,4.672770006364419,0.0,0.0,0.0,0.0,0.0,0.0,0.0,0.0,0.0,2
1704780549631104176,9260,1704780549630799285,gnss_link,0,1,36.9043519,118.16602986,4.664566958880045,0.0,0.0,0.0,0.0,0.0,0.0,0.0,0.0,0.0,2
1704780549731167767,9261,1704780549730897025,gnss_link,0,1,36.90435185,118.1660287,4.653571384592481,0.0,0.0,0.0,0.0,0.0,0.0,0.0,0.0,0.0,2
1704780549831220676,9262,1704780549830436530,gnss_link,0,1,36.90435182,118.16602756,4.643273942005715,0.0,0.0,0.0,0.0,0.0,0.0,0.0,0.0,0.0,2
1704780549930753340,9263,1704780549930291508,gnss_link,0,1,36.90435176,118.16602645,4.628089577513364,0.0,0.0,0.0,0.0,0.0,0.0,0.0,0.0,0.0,2
1704780550030963052,9264,1704780550030523328,gnss_link,0,1,36.90435171,118.1660253,4.612381614245415,0.0,0.0,0.0,0.0,0.0,0.0,0.0,0.0,0.0,2
1704780550131660893,9265,1704780550130999935,gnss_link,0,1,36.90435163,118.16602414,4.596673650977466,0.0,0.0,0.0,0.0,0.0,0.0,0.0,0.0,0.0,2
