%time,field.header.seq,field.header.stamp,field.header.frame_id,field.orientation.x,field.orientation.y,field.orientation.z,field.orientation.w,field.orientation_covariance0,field.orientation_covariance1,field.orientation_covariance2,field.orientation_covariance3,field.orientation_covariance4,field.orientation_covariance5,field.orientation_covariance6,field.orientation_covariance7,field.orientation_covariance8,field.angular_velocity.x,field.angular_velocity.y,field.angular_velocity.z,field.angular_velocity_covariance0,field.angular_velocity_covariance1,field.angular_velocity_covariance2,field.angular_velocity_covariance3,field.angular_velocity_covariance4,field.angular_velocity_covariance5,field.angular_velocity_covariance6,field.angular_velocity_covariance7,field.angular_velocity_covariance8,field.linear_acceleration.x,field.linear_acceleration.y,field.linear_acceleration.z,field.linear_acceleration_covariance0,field.linear_acceleration_covariance1,field.linear_acceleration_covariance2,field.linear_acceleration_covariance3,field.linear_acceleration_covariance4,field.linear_acceleration_covariance5,field.linear_acceleration_covariance6,field.linear_acceleration_covariance7,field.linear_acceleration_covariance8
1704780507644091895,8840,1704780507643747110,imu_link,0.002367592907279771,0.009096047067629436,-0.9995084772020488,-0.029907531372722212,0.0,0.0,0.0,0.0,0.0,0.0,0.0,0.0,0.0,-0.00017453292519943296,0.0,-0.00017453292519943296,0.0,0.0,0.0,0.0,0.0,0.0,0.0,0.0,0.0,-0.04118793,-0.181423025,9.82430197,0.0,0.0,0.0,0.0,0.0,0.0,0.0,0.0,0.0
1704780507743416081,8841,1704780507743173689,imu_link,0.002367592907279771,0.009096047067629436,-0.9995084772020488,-0.029907531372722212,0.0,0.0,0.0,0.0,0.0,0.0,0.0,0.0,0.0,0.00034906585039886593,-0.00017453292519943296,0.0005235987755982988,0.0,0.0,0.0,0.0,0.0,0.0,0.0,0.0,0.0,-0.040207265,-0.18240368999999998,9.82037931,0.0,0.0,0.0,0.0,0.0,0.0,0.0,0.0,0.0
1704780507844313689,8842,1704780507844018989,imu_link,0.002367592907279771,0.009096047067629436,-0.9995084772020488,-0.029907531372722212,0.0,0.0,0.0,0.0,0.0,0.0,0.0,0.0,0.0,-0.00017453292519943296,-0.00034906585039886593,-0.0,0.0,0.0,0.0,0.0,0.0,0.0,0.0,0.0,0.0,-0.04118793,-0.179461695,9.825282634999999,0.0,0.0,0.0,0.0,0.0,0.0,0.0,0.0,0.0
1704780507943850028,8843,1704780507943575764,imu_link,0.002367592907279771,0.009096047067629436,-0.9995084772020488,-0.029907531372722212,0.0,0.0,0.0,0.0,0.0,0.0,0.0,0.0,0.0,0.00017453292519943296,-0.00017453292519943296,0.00034906585039886593,0.0,0.0,0.0,0.0,0.0,0.0,0.0,0.0,0.0,-0.040207265,-0.18436502,9.825282634999999,0.0,0.0,0.0,0.0,0.0,0.0,0.0,0.0,0.0
1704780508043766709,8844,1704780508043475694,imu_link,0.002366799166284806,0.009096253631996258,-0.9995110831637334,-0.029820312949885176,0.0,0.0,0.0,0.0,0.0,0.0,0.0,0.0,0.0,-0.00017453292519943296,-0.0006981317007977319,0.0005235987755982988,0.0,0.0,0.0,0.0,0.0,0.0,0.0,0.0,0.0,-0.04118793,-0.18044236,9.82234064,0.0,0.0,0.0,0.0,0.0,0.0,0.0,0.0,0.0
1704780508143466065,8845,1704780508143066556,imu_link,0.002366799166284806,0.009096253631996258,-0.9995110831637334,-0.029820312949885176,0.0,0.0,0.0,0.0,0.0,0.0,0.0,0.0,0.0,0.00017453292519943296,-0.0,-0.00017453292519943296,0.0,0.0,0.0,0.0,0.0,0.0,0.0,0.0,0.0,-0.0392266,-0.18240368999999998,9.823321305,0.0,0.0,0.0,0.0,0.0,0.0,0.0,0.0,0.0
1704780508244032874,8846,1704780508243760018,imu_link,0.002366799166284806,0.009096253631996258,-0.9995110831637334,-0.029820312949885176,0.0,0.0,0.0,0.0,0.0,0.0,0.0,0.0,0.0,-0.0005235987755982988,-0.0,0.00034906585039886593,0.0,0.0,0.0,0.0,0.0,0.0,0.0,0.0,0.0,-0.04118793,-0.18044236,9.823321305,0.0,0.0,0.0,0.0,0.0,0.0,0.0,0.0,0.0
1704780508343545469,8847,1704780508343293268,imu_link,0.002367592907279771,0.009096047067629436,-0.9995084772020488,-0.029907531372722212,0.0,0.0,0.0,0.0,0.0,0.0,0.0,0.0,0.0,-0.00017453292519943296,0.00017453292519943296,0.00017453292519943296,0.0,0.0,0.0,0.0,0.0,0.0,0.0,0.0,0.0,-0.040207265,-0.183384355,9.823321305,0.0,0.0,0.0,0.0,0.0,0.0,0.0,0.0,0.0
1704780508443329453,8848,1704780508443084300,imu_link,0.002367592907279771,0.009096047067629436,-0.9995084772020488,-0.029907531372722212,0.0,0.0,0.0,0.0,0.0,0.0,0.0,0.0,0.0,0.00034906585039886593,-0.0,-0.00017453292519943296,0.0,0.0,0.0,0.0,0.0,0.0,0.0,0.0,0.0,-0.040207265,-0.181423025,9.82430197,0.0,0.0,0.0,0.0,0.0,0.0,0.0,0.0,0.0
1704780508542685896,8849,1704780508542483507,imu_link,0.002367592907279771,0.009096047067629436,-0.9995084772020488,-0.029907531372722212,0.0,0.0,0.0,0.0,0.0,0.0,0.0,0.0,0.0,0.0005235987755982988,0.00017453292519943296,0.00017453292519943296,0.0,0.0,0.0,0.0,0.0,0.0,0.0,0.0,0.0,-0.040207265,-0.18240368999999998,9.82430197,0.0,0.0,0.0,0.0,0.0,0.0,0.0,0.0,0.0
1704780508643578433,8850,1704780508643384848,imu_link,0.002366799166284806,0.009096253631996258,-0.9995110831637334,-0.029820312949885176,0.0,0.0,0.0,0.0,0.0,0.0,0.0,0.0,0.0,-0.00017453292519943296,-0.0,0.0006981317007977319,0.0,0.0,0.0,0.0,0.0,0.0,0.0,0.0,0.0,-0.040207265,-0.183384355,9.82234064,0.0,0.0,0.0,0.0,0.0,0.0,0.0,0.0,0.0
1704780508743214585,8851,1704780508742895601,imu_link,0.002366799166284806,0.009096253631996258,-0.9995110831637334,-0.029820312949885176,0.0,0.0,0.0,0.0,0.0,0.0,0.0,0.0,0.0,0.0,-0.00017453292519943296,0.00034906585039886593,0.0,0.0,0.0,0.0,0.0,0.0,0.0,0.0,0.0,-0.04118793,-0.18044236,9.82430197,0.0,0.0,0.0,0.0,0.0,0.0,0.0,0.0,0.0
1704780508843850318,8852,1704780508843618356,imu_link,0.002366799166284806,0.009096253631996258,-0.9995110831637334,-0.029820312949885176,0.0,0.0,0.0,0.0,0.0,0.0,0.0,0.0,0.0,0.00017453292519943296,-0.00017453292519943296,0.0,0.0,0.0,0.0,0.0,0.0,0.0,0.0,0.0,0.0,-0.0392266,-0.183384355,9.823321305,0.0,0.0,0.0,0.0,0.0,0.0,0.0,0.0,0.0
1704780508943695002,8853,1704780508943319327,imu_link,0.002366799166284806,0.009096253631996258,-0.9995110831637334,-0.029820312949885176,0.0,0.0,0.0,0.0,0.0,0.0,0.0,0.0,0.0,0.00017453292519943296,0.00034906585039886593,-0.00034906585039886593,0.0,0.0,0.0,0.0,0.0,0.0,0.0,0.0,0.0,-0.040207265,-0.18240368999999998,9.821359975,0.0,0.0,0.0,0.0,0.0,0.0,0.0,0.0,0.0
1704780509042764418,8854,1704780509042508993,imu_link,0.002366799166284806,0.009096253631996258,-0.9995110831637334,-0.029820312949885176,0.0,0.0,0.0,0.0,0.0,0.0,0.0,0.0,0.0,0.0,0.00017453292519943296,-0.0,0.0,0.0,0.0,0.0,0.0,0.0,0.0,0.0,0.0,-0.040207265,-0.18240368999999998,9.821359975,0.0,0.0,0.0,0.0,0.0,0.0,0.0,0.0,0.0
1704780509143407958,8855,1704780509143078665,imu_link,0.002366799166284806,0.009096253631996258,-0.9995110831637334,-0.029820312949885176,0.0,0.0,0.0,0.0,0.0,0.0,0.0,0.0,0.0,0.00017453292519943296,-0.00017453292519943296,0.00034906585039886593,0.0,0.0,0.0,0.0,0.0,0.0,0.0,0.0,0.0,-0.04118793,-0.18240368999999998,9.823321305,0.0,0.0,0.0,0.0,0.0,0.0,0.0,0.0,0.0
1704780509243760251,8856,1704780509243488388,imu_link,0.002367592907279771,0.009096047067629436,-0.9995084772020488,-0.029907531372722212,0.0,0.0,0.0,0.0,0.0,0.0,0.0,0.0,0.0,0.00034906585039886593,-0.00034906585039886593,-0.00034906585039886593,0.0,0.0,0.0,0.0,0.0,0.0,0.0,0.0,0.0,-0.036284605,-0.183384355,9.821359975,0.0,0.0,0.0,0.0,0.0,0.0,0.0,0.0,0.0
1704780509343102425,8857,1704780509342912100,imu_link,0.002367592907279771,0.009096047067629436,-0.9995084772020488,-0.029907531372722212,0.0,0.0,0.0,0.0,0.0,0.0,0.0,0.0,0.0,-0.0013962634015954637,-0.002617993877991494,0.0006981317007977319,0.0,0.0,0.0,0.0,0.0,0.0,0.0,0.0,0.0,0.09120184499999999,-0.189268345,9.855683249999998,0.0,0.0,0.0,0.0,0.0,0.0,0.0,0.0,0.0
1704780509442808207,8858,1704780509442534472,imu_link,0.0020205069345082677,0.009193899856279037,-0.9995108590348568,-0.029823353744384558,0.0,0.0,0.0,0.0,0.0,0.0,0.0,0.0,0.0,-0.0012217304763960308,-0.00034906585039886593,0.0010471975511965976,0.0,0.0,0.0,0.0,0.0,0.0,0.0,0.0,0.0,0.587418335,-0.17455837,9.79684335,0.0,0.0,0.0,0.0,0.0,0.0,0.0,0.0,0.0
1704780509542605199,8859,1704780509542243061,imu_link,0.0021077305956709235,0.009191294426916468,-0.999510727082953,-0.02982254222229363,0.0,0.0,0.0,0.0,0.0,0.0,0.0,0.0,0.0,0.0010471975511965976,0.004014257279586958,-0.0015707963267948967,0.0,0.0,0.0,0.0,0.0,0.0,0.0,0.0,0.0,0.32950344,-0.20790097999999999,9.855683249999998,0.0,0.0,0.0,0.0,0.0,0.0,0.0,0.0,0.0
1704780509643409758,8860,1704780509643093636,imu_link,0.00184266170864246,0.009112047174421087,-0.9995144978463325,-0.029737918372209588,0.0,0.0,0.0,0.0,0.0,0.0,0.0,0.0,0.0,-0.0012217304763960308,-0.007853981633974483,0.002617993877991494,0.0,0.0,0.0,0.0,0.0,0.0,0.0,0.0,0.0,0.557998385,-0.14317708999999998,9.73996478,0.0,0.0,0.0,0.0,0.0,0.0,0.0,0.0,0.0
1704780509743297306,8861,1704780509742974965,imu_link,0.0021915576890719425,0.009101656083379263,-0.9995139840719248,-0.029734703228770917,0.0,0.0,0.0,0.0,0.0,0.0,0.0,0.0,0.0,-0.0,0.00017453292519943296,-0.0010471975511965976,0.0,0.0,0.0,0.0,0.0,0.0,0.0,0.0,0.0,0.38834334,-0.22457228499999998,9.779191379999999,0.0,0.0,0.0,0.0,0.0,0.0,0.0,0.0,0.0
1704780509843177511,8862,1704780509842849242,imu_link,0.0019298856973697916,0.009109449506565847,-0.9995143808203772,-0.029737114926303453,0.0,0.0,0.0,0.0,0.0,0.0,0.0,0.0,0.0,0.0024434609527920616,0.004537856055185257,0.0017453292519943296,0.0,0.0,0.0,0.0,0.0,0.0,0.0,0.0,0.0,0.61781895,-0.16867437999999998,9.7674234,0.0,0.0,0.0,0.0,0.0,0.0,0.0,0.0,0.0
1704780509944014392,8863,1704780509943524495,imu_link,0.002101738727540457,0.009017030472029845,-0.999514914617973,-0.029735690878368075,0.0,0.0,0.0,0.0,0.0,0.0,0.0,0.0,0.0,-0.0017453292519943296,-0.0036651914291880917,-0.0024434609527920616,0.0,0.0,0.0,0.0,0.0,0.0,0.0,0.0,0.0,0.520733115,-0.167693715,9.705641505,0.0,0.0,0.0,0.0,0.0,0.0,0.0,0.0,0.0
1704780510042863833,8864,1704780510042515864,imu_link,0.002189749458254616,0.009014241559020605,-0.9995121760219535,-0.02982211310898512,0.0,0.0,0.0,0.0,0.0,0.0,0.0,0.0,0.0,-0.0036651914291880917,0.007853981633974483,-0.0005235987755982988,0.0,0.0,0.0,0.0,0.0,0.0,0.0,0.0,0.0,0.59428299,-0.179461695,9.835089284999999,0.0,0.0,0.0,0.0,0.0,0.0,0.0,0.0,0.0
1704780510142496047,8865,1704780510142193476,imu_link,0.002276973227038332,0.009011636015413025,-0.9995120283918753,-0.029821316356059845,0.0,0.0,0.0,0.0,0.0,0.0,0.0,0.0,0.0,0.00017453292519943296,0.0015707963267948967,0.0022689280275926286,0.0,0.0,0.0,0.0,0.0,0.0,0.0,0.0,0.0,0.46875787,-0.18240368999999998,9.800766009999998,0.0,0.0,0.0,0.0,0.0,0.0,0.0,0.0,0.0
1704780510243149669,8866,1704780510242935576,imu_link,0.002360815975682071,0.008922012223439229,-0.9995152539204422,-0.02973350679229981,0.0,0.0,0.0,0.0,0.0,0.0,0.0,0.0,0.0,0.002617993877991494,-0.003490658503988659,-0.0017453292519943296,0.0,0.0,0.0,0.0,0.0,0.0,0.0,0.0,0.0,0.392266,-0.22555294999999997,9.823321305,0.0,0.0,0.0,0.0,0.0,0.0,0.0,0.0,0.0
1704780510343467846,8867,1704780510343023540,imu_link,0.0022722199365548717,0.00874917145435981,-0.9995038833108426,-0.03017078490804847,0.0,0.0,0.0,0.0,0.0,0.0,0.0,0.0,0.0,0.011519173063162576,-0.0005235987755982988,-0.010821041362364843,0.0,0.0,0.0,0.0,0.0,0.0,0.0,0.0,0.0,0.4903325,-0.20593965,9.873335219999998,0.0,0.0,0.0,0.0,0.0,0.0,0.0,0.0,0.0
1704780510442377595,8868,1704780510442119468,imu_link,0.002272939460015018,0.008573139708934899,-0.9994840893815964,-0.030868917939948393,0.0,0.0,0.0,0.0,0.0,0.0,0.0,0.0,0.0,0.017104226669544427,-0.0019198621771937623,-0.013788101090755204,0.0,0.0,0.0,0.0,0.0,0.0,0.0,0.0,0.0,0.41776328999999995,-0.27262486999999996,9.935117114999999,0.0,0.0,0.0,0.0,0.0,0.0,0.0,0.0,0.0
1704780510542703531,8869,1704780510542279782,imu_link,0.00209142071906577,0.00814078538768135,-0.9994634725950002,-0.03165628722687959,0.0,0.0,0.0,0.0,0.0,0.0,0.0,0.0,0.0,0.013264502315156903,-0.002617993877991494,-0.016231562043547268,0.0,0.0,0.0,0.0,0.0,0.0,0.0,0.0,0.0,0.44522191,-0.14611908499999998,9.86352857,0.0,0.0,0.0,0.0,0.0,0.0,0.0,0.0,0.0
1704780510642944558,8870,1704780510642559739,imu_link,0.0021836046483139733,0.00804870886916082,-0.9994331920498575,-0.03261510057184768,0.0,0.0,0.0,0.0,0.0,0.0,0.0,0.0,0.0,0.006981317007977318,0.006806784082777885,-0.02199114857512855,0.0,0.0,0.0,0.0,0.0,0.0,0.0,0.0,0.0,0.43835725499999995,-0.19221033999999998,9.85960591,0.0,0.0,0.0,0.0,0.0,0.0,0.0,0.0,0.0
1704780510742944857,8871,1704780510742598822,imu_link,0.0018366123027371653,0.007883909925380286,-0.9994033302155754,-0.03357758736948962,0.0,0.0,0.0,0.0,0.0,0.0,0.0,0.0,0.0,0.006108652381980153,-0.007504915783575617,-0.01361356816555577,0.0,0.0,0.0,0.0,0.0,0.0,0.0,0.0,0.0,0.48935183499999996,-0.14709974999999997,9.980227704999999,0.0,0.0,0.0,0.0,0.0,0.0,0.0,0.0,0.0
1704780510843127699,8872,1704780510842829066,imu_link,0.001830152897730489,0.007533775764601642,-0.9993823290308116,-0.03427613140437857,0.0,0.0,0.0,0.0,0.0,0.0,0.0,0.0,0.0,0.00471238898038469,-0.006108652381980153,-0.017453292519943295,0.0,0.0,0.0,0.0,0.0,0.0,0.0,0.0,0.0,0.35696205999999997,-0.144157755,9.789978694999999,0.0,0.0,0.0,0.0,0.0,0.0,0.0,0.0,0.0
1704780510943270631,8873,1704780510942943108,imu_link,0.0012207656202966315,0.007379133573870356,-0.9993508800135809,-0.035240271495560596,0.0,0.0,0.0,0.0,0.0,0.0,0.0,0.0,0.0,0.0013962634015954637,-0.007330382858376183,-0.01815142422074103,0.0,0.0,0.0,0.0,0.0,0.0,0.0,0.0,0.0,0.42855060500000003,-0.155925735,9.809591995,0.0,0.0,0.0,0.0,0.0,0.0,0.0,0.0,0.0
1704780511042497770,8874,1704780511042223101,imu_link,0.0012278480893816177,0.007377958394442247,-0.9993165934474161,-0.036199505240417,0.0,0.0,0.0,0.0,0.0,0.0,0.0,0.0,0.0,0.0041887902047863905,-0.00017453292519943296,-0.023561944901923447,0.0,0.0,0.0,0.0,0.0,0.0,0.0,0.0,0.0,0.306948145,-0.26576021499999997,9.762520075,0.0,0.0,0.0,0.0,0.0,0.0,0.0,0.0,0.0
1704780511142130593,8875,1704780511141888497,imu_link,0.0013305854049982793,0.0074598086532317726,-0.9992544833481075,-0.037855756577354654,0.0,0.0,0.0,0.0,0.0,0.0,0.0,0.0,0.0,-0.004537856055185257,0.0010471975511965976,-0.03979350694547071,0.0,0.0,0.0,0.0,0.0,0.0,0.0,0.0,0.0,0.157887065,-0.161809725,9.67916355,0.0,0.0,0.0,0.0,0.0,0.0,0.0,0.0,0.0
1704780511243209034,8876,1704780511242878181,imu_link,0.001356663736965655,0.007718588361353505,-0.9991710254500429,-0.03994802571244894,0.0,0.0,0.0,0.0,0.0,0.0,0.0,0.0,0.0,-0.0027925268031909274,-0.002967059728390361,-0.04468042885105484,0.0,0.0,0.0,0.0,0.0,0.0,0.0,0.0,0.0,0.055897905,-0.31283213499999996,9.993957014999998,0.0,0.0,0.0,0.0,0.0,0.0,0.0,0.0,0.0
1704780511343301245,8877,1704780511342841681,imu_link,0.001280278383626065,0.007544691555112711,-0.99907551345457,-0.04230315510793126,0.0,0.0,0.0,0.0,0.0,0.0,0.0,0.0,0.0,0.007504915783575617,0.008552113334772213,-0.0497418836818384,0.0,0.0,0.0,0.0,0.0,0.0,0.0,0.0,0.0,-0.032361944999999996,-0.22457228499999998,9.592865029999999,0.0,0.0,0.0,0.0,0.0,0.0,0.0,0.0,0.0
1704780511442012246,8878,1704780511441741285,imu_link,0.0013793607820491152,0.007363041510864659,-0.998962590081255,-0.04491799863854753,0.0,0.0,0.0,0.0,0.0,0.0,0.0,0.0,0.0,0.004886921905584123,-0.009250245035569947,-0.05183627878423159,0.0,0.0,0.0,0.0,0.0,0.0,0.0,0.0,0.0,-0.14611908499999998,-0.19809432999999999,9.92236847,0.0,0.0,0.0,0.0,0.0,0.0,0.0,0.0,0.0
1704780511542264080,8879,1704780511542007840,imu_link,0.00105607372849958,0.007462891205362451,-0.9988286233454989,-0.04779718766697752,0.0,0.0,0.0,0.0,0.0,0.0,0.0,0.0,0.0,-0.0008726646259971648,-0.004014257279586958,-0.06335545184739416,0.0,0.0,0.0,0.0,0.0,0.0,0.0,0.0,0.0,-0.191229675,-0.263798885,9.692892859999999,0.0,0.0,0.0,0.0,0.0,0.0,0.0,0.0,0.0
1704780511642523776,8880,1704780511642246610,imu_link,0.0007379969405160672,0.007564212820249383,-0.998655085249673,-0.051286048296727796,0.0,0.0,0.0,0.0,0.0,0.0,0.0,0.0,0.0,0.0027925268031909274,-0.006283185307179587,-0.07312929565856242,0.0,0.0,0.0,0.0,0.0,0.0,0.0,0.0,0.0,-0.10493115499999998,-0.318716125,9.880199875,0.0,0.0,0.0,0.0,0.0,0.0,0.0,0.0,0.0
1704780511742934229,8881,1704780511742448508,imu_link,0.0005097838866456568,0.0076629309976552,-0.9984548880216614,-0.05503504514912165,0.0,0.0,0.0,0.0,0.0,0.0,0.0,0.0,0.0,0.0013962634015954637,-0.007330382858376183,-0.07888888219014369,0.0,0.0,0.0,0.0,0.0,0.0,0.0,0.0,0.0,-0.163771055,-0.27066354,10.051816249999998,0.0,0.0,0.0,0.0,0.0,0.0,0.0,0.0,0.0
1704780511843297678,8882,1704780511842918676,imu_link,-5.031009957414935e-05,0.007958246190094588,-0.998197602348729,-0.059482858469651574,0.0,0.0,0.0,0.0,0.0,0.0,0.0,0.0,0.0,-0.006806784082777885,-0.0017453292519943296,-0.09704030641088471,0.0,0.0,0.0,0.0,0.0,0.0,0.0,0.0,0.0,0.07256921,-0.303025485,9.69681552,0.0,0.0,0.0,0.0,0.0,0.0,0.0,0.0,0.0
1704780511942878344,8883,1704780511942619110,imu_link,9.538035106922366e-05,0.008213996530273764,-0.9978704446260338,-0.0647077808724013,0.0,0.0,0.0,0.0,0.0,0.0,0.0,0.0,0.0,-0.0006981317007977319,-0.0017453292519943296,-0.10855947947404729,0.0,0.0,0.0,0.0,0.0,0.0,0.0,0.0,0.0,-0.067665885,-0.43933792,9.995918345,0.0,0.0,0.0,0.0,0.0,0.0,0.0,0.0,0.0
1704780512042334464,8884,1704780512041918019,imu_link,0.00021059744704395142,0.007946041327999042,-0.9974895395690612,-0.07036643039284629,0.0,0.0,0.0,0.0,0.0,0.0,0.0,0.0,0.0,0.003490658503988659,0.012566370614359173,-0.12217304763960307,0.0,0.0,0.0,0.0,0.0,0.0,0.0,0.0,0.0,-0.083356525,-0.369710705,9.67720222,0.0,0.0,0.0,0.0,0.0,0.0,0.0,0.0,0.0
1704780512142526245,8885,1704780512142096165,imu_link,0.00025931800201476837,0.007857375619584906,-0.9969746702456699,-0.07732852831319421,0.0,0.0,0.0,0.0,0.0,0.0,0.0,0.0,0.0,-0.005235987755982988,-0.011344640137963142,-0.14974924982111348,0.0,0.0,0.0,0.0,0.0,0.0,0.0,0.0,0.0,-0.11179581,-0.30989014000000004,9.715448154999999,0.0,0.0,0.0,0.0,0.0,0.0,0.0,0.0,0.0
1704780512242689025,8886,1704780512242265899,imu_link,-0.00017093327046166268,0.008247466206972557,-0.9963331032611333,-0.08516042172876749,0.0,0.0,0.0,0.0,0.0,0.0,0.0,0.0,0.0,0.003490658503988659,-0.0024434609527920616,-0.16196655458507378,0.0,0.0,0.0,0.0,0.0,0.0,0.0,0.0,0.0,-0.087279185,-0.51386846,9.956691745,0.0,0.0,0.0,0.0,0.0,0.0,0.0,0.0,0.0
1704780512342823161,8887,1704780512342444548,imu_link,-0.0003163964542483937,0.007830519527525516,-0.9955879237520389,-0.09350544869855074,0.0,0.0,0.0,0.0,0.0,0.0,0.0,0.0,0.0,0.012566370614359173,-0.005759586531581288,-0.17348572764823633,0.0,0.0,0.0,0.0,0.0,0.0,0.0,0.0,0.0,-0.053936574999999994,-0.392266,9.678182885,0.0,0.0,0.0,0.0,0.0,0.0,0.0,0.0,0.0
1704780512442093331,8888,1704780512441630608,imu_link,-0.0007903243136158452,0.007626612138658205,-0.9946633918139904,-0.10288803215075132,0.0,0.0,0.0,0.0,0.0,0.0,0.0,0.0,0.0,-0.005235987755982988,-0.0015707963267948967,-0.1986184688769547,0.0,0.0,0.0,0.0,0.0,0.0,0.0,0.0,0.0,0.07256921,-0.24222425499999997,10.032202949999999,0.0,0.0,0.0,0.0,0.0,0.0,0.0,0.0,0.0
1704780512542084114,8889,1704780512541710684,imu_link,-0.0010395044108998353,0.007847142082257947,-0.9935587927842587,-0.11304099730985695,0.0,0.0,0.0,0.0,0.0,0.0,0.0,0.0,0.0,0.0017453292519943296,-0.010471975511965976,-0.20961404316451898,0.0,0.0,0.0,0.0,0.0,0.0,0.0,0.0,0.0,-0.057859234999999995,-0.52367511,9.73015813,0.0,0.0,0.0,0.0,0.0,0.0,0.0,0.0,0.0
1704780512642461327,8890,1704780512642025911,imu_link,-0.001454891952322352,0.007391865723644095,-0.9923232605903173,-0.12344144402076532,0.0,0.0,0.0,0.0,0.0,0.0,0.0,0.0,0.0,0.010995574287564275,0.002967059728390361,-0.20734511513692636,0.0,0.0,0.0,0.0,0.0,0.0,0.0,0.0,0.0,0.08531785499999998,-0.24222425499999997,9.925310464999999,0.0,0.0,0.0,0.0,0.0,0.0,0.0,0.0,0.0
1704780512742724419,8891,1704780512742253666,imu_link,-0.001313653052107388,0.007222176565674041,-0.9909660651166446,-0.13391180780105588,0.0,0.0,0.0,0.0,0.0,0.0,0.0,0.0,0.0,0.004014257279586958,0.0031415926535897933,-0.2150245638457014,0.0,0.0,0.0,0.0,0.0,0.0,0.0,0.0,0.0,0.16082906,-0.09904716499999999,9.834108619999999,0.0,0.0,0.0,0.0,0.0,0.0,0.0,0.0,0.0
1704780512842837322,8892,1704780512842409226,imu_link,-0.0011090879386270963,0.006950341572082742,-0.9896373866814628,-0.1434165456223959,0.0,0.0,0.0,0.0,0.0,0.0,0.0,0.0,0.0,0.004014257279586958,0.012042771838760872,-0.17191493132144145,0.0,0.0,0.0,0.0,0.0,0.0,0.0,0.0,0.0,0.083356525,-0.212804305,9.74192611,0.0,0.0,0.0,0.0,0.0,0.0,0.0,0.0,0.0
1704780512943117105,8893,1704780512942638887,imu_link,-0.0008182195906241494,0.006215554536153362,-0.9885650999926302,-0.15066433046700417,0.0,0.0,0.0,0.0,0.0,0.0,0.0,0.0,0.0,0.011344640137963142,0.0022689280275926286,-0.12671090369478832,0.0,0.0,0.0,0.0,0.0,0.0,0.0,0.0,0.0,0.042168594999999996,-0.024516625,10.02828029,0.0,0.0,0.0,0.0,0.0,0.0,0.0,0.0,0.0
1704780513042299361,8894,1704780513041743720,imu_link,-0.0007917687843156639,0.0061345265794938795,-0.9875720717751146,-0.15704503728435834,0.0,0.0,0.0,0.0,0.0,0.0,0.0,0.0,0.0,-0.0006981317007977319,0.004014257279586958,-0.14032447186034408,0.0,0.0,0.0,0.0,0.0,0.0,0.0,0.0,0.0,0.046091255,-0.27164420499999997,9.591884364999999,0.0,0.0,0.0,0.0,0.0,0.0,0.0,0.0,0.0
1704780513142198807,8895,1704780513141822880,imu_link,-0.0006612343962749882,0.006125773651026128,-0.9864089059165536,-0.16419350777286307,0.0,0.0,0.0,0.0,0.0,0.0,0.0,0.0,0.0,0.0005235987755982988,-0.0008726646259971648,-0.14503686084072878,0.0,0.0,0.0,0.0,0.0,0.0,0.0,0.0,0.0,0.00980665,-0.39030467,9.79488202,0.0,0.0,0.0,0.0,0.0,0.0,0.0,0.0,0.0
1704780513242317838,8896,1704780513241971142,imu_link,-0.00091861461611656,0.0049405088056534985,-0.9854237575303094,-0.17004342273306022,0.0,0.0,0.0,0.0,0.0,0.0,0.0,0.0,0.0,0.021118483949131385,0.00942477796076938,-0.08429940287132612,0.0,0.0,0.0,0.0,0.0,0.0,0.0,0.0,0.0,0.128467115,0.336368095,9.805669335,0.0,0.0,0.0,0.0,0.0,0.0,0.0,0.0,0.0
1704780513342842024,8897,1704780513342385709,imu_link,-0.00032495276712839053,0.004220591550072684,-0.9850396765183673,-0.1722756996713606,0.0,0.0,0.0,0.0,0.0,0.0,0.0,0.0,0.0,-0.010297442586766544,0.015009831567151233,-0.023561944901923447,0.0,0.0,0.0,0.0,0.0,0.0,0.0,0.0,0.0,-0.011767979999999999,0.35303939999999995,9.756636085,0.0,0.0,0.0,0.0,0.0,0.0,0.0,0.0,0.0
1704780513441499403,8898,1704780513441193746,imu_link,5.659573472876383e-05,0.00486314055230762,-0.9849164395285174,-0.17296229013099848,0.0,0.0,0.0,0.0,0.0,0.0,0.0,0.0,0.0,-0.01291543646475804,-0.0024434609527920616,-0.004363323129985824,0.0,0.0,0.0,0.0,0.0,0.0,0.0,0.0,0.0,0.004903325,-0.179461695,9.80272734,0.0,0.0,0.0,0.0,0.0,0.0,0.0,0.0,0.0
1704780513541956005,8899,1704780513541555474,imu_link,0.00015692826740303382,0.0059094977879234414,-0.9847593430918181,-0.17382200494409267,0.0,0.0,0.0,0.0,0.0,0.0,0.0,0.0,0.0,-0.024783675378319478,-0.008028514559173916,-0.038397243543875255,0.0,0.0,0.0,0.0,0.0,0.0,0.0,0.0,0.0,-0.07747253500000001,-0.4707192,9.804688669999999,0.0,0.0,0.0,0.0,0.0,0.0,0.0,0.0,0.0
1704780513642077468,8900,1704780513641694138,imu_link,5.496884770635484e-05,0.007173108900124837,-0.9840293766441698,-0.17786154555839073,0.0,0.0,0.0,0.0,0.0,0.0,0.0,0.0,0.0,-0.024609142453120045,0.006806784082777885,-0.11728612573401893,0.0,0.0,0.0,0.0,0.0,0.0,0.0,0.0,0.0,0.034323275,-0.55701772,9.774288055,0.0,0.0,0.0,0.0,0.0,0.0,0.0,0.0,0.0
1704780513742604404,8901,1704780513742087732,imu_link,0.0005931486258769945,0.007435420091655483,-0.9828908674640727,-0.18403778242113966,0.0,0.0,0.0,0.0,0.0,0.0,0.0,0.0,0.0,0.0054105206811824215,0.004014257279586958,-0.12164944886400476,0.0,0.0,0.0,0.0,0.0,0.0,0.0,0.0,0.0,0.00980665,-0.48346784499999995,9.867451229999999,0.0,0.0,0.0,0.0,0.0,0.0,0.0,0.0,0.0
1704780513842738848,8902,1704780513842096823,imu_link,0.000622920419690984,0.006901195022583139,-0.9818019874918664,-0.18978103918577324,0.0,0.0,0.0,0.0,0.0,0.0,0.0,0.0,0.0,0.004886921905584123,0.008028514559173916,-0.12042771838760874,0.0,0.0,0.0,0.0,0.0,0.0,0.0,0.0,0.0,-0.1176798,-0.24124358999999998,9.967479059999999,0.0,0.0,0.0,0.0,0.0,0.0,0.0,0.0,0.0
1704780513942688162,8903,1704780513942214203,imu_link,0.0007084867821831301,0.007067490567289001,-0.9803660368172759,-0.1970583225310427,0.0,0.0,0.0,0.0,0.0,0.0,0.0,0.0,0.0,-0.010122909661567111,-0.002617993877991494,-0.17575465567582899,0.0,0.0,0.0,0.0,0.0,0.0,0.0,0.0,0.0,-0.095124505,-0.41580195999999997,9.7870367,0.0,0.0,0.0,0.0,0.0,0.0,0.0,0.0,0.0
1704780514041875252,8904,1704780514041414513,imu_link,0.0005826153597145152,0.007011420900759549,-0.9785734110290579,-0.20577798658566346,0.0,0.0,0.0,0.0,0.0,0.0,0.0,0.0,0.0,-0.00034906585039886593,0.004363323129985824,-0.16894787159305108,0.0,0.0,0.0,0.0,0.0,0.0,0.0,0.0,0.0,0.05099458,-0.35303939999999995,9.991995685,0.0,0.0,0.0,0.0,0.0,0.0,0.0,0.0,0.0
1704780514141856215,8905,1704780514141451800,imu_link,0.0009917146873389807,0.0065721368011129894,-0.9768557871188762,-0.2137956844564623,0.0,0.0,0.0,0.0,0.0,0.0,0.0,0.0,0.0,0.0008726646259971648,0.012217304763960306,-0.17016960206944712,0.0,0.0,0.0,0.0,0.0,0.0,0.0,0.0,0.0,-0.04903325,-0.25987622499999996,9.691912194999999,0.0,0.0,0.0,0.0,0.0,0.0,0.0,0.0,0.0
1704780514242203123,8906,1704780514241820461,imu_link,0.0010986470697224187,0.006373096158451852,-0.9748376142855126,-0.22282235613623116,0.0,0.0,0.0,0.0,0.0,0.0,0.0,0.0,0.0,0.008203047484373348,0.006632251157578452,-0.19408061282176942,0.0,0.0,0.0,0.0,0.0,0.0,0.0,0.0,0.0,-0.00392266,-0.40403397999999996,9.97532438,0.0,0.0,0.0,0.0,0.0,0.0,0.0,0.0,0.0
1704780514342242128,8907,1704780514341828539,imu_link,0.0012272005336360673,0.005897549465856923,-0.9726972918353525,-0.23199933479499288,0.0,0.0,0.0,0.0,0.0,0.0,0.0,0.0,0.0,0.009948376736367677,-0.00715584993317675,-0.18081611050661253,0.0,0.0,0.0,0.0,0.0,0.0,0.0,0.0,0.0,0.01765197,-0.328522775,9.842934605,0.0,0.0,0.0,0.0,0.0,0.0,0.0,0.0,0.0
1704780514441547747,8908,1704780514441108459,imu_link,0.0009665199719712226,0.005694618788633304,-0.970426510355615,-0.24132763031824428,0.0,0.0,0.0,0.0,0.0,0.0,0.0,0.0,0.0,-0.0013962634015954637,0.004537856055185257,-0.20943951023931953,0.0,0.0,0.0,0.0,0.0,0.0,0.0,0.0,0.0,-0.02745862,-0.34617474499999995,9.549715769999999,0.0,0.0,0.0,0.0,0.0,0.0,0.0,0.0,0.0
1704780514541903916,8909,1704780514541408435,imu_link,0.0007614549523230837,0.006024420563147511,-0.9675359508206947,-0.2526604646808207,0.0,0.0,0.0,0.0,0.0,0.0,0.0,0.0,0.0,-0.01064650843716541,-0.018500490071139894,-0.2488839513343914,0.0,0.0,0.0,0.0,0.0,0.0,0.0,0.0,0.0,-0.04118793,-0.42364728,10.036125610000001,0.0,0.0,0.0,0.0,0.0,0.0,0.0,0.0,0.0
1704780514641997653,8910,1704780514641541591,imu_link,0.0002711564155664162,0.00626027539514865,-0.9642824688611813,-0.2648019178049138,0.0,0.0,0.0,0.0,0.0,0.0,0.0,0.0,0.0,-0.0010471975511965976,0.0027925268031909274,-0.25080381351158515,0.0,0.0,0.0,0.0,0.0,0.0,0.0,0.0,0.0,-0.030400614999999995,-0.49229383,9.725254805,0.0,0.0,0.0,0.0,0.0,0.0,0.0,0.0,0.0
1704780514742121537,8911,1704780514741666853,imu_link,-8.978287958340118e-05,0.006293389387481524,-0.9607086534874673,-0.277487420081253,0.0,0.0,0.0,0.0,0.0,0.0,0.0,0.0,0.0,-0.018500490071139894,-0.013264502315156903,-0.2832669375986797,0.0,0.0,0.0,0.0,0.0,0.0,0.0,0.0,0.0,-0.014709975,-0.34127141999999994,9.927271795,0.0,0.0,0.0,0.0,0.0,0.0,0.0,0.0,0.0
1704780514841260517,8912,1704780514840784297,imu_link,-8.222938781238514e-06,0.00684575508754598,-0.9563805027428518,-0.2920436089747463,0.0,0.0,0.0,0.0,0.0,0.0,0.0,0.0,0.0,-0.02129301687433082,0.004886921905584123,-0.3077015471266003,0.0,0.0,0.0,0.0,0.0,0.0,0.0,0.0,0.0,0.12160245999999998,-0.39618865999999997,9.742906775,0.0,0.0,0.0,0.0,0.0,0.0,0.0,0.0,0.0
1704780514941291334,8913,1704780514940973205,imu_link,-0.00013207564530655662,0.007284287979023903,-0.9519389391615981,-0.3062012047862543,0.0,0.0,0.0,0.0,0.0,0.0,0.0,0.0,0.0,-0.009773843811168246,-0.0036651914291880917,-0.2932153143350474,0.0,0.0,0.0,0.0,0.0,0.0,0.0,0.0,0.0,0.03138128,-0.52563644,9.835089284999999,0.0,0.0,0.0,0.0,0.0,0.0,0.0,0.0,0.0
1704780515041606082,8914,1704780515041162680,imu_link,-7.928154074643206e-05,0.00712011876083171,-0.9472651292953748,-0.3203717722338937,0.0,0.0,0.0,0.0,0.0,0.0,0.0,0.0,0.0,-0.005061454830783556,0.006632251157578452,-0.30246555937061725,0.0,0.0,0.0,0.0,0.0,0.0,0.0,0.0,0.0,0.07943386499999999,-0.050013915,9.738984115,0.0,0.0,0.0,0.0,0.0,0.0,0.0,0.0,0.0
1704780515141782746,8915,1704780515141357436,imu_link,0.0001741526461805083,0.007807689701374288,-0.9425484268478158,-0.33397825183549035,0.0,0.0,0.0,0.0,0.0,0.0,0.0,0.0,0.0,-0.017453292519943295,0.002617993877991494,-0.2694788365079245,0.0,0.0,0.0,0.0,0.0,0.0,0.0,0.0,0.0,0.09120184499999999,-0.33734875999999997,9.80861133,0.0,0.0,0.0,0.0,0.0,0.0,0.0,0.0,0.0
1704780515241917830,8916,1704780515241432523,imu_link,0.0006385989464137353,0.008041884706014208,-0.9382757274459286,-0.34579412887956096,0.0,0.0,0.0,0.0,0.0,0.0,0.0,0.0,0.0,0.00034906585039886593,0.014137166941154071,-0.24329889772800953,0.0,0.0,0.0,0.0,0.0,0.0,0.0,0.0,0.0,0.030400614999999995,-0.44620257499999993,9.56736774,0.0,0.0,0.0,0.0,0.0,0.0,0.0,0.0,0.0
1704780515342403319,8917,1704780515341729238,imu_link,0.0008820786128215449,0.008165167514141211,-0.9339177906749694,-0.3573934977550248,0.0,0.0,0.0,0.0,0.0,0.0,0.0,0.0,0.0,-0.005061454830783556,-0.006981317007977318,-0.24626595745639987,0.0,0.0,0.0,0.0,0.0,0.0,0.0,0.0,0.0,-0.08139519499999999,-0.11081514499999999,10.2577559,0.0,0.0,0.0,0.0,0.0,0.0,0.0,0.0,0.0
1704780515441233608,8918,1704780515440806183,imu_link,0.0005886322530407203,0.008590398246720931,-0.9296055902609225,-0.36845529596638343,0.0,0.0,0.0,0.0,0.0,0.0,0.0,0.0,0.0,0.00471238898038469,0.0041887902047863905,-0.22584560520806624,0.0,0.0,0.0,0.0,0.0,0.0,0.0,0.0,0.0,-0.03138128,-0.328522775,9.656608255,0.0,0.0,0.0,0.0,0.0,0.0,0.0,0.0,0.0
1704780515541466804,8919,1704780515541070899,imu_link,0.0008480399738329636,0.00785366419151962,-0.9258684049092969,-0.37776354717956,0.0,0.0,0.0,0.0,0.0,0.0,0.0,0.0,0.0,0.014486232791552934,0.008552113334772213,-0.18535396656179778,0.0,0.0,0.0,0.0,0.0,0.0,0.0,0.0,0.0,0.06864655,-0.28635417999999996,9.873335219999998,0.0,0.0,0.0,0.0,0.0,0.0,0.0,0.0,0.0
1704780515641562974,8920,1704780515641172851,imu_link,0.00023971717508217269,0.006900294967128807,-0.9224089707819288,-0.3861528442029981,0.0,0.0,0.0,0.0,0.0,0.0,0.0,0.0,0.0,0.023038346126325153,-0.0038397243543875246,-0.17767451785302274,0.0,0.0,0.0,0.0,0.0,0.0,0.0,0.0,0.0,0.32950344,-0.13140911,9.929233125,0.0,0.0,0.0,0.0,0.0,0.0,0.0,0.0,0.0
1704780515742971530,8921,1704780515742533522,imu_link,8.089196811710345e-05,0.005946976558207664,-0.9190798259990308,-0.3940265224168254,0.0,0.0,0.0,0.0,0.0,0.0,0.0,0.0,0.0,0.022863813201125717,0.0041887902047863905,-0.16650441064025903,0.0,0.0,0.0,0.0,0.0,0.0,0.0,0.0,0.0,0.48052585,-0.33734875999999997,9.603652344999999,0.0,0.0,0.0,0.0,0.0,0.0,0.0,0.0,0.0
1704780515841271618,8922,1704780515840891072,imu_link,-0.00022871973245483252,0.005341871465427895,-0.9156799923761467,-0.4018725714185415,0.0,0.0,0.0,0.0,0.0,0.0,0.0,0.0,0.0,0.011519173063162576,0.0013962634015954637,-0.18011797880581482,0.0,0.0,0.0,0.0,0.0,0.0,0.0,0.0,0.0,0.67273619,-0.21574629999999997,9.81841798,0.0,0.0,0.0,0.0,0.0,0.0,0.0,0.0,0.0
1704780515941408192,8923,1704780515941072303,imu_link,-3.284879222443691e-05,0.004607658516302189,-0.9119997748238995,-0.4101648194629941,0.0,0.0,0.0,0.0,0.0,0.0,0.0,0.0,0.0,0.01064650843716541,0.011868238913561443,-0.1764527873766267,0.0,0.0,0.0,0.0,0.0,0.0,0.0,0.0,0.0,0.597224985,-0.34323275000000003,9.67720222,0.0,0.0,0.0,0.0,0.0,0.0,0.0,0.0,0.0
1704780516041664411,8924,1704780516041245600,imu_link,8.85200577596132e-05,0.003321819311443945,-0.9083190874875017,-0.4182647403099305,0.0,0.0,0.0,0.0,0.0,0.0,0.0,0.0,0.0,0.033859387488689996,0.01815142422074103,-0.18133970928221083,0.0,0.0,0.0,0.0,0.0,0.0,0.0,0.0,0.0,0.36284605,-0.40207265,10.27344654,0.0,0.0,0.0,0.0,0.0,0.0,0.0,0.0,0.0
1704780516142111930,8925,1704780516141466968,imu_link,0.00011058497057762256,0.0020713481248326423,-0.9040426308923984,-0.4274372688676789,0.0,0.0,0.0,0.0,0.0,0.0,0.0,0.0,0.0,0.020071286397934786,0.005934119456780722,-0.22322761133007474,0.0,0.0,0.0,0.0,0.0,0.0,0.0,0.0,0.0,0.507003805,-0.29027684,9.305530184999999,0.0,0.0,0.0,0.0,0.0,0.0,0.0,0.0,0.0
1704780516241096585,8926,1704780516240555359,imu_link,0.001033972269144039,0.0019230590912059041,-0.8989831396967803,-0.4379777931425261,0.0,0.0,0.0,0.0,0.0,0.0,0.0,0.0,0.0,-0.017278759594743863,0.011344640137963142,-0.23230332344044527,0.0,0.0,0.0,0.0,0.0,0.0,0.0,0.0,0.0,0.28635417999999996,-0.023535959999999998,10.145960089999999,0.0,0.0,0.0,0.0,0.0,0.0,0.0,0.0,0.0
1704780516341387289,8927,1704780516340920239,imu_link,0.0026565053046828987,0.002377616988952636,-0.8939158833846071,-0.4482205744382308,0.0,0.0,0.0,0.0,0.0,0.0,0.0,0.0,0.0,-0.018500490071139894,0.038571776469074684,-0.22636920398366453,0.0,0.0,0.0,0.0,0.0,0.0,0.0,0.0,0.0,0.05295591,-0.587418335,9.914523149999999,0.0,0.0,0.0,0.0,0.0,0.0,0.0,0.0,0.0
1704780516441162475,8928,1704780516440829514,imu_link,0.003658682967707259,0.002335469702475684,-0.8888126923292129,-0.45825010373671105,0.0,0.0,0.0,0.0,0.0,0.0,0.0,0.0,0.0,-0.012217304763960306,0.014137166941154071,-0.2234021442552742,0.0,0.0,0.0,0.0,0.0,0.0,0.0,0.0,0.0,0.047071919999999996,-0.16867437999999998,9.625226975,0.0,0.0,0.0,0.0,0.0,0.0,0.0,0.0,0.0
1704780516541410895,8929,1704780516541017554,imu_link,0.004845476618694267,0.0018775547184601044,-0.8837191333590015,-0.46798877067706657,0.0,0.0,0.0,0.0,0.0,0.0,0.0,0.0,0.0,0.0041887902047863905,0.01937315469713706,-0.21362830044410594,0.0,0.0,0.0,0.0,0.0,0.0,0.0,0.0,0.0,-0.228494945,-0.47856452,10.397990994999999,0.0,0.0,0.0,0.0,0.0,0.0,0.0,0.0,0.0
1704780516640699525,8930,1704780516640278223,imu_link,0.00500539029110623,0.0013520631270770996,-0.8786450859887129,-0.47744730689492954,0.0,0.0,0.0,0.0,0.0,0.0,0.0,0.0,0.0,0.009599310885968814,0.018500490071139894,-0.21781709064889232,0.0,0.0,0.0,0.0,0.0,0.0,0.0,0.0,0.0,-0.106892485,-0.07943386499999999,9.781152709999999,0.0,0.0,0.0,0.0,0.0,0.0,0.0,0.0,0.0
1704780516740851113,8931,1704780516740440887,imu_link,0.005729820637730167,0.0006097212917421596,-0.8741046455152516,-0.4857034754704375,0.0,0.0,0.0,0.0,0.0,0.0,0.0,0.0,0.0,-0.005061454830783556,0.01780235837034216,-0.15428710587629874,0.0,0.0,0.0,0.0,0.0,0.0,0.0,0.0,0.0,-0.17553903499999998,0.06276256,9.795862685,0.0,0.0,0.0,0.0,0.0,0.0,0.0,0.0,0.0
1704780516841183083,8932,1704780516840666088,imu_link,0.005780378068448,-5.5848792135106476e-05,-0.87086327297302,-0.4914913467163156,0.0,0.0,0.0,0.0,0.0,0.0,0.0,0.0,0.0,0.02897246558310587,0.005585053606381855,-0.12897983172238095,0.0,0.0,0.0,0.0,0.0,0.0,0.0,0.0,0.0,-0.26477955,-0.355981395,10.002782999999999,0.0,0.0,0.0,0.0,0.0,0.0,0.0,0.0,0.0
1704780516941345376,8933,1704780516940826595,imu_link,0.0054319323638578,-0.0014029579345909127,-0.8676256050605844,-0.49718641902518135,0.0,0.0,0.0,0.0,0.0,0.0,0.0,0.0,0.0,0.01780235837034216,0.00034906585039886593,-0.12199851471440365,0.0,0.0,0.0,0.0,0.0,0.0,0.0,0.0,0.0,-0.181423025,0.42953126999999997,9.576193725,0.0,0.0,0.0,0.0,0.0,0.0,0.0,0.0,0.0
1704780517041460920,8934,1704780517041047696,imu_link,0.005199300310004222,-0.00129503529268056,-0.865492693620174,-0.5008928901970687,0.0,0.0,0.0,0.0,0.0,0.0,0.0,0.0,0.0,-0.0031415926535897933,0.007330382858376183,-0.05916666164260777,0.0,0.0,0.0,0.0,0.0,0.0,0.0,0.0,0.0,-0.0029419949999999998,-0.16082906,10.168515385,0.0,0.0,0.0,0.0,0.0,0.0,0.0,0.0,0.0
1704780517141542687,8935,1704780517141103526,imu_link,0.0047376533282868505,-0.0029627012529154432,-0.8639973750190973,-0.5034653046659086,0.0,0.0,0.0,0.0,0.0,0.0,0.0,0.0,0.0,0.032637657012293965,0.00034906585039886593,-0.06440264939859076,0.0,0.0,0.0,0.0,0.0,0.0,0.0,0.0,0.0,0.09218251,-0.0196133,9.748790764999999,0.0,0.0,0.0,0.0,0.0,0.0,0.0,0.0,0.0
1704780517240820502,8936,1704780517240365854,imu_link,0.003976721726732774,-0.0037436600075007598,-0.8629828646135197,-0.5052036679177022,0.0,0.0,0.0,0.0,0.0,0.0,0.0,0.0,0.0,-0.005934119456780722,0.0015707963267948967,-0.00645771823237902,0.0,0.0,0.0,0.0,0.0,0.0,0.0,0.0,0.0,0.416782625,0.77472535,9.484991879999999,0.0,0.0,0.0,0.0,0.0,0.0,0.0,0.0,0.0
1704780517340848271,8937,1704780517340376564,imu_link,0.0044270546394874506,-0.0034943521352712613,-0.8635556225897766,-0.5042220516637058,0.0,0.0,0.0,0.0,0.0,0.0,0.0,0.0,0.0,-0.0041887902047863905,-0.009948376736367677,0.030019663134302467,0.0,0.0,0.0,0.0,0.0,0.0,0.0,0.0,0.0,0.22555294999999997,-0.29321883499999996,10.264620554999999,0.0,0.0,0.0,0.0,0.0,0.0,0.0,0.0,0.0
1704780517441023858,8938,1704780517440612677,imu_link,0.004171597779476376,-0.003240439758791712,-0.8638656304074481,-0.5036946197080907,0.0,0.0,0.0,0.0,0.0,0.0,0.0,0.0,0.0,-0.007330382858376183,0.02129301687433082,0.0019198621771937623,0.0,0.0,0.0,0.0,0.0,0.0,0.0,0.0,0.0,0.56682437,0.29027684,9.088803219999999,0.0,0.0,0.0,0.0,0.0,0.0,0.0,0.0,0.0
1704780517541146420,8939,1704780517540789664,imu_link,0.005963653827752504,-0.0027648097105032283,-0.8642142799200097,-0.5030809766256588,0.0,0.0,0.0,0.0,0.0,0.0,0.0,0.0,0.0,-0.032114058236695664,-0.008726646259971648,0.023212879051524585,0.0,0.0,0.0,0.0,0.0,0.0,0.0,0.0,0.0,0.15298373999999998,-0.08531785499999998,10.32444112,0.0,0.0,0.0,0.0,0.0,0.0,0.0,0.0,0.0
1704780517640279713,8940,1704780517639891899,imu_link,0.005567325482117167,-0.0010135632367696198,-0.8647047374469389,-0.5022486382394297,0.0,0.0,0.0,0.0,0.0,0.0,0.0,0.0,0.0,-0.019896753472735354,-0.0036651914291880917,0.01064650843716541,0.0,0.0,0.0,0.0,0.0,0.0,0.0,0.0,0.0,0.36873004,-0.16573238499999998,9.740945445,0.0,0.0,0.0,0.0,0.0,0.0,0.0,0.0,0.0
1704780517740057785,8941,1704780517739702562,imu_link,0.0060445551079646,-0.0008865214061854671,-0.8647476001161484,-0.5021695585424358,0.0,0.0,0.0,0.0,0.0,0.0,0.0,0.0,0.0,0.0038397243543875246,0.0,0.002617993877991494,0.0,0.0,0.0,0.0,0.0,0.0,0.0,0.0,0.0,0.04118793,-0.28537351499999997,9.894909849999998,0.0,0.0,0.0,0.0,0.0,0.0,0.0,0.0,0.0
1704780517840634414,8942,1704780517840036773,imu_link,0.005149909803792677,-0.0020786055162235998,-0.8650526910404672,-0.5016502761404268,0.0,0.0,0.0,0.0,0.0,0.0,0.0,0.0,0.0,0.030019663134302467,0.010995574287564275,0.011693705988362009,0.0,0.0,0.0,0.0,0.0,0.0,0.0,0.0,0.0,0.014709975,-0.10591182,9.98513103,0.0,0.0,0.0,0.0,0.0,0.0,0.0,0.0,0.0
1704780517940938056,8943,1704780517940531693,imu_link,0.005249418727636943,-0.0036468949983602846,-0.8652195672654786,-0.5013524151540821,0.0,0.0,0.0,0.0,0.0,0.0,0.0,0.0,0.0,0.026878070480712675,-0.010297442586766544,0.00645771823237902,0.0,0.0,0.0,0.0,0.0,0.0,0.0,0.0,0.0,-0.22359162,0.17848102999999998,9.803708004999999,0.0,0.0,0.0,0.0,0.0,0.0,0.0,0.0,0.0
1704780518041100404,8944,1704780518040653573,imu_link,0.005280843601939873,-0.0037666111114382185,-0.865174982766668,-0.5014281349568277,0.0,0.0,0.0,0.0,0.0,0.0,0.0,0.0,0.0,0.009948376736367677,0.04834562028024293,-0.010122909661567111,0.0,0.0,0.0,0.0,0.0,0.0,0.0,0.0,0.0,-0.197113665,-0.163771055,10.158708735,0.0,0.0,0.0,0.0,0.0,0.0,0.0,0.0,0.0
1704780518141247081,8945,1704780518140831389,imu_link,0.005814264117685648,-0.004585235578282998,-0.8648611456033091,-0.501956540721598,0.0,0.0,0.0,0.0,0.0,0.0,0.0,0.0,0.0,0.0038397243543875246,-0.03682644721708035,-0.008203047484373348,0.0,0.0,0.0,0.0,0.0,0.0,0.0,0.0,0.0,-0.44326057999999996,0.11964113,9.476165895,0.0,0.0,0.0,0.0,0.0,0.0,0.0,0.0,0.0
1704780518240346537,8946,1704780518239953051,imu_link,0.005503943337786994,-0.0039026870871541556,-0.8647355293040615,-0.502182178099202,0.0,0.0,0.0,0.0,0.0,0.0,0.0,0.0,0.0,-0.014660765716752367,0.03612831551628262,-0.00890117918517108,0.0,0.0,0.0,0.0,0.0,0.0,0.0,0.0,0.0,-0.07256921,0.020593965,9.9439431,0.0,0.0,0.0,0.0,0.0,0.0,0.0,0.0,0.0
1704780518340556894,8947,1704780518340135629,imu_link,0.006757407245349011,-0.003829584145331028,-0.8643807566000118,-0.5027778628302814,0.0,0.0,0.0,0.0,0.0,0.0,0.0,0.0,0.0,-0.01972222054753592,-0.01308996938995747,-0.007679448708775049,0.0,0.0,0.0,0.0,0.0,0.0,0.0,0.0,0.0,-0.16082906,0.07354987499999999,9.580116385,0.0,0.0,0.0,0.0,0.0,0.0,0.0,0.0,0.0
1704780518440352044,8948,1704780518440004935,imu_link,0.007151185757223574,-0.0031531962555080835,-0.8642079550080815,-0.5030740784381458,0.0,0.0,0.0,0.0,0.0,0.0,0.0,0.0,0.0,0.0006981317007977319,0.01308996938995747,-0.017104226669544427,0.0,0.0,0.0,0.0,0.0,0.0,0.0,0.0,0.0,-0.30498681499999997,-0.44227991499999997,10.05966157,0.0,0.0,0.0,0.0,0.0,0.0,0.0,0.0,0.0
1704780518541103745,8949,1704780518540610528,imu_link,0.006347266788736469,-0.002802887261773042,-0.8631572637115982,-0.5048875064103062,0.0,0.0,0.0,0.0,0.0,0.0,0.0,0.0,0.0,0.013439035240356337,-0.021467549799530253,-0.06021385919380437,0.0,0.0,0.0,0.0,0.0,0.0,0.0,0.0,0.0,-0.195152335,-0.30400615,9.699757515,0.0,0.0,0.0,0.0,0.0,0.0,0.0,0.0,0.0
1704780518640224894,8950,1704780518639736105,imu_link,0.006349893554398238,-0.004350373740899931,-0.8614686572924208,-0.5077524058071572,0.0,0.0,0.0,0.0,0.0,0.0,0.0,0.0,0.0,0.02949606435870417,0.02565634000431664,-0.06283185307179587,0.0,0.0,0.0,0.0,0.0,0.0,0.0,0.0,0.0,-1.352337035,-0.32754211,9.878238545,0.0,0.0,0.0,0.0,0.0,0.0,0.0,0.0,0.0
1704780518740191523,8951,1704780518739757944,imu_link,0.005710657840677116,-0.005422819870787739,-0.8596850243911224,-0.5107637812622497,0.0,0.0,0.0,0.0,0.0,0.0,0.0,0.0,0.0,0.017104226669544427,-0.02949606435870417,-0.08098327729253689,0.0,0.0,0.0,0.0,0.0,0.0,0.0,0.0,0.0,-1.44353888,0.13533177,9.991995685,0.0,0.0,0.0,0.0,0.0,0.0,0.0,0.0,0.0
1704780518840585933,8952,1704780518840249361,imu_link,0.004698324591689092,-0.005059387242463073,-0.8573649221397232,-0.5146627231800535,0.0,0.0,0.0,0.0,0.0,0.0,0.0,0.0,0.0,0.0036651914291880917,-0.003490658503988659,-0.09302604913129776,0.0,0.0,0.0,0.0,0.0,0.0,0.0,0.0,0.0,-0.520733115,-0.033342609999999995,9.89294852,0.0,0.0,0.0,0.0,0.0,0.0,0.0,0.0,0.0
1704780518940716246,8953,1704780518940256753,imu_link,0.004853451390354856,-0.005291442894837487,-0.8549731702087802,-0.5186225244480231,0.0,0.0,0.0,0.0,0.0,0.0,0.0,0.0,0.0,0.009075712110370514,0.003316125578789226,-0.09267698328089889,0.0,0.0,0.0,0.0,0.0,0.0,0.0,0.0,0.0,-0.33440676499999994,-0.09904716499999999,9.853721919999998,0.0,0.0,0.0,0.0,0.0,0.0,0.0,0.0,0.0
1704780519041109334,8954,1704780519040650517,imu_link,0.004210099105785816,-0.004319846458604203,-0.8526201244427107,-0.5224964472485816,0.0,0.0,0.0,0.0,0.0,0.0,0.0,0.0,0.0,-0.02722713633111154,-0.03577924966588375,-0.09093165402890457,0.0,0.0,0.0,0.0,0.0,0.0,0.0,0.0,0.0,0.53740442,0.24712757999999999,9.84391527,0.0,0.0,0.0,0.0,0.0,0.0,0.0,0.0,0.0
1704780519140923169,8955,1704780519140531123,imu_link,0.004764715335353521,-0.0027483279762167984,-0.8499263654656494,-0.5268727716132799,0.0,0.0,0.0,0.0,0.0,0.0,0.0,0.0,0.0,-0.026354471705114374,0.012391837689159739,-0.11222467090323537,0.0,0.0,0.0,0.0,0.0,0.0,0.0,0.0,0.0,0.575650355,-0.5825150099999999,9.973363049999998,0.0,0.0,0.0,0.0,0.0,0.0,0.0,0.0,0.0
1704780519240265911,8956,1704780519239776089,imu_link,0.0057287335294732965,-0.0023650204436226597,-0.8465521171067995,-0.5322697636654226,0.0,0.0,0.0,0.0,0.0,0.0,0.0,0.0,0.0,-0.004886921905584123,0.020420352248333655,-0.14189526818713902,0.0,0.0,0.0,0.0,0.0,0.0,0.0,0.0,0.0,0.54132708,-0.328522775,10.09888817,0.0,0.0,0.0,0.0,0.0,0.0,0.0,0.0,0.0
1704780519340255161,8957,1704780519339816697,imu_link,0.005965780689246579,-0.0029804222334862797,-0.8428589958822604,-0.5380931514193669,0.0,0.0,0.0,0.0,0.0,0.0,0.0,0.0,0.0,0.007504915783575617,-0.010471975511965976,-0.13281955607676849,0.0,0.0,0.0,0.0,0.0,0.0,0.0,0.0,0.0,0.40011132,-0.279489525,9.803708004999999,0.0,0.0,0.0,0.0,0.0,0.0,0.0,0.0,0.0
1704780519440558602,8958,1704780519440136045,imu_link,0.0055789545929287605,-0.0027841574586413976,-0.8391316335364889,-0.543892659751241,0.0,0.0,0.0,0.0,0.0,0.0,0.0,0.0,0.0,-0.0008726646259971648,-0.004014257279586958,-0.14137166941154067,0.0,0.0,0.0,0.0,0.0,0.0,0.0,0.0,0.0,0.31479346499999994,-0.05687856999999999,9.951788419999998,0.0,0.0,0.0,0.0,0.0,0.0,0.0,0.0,0.0
1704780519540147672,8959,1704780519539769743,imu_link,0.00539079454464106,-0.0029203832860023793,-0.8353619831882816,-0.5496660511068346,0.0,0.0,0.0,0.0,0.0,0.0,0.0,0.0,0.0,0.011693705988362009,0.0024434609527920616,-0.130201562198777,0.0,0.0,0.0,0.0,0.0,0.0,0.0,0.0,0.0,0.15886772999999998,-0.17848102999999998,9.764481405,0.0,0.0,0.0,0.0,0.0,0.0,0.0,0.0,0.0
1704780519639890999,8960,1704780519639566983,imu_link,0.003666690787623561,-0.0047345411576182285,-0.8334311211067696,-0.5525909028109379,0.0,0.0,0.0,0.0,0.0,0.0,0.0,0.0,0.0,0.044331363000655974,-0.024609142453120045,-0.00645771823237902,0.0,0.0,0.0,0.0,0.0,0.0,0.0,0.0,0.0,0.05099458,0.5501530649999999,9.86352857,0.0,0.0,0.0,0.0,0.0,0.0,0.0,0.0,0.0
1704780519739827931,8961,1704780519739455136,imu_link,0.002536263961105139,-0.005339838052448942,-0.8340071611939756,-0.5517219486044208,0.0,0.0,0.0,0.0,0.0,0.0,0.0,0.0,0.0,0.0041887902047863905,0.005759586531581288,0.013962634015954637,0.0,0.0,0.0,0.0,0.0,0.0,0.0,0.0,0.0,0.061781894999999996,0.189268345,9.491856535,0.0,0.0,0.0,0.0,0.0,0.0,0.0,0.0,0.0
1704780519840133833,8962,1704780519839667355,imu_link,0.00296804492132661,-0.005631296886426855,-0.8335221977669868,-0.5524492963471074,0.0,0.0,0.0,0.0,0.0,0.0,0.0,0.0,0.0,0.007504915783575617,0.0038397243543875246,-0.032812189937493394,0.0,0.0,0.0,0.0,0.0,0.0,0.0,0.0,0.0,-0.222610955,-0.14121576,9.9439431,0.0,0.0,0.0,0.0,0.0,0.0,0.0,0.0,0.0
1704780519939514732,8963,1704780519939303349,imu_link,0.0031096280859878173,-0.0060447865991531905,-0.8330842556729068,-0.5531043425232319,0.0,0.0,0.0,0.0,0.0,0.0,0.0,0.0,0.0,0.006632251157578452,0.010995574287564275,0.0027925268031909274,0.0,0.0,0.0,0.0,0.0,0.0,0.0,0.0,0.0,-0.26870221,0.21476563499999998,10.090062184999999,0.0,0.0,0.0,0.0,0.0,0.0,0.0,0.0,0.0
1704780520040861886,8964,1704780520040394525,imu_link,0.003787177806207376,-0.005970872824685282,-0.8330832771842721,-0.553102394894371,0.0,0.0,0.0,0.0,0.0,0.0,0.0,0.0,0.0,-0.016057029118347832,0.014137166941154071,-0.012042771838760872,0.0,0.0,0.0,0.0,0.0,0.0,0.0,0.0,0.0,-0.27654753,0.20201698999999998,9.695834855,0.0,0.0,0.0,0.0,0.0,0.0,0.0,0.0,0.0
1704780520140732876,8965,1704780520140248956,imu_link,0.005111116080298459,-0.005393254234178386,-0.8324566505692657,-0.5540403543282555,0.0,0.0,0.0,0.0,0.0,0.0,0.0,0.0,0.0,-0.0158824961931484,-0.003490658503988659,-0.019896753472735354,0.0,0.0,0.0,0.0,0.0,0.0,0.0,0.0,0.0,-0.29518016499999994,-0.15396440499999997,9.797824015,0.0,0.0,0.0,0.0,0.0,0.0,0.0,0.0,0.0
1704780520240141864,8966,1704780520239489153,imu_link,0.0048422867294356355,-0.004693704677380479,-0.832221055979216,-0.5544029539788458,0.0,0.0,0.0,0.0,0.0,0.0,0.0,0.0,0.0,0.0019198621771937623,-0.004537856055185257,-0.0013962634015954637,0.0,0.0,0.0,0.0,0.0,0.0,0.0,0.0,0.0,-0.16475172,-0.004903325,10.171457379999998,0.0,0.0,0.0,0.0,0.0,0.0,0.0,0.0,0.0
1704780520339745314,8967,1704780520339258909,imu_link,0.005036136974880087,-0.005347104700193166,-0.832215443299793,-0.5544037353130158,0.0,0.0,0.0,0.0,0.0,0.0,0.0,0.0,0.0,0.009948376736367677,0.01361356816555577,-0.00017453292519943296,0.0,0.0,0.0,0.0,0.0,0.0,0.0,0.0,0.0,-0.16082906,0.02157463,9.449687939999999,0.0,0.0,0.0,0.0,0.0,0.0,0.0,0.0,0.0
1704780520440399537,8968,1704780520440015254,imu_link,0.0042860676956344886,-0.0060008357373522985,-0.8322118375812897,-0.5544087634442071,0.0,0.0,0.0,0.0,0.0,0.0,0.0,0.0,0.0,0.03089232776029963,-0.006981317007977318,0.0,0.0,0.0,0.0,0.0,0.0,0.0,0.0,0.0,0.0,-0.14906107999999998,-0.06080122999999999,10.123404794999999,0.0,0.0,0.0,0.0,0.0,0.0,0.0,0.0,0.0
1704780520540271311,8969,1704780520539905803,imu_link,0.003752788733199812,-0.007429605052380842,-0.8321024018095862,-0.5545595643825898,0.0,0.0,0.0,0.0,0.0,0.0,0.0,0.0,0.0,0.027925268031909273,0.0031415926535897933,-0.003316125578789226,0.0,0.0,0.0,0.0,0.0,0.0,0.0,0.0,0.0,-0.142196425,0.28243152,9.780172044999999,0.0,0.0,0.0,0.0,0.0,0.0,0.0,0.0,0.0
1704780520639509298,8970,1704780520639101102,imu_link,0.003461662326970573,-0.006921720178860174,-0.8320600803949356,-0.5546315256969017,0.0,0.0,0.0,0.0,0.0,0.0,0.0,0.0,0.0,-0.024260076602721177,-0.015358897417550098,0.0010471975511965976,0.0,0.0,0.0,0.0,0.0,0.0,0.0,0.0,0.0,-0.24320491999999996,0.39814998999999995,10.11850147,0.0,0.0,0.0,0.0,0.0,0.0,0.0,0.0,0.0
1704780520739515704,8971,1704780520739106127,imu_link,0.0034867031370128605,-0.005468971782274668,-0.8321699733192319,-0.5544827037471485,0.0,0.0,0.0,0.0,0.0,0.0,0.0,0.0,0.0,-0.02076941809873252,-0.017976891295541593,0.004363323129985824,0.0,0.0,0.0,0.0,0.0,0.0,0.0,0.0,0.0,-0.144157755,-0.20005566,9.735061455,0.0,0.0,0.0,0.0,0.0,0.0,0.0,0.0,0.0
1704780520839794546,8972,1704780520839342718,imu_link,0.0027622214344730413,-0.004984151052782315,-0.8323687215696296,-0.5541929625352261,0.0,0.0,0.0,0.0,0.0,0.0,0.0,0.0,0.0,0.016231562043547268,-0.012391837689159739,0.005934119456780722,0.0,0.0,0.0,0.0,0.0,0.0,0.0,0.0,0.0,0.11277647499999999,-0.020593965,9.84979926,0.0,0.0,0.0,0.0,0.0,0.0,0.0,0.0,0.0
1704780520939543737,8973,1704780520939169238,imu_link,0.002931011663007426,-0.003943327099086918,-0.8323752825080348,-0.5541906246154746,0.0,0.0,0.0,0.0,0.0,0.0,0.0,0.0,0.0,-0.03316125578789226,-0.00471238898038469,0.0020943951023931952,0.0,0.0,0.0,0.0,0.0,0.0,0.0,0.0,0.0,0.236340265,0.40305331499999997,9.649743599999999,0.0,0.0,0.0,0.0,0.0,0.0,0.0,0.0,0.0
1704780521040574446,8974,1704780521040145229,imu_link,0.0033417247895143804,-0.001909142170273054,-0.8325291525094005,-0.5539678675461097,0.0,0.0,0.0,0.0,0.0,0.0,0.0,0.0,0.0,-0.0158824961931484,-0.023561944901923447,0.002967059728390361,0.0,0.0,0.0,0.0,0.0,0.0,0.0,0.0,0.0,0.257914895,-0.540346415,9.86352857,0.0,0.0,0.0,0.0,0.0,0.0,0.0,0.0,0.0
1704780521140270280,8975,1704780521139811005,imu_link,0.002276804362290921,-0.00193427599292667,-0.832530472338397,-0.5539711972352755,0.0,0.0,0.0,0.0,0.0,0.0,0.0,0.0,0.0,0.03700098014227979,-0.006806784082777885,0.0024434609527920616,0.0,0.0,0.0,0.0,0.0,0.0,0.0,0.0,0.0,0.55701772,-0.155925735,9.56540641,0.0,0.0,0.0,0.0,0.0,0.0,0.0,0.0,0.0
1704780521239200156,8976,1704780521238748769,imu_link,0.001842618984005281,-0.002587500272678943,-0.8327220070001123,-0.5536821910223625,0.0,0.0,0.0,0.0,0.0,0.0,0.0,0.0,0.0,-0.017976891295541593,0.005585053606381855,0.007330382858376183,0.0,0.0,0.0,0.0,0.0,0.0,0.0,0.0,0.0,0.44620257499999993,0.648219565,9.98513103,0.0,0.0,0.0,0.0,0.0,0.0,0.0,0.0,0.0
1704780521339956874,8977,1704780521339467922,imu_link,0.0032933033794205198,-0.001351360742475148,-0.832724145092794,-0.5536766440409694,0.0,0.0,0.0,0.0,0.0,0.0,0.0,0.0,0.0,-0.04345869837465881,0.005235987755982988,-0.0054105206811824215,0.0,0.0,0.0,0.0,0.0,0.0,0.0,0.0,0.0,0.38638200999999994,-0.322638785,9.88706453,0.0,0.0,0.0,0.0,0.0,0.0,0.0,0.0,0.0
1704780521440037880,8978,1704780521439497749,imu_link,0.0036310470161893334,-0.0005286692375511986,-0.8326287089308276,-0.5538194372451969,0.0,0.0,0.0,0.0,0.0,0.0,0.0,0.0,0.0,0.0015707963267948967,-0.003490658503988659,-0.00017453292519943296,0.0,0.0,0.0,0.0,0.0,0.0,0.0,0.0,0.0,0.34323275000000003,-0.263798885,9.838031280000001,0.0,0.0,0.0,0.0,0.0,0.0,0.0,0.0,0.0
1704780521539589191,8979,1704780521539195358,imu_link,0.004091006339005057,-0.000625001341166342,-0.8326279262625673,-0.5538173069236412,0.0,0.0,0.0,0.0,0.0,0.0,0.0,0.0,0.0,-0.01291543646475804,0.0036651914291880917,-0.00017453292519943296,0.0,0.0,0.0,0.0,0.0,0.0,0.0,0.0,0.0,-0.05491724,0.31479346499999994,9.6889702,0.0,0.0,0.0,0.0,0.0,0.0,0.0,0.0,0.0
1704780521639510843,8980,1704780521639137311,imu_link,0.003725722307764766,0.0015045114324290887,-0.8326288751049906,-0.5538167673337754,0.0,0.0,0.0,0.0,0.0,0.0,0.0,0.0,0.0,-0.01658062789394613,-0.03665191429188092,0.0020943951023931952,0.0,0.0,0.0,0.0,0.0,0.0,0.0,0.0,0.0,0.134351105,-0.371672035,9.821359975,0.0,0.0,0.0,0.0,0.0,0.0,0.0,0.0,0.0
1704780521739222832,8981,1704780521738817262,imu_link,0.003726616589564916,0.0005612318673360293,-0.8327260714153222,-0.5536723646099644,0.0,0.0,0.0,0.0,0.0,0.0,0.0,0.0,0.0,0.0466002910282486,0.026703537555513242,0.0031415926535897933,0.0,0.0,0.0,0.0,0.0,0.0,0.0,0.0,0.0,0.061781894999999996,-0.507003805,9.742906775,0.0,0.0,0.0,0.0,0.0,0.0,0.0,0.0,0.0
1704780521839687252,8982,1704780521839235887,imu_link,0.0020095628598374086,-0.0006028022051047021,-0.8326786001963588,-0.5537526045642099,0.0,0.0,0.0,0.0,0.0,0.0,0.0,0.0,0.0,0.02757620218151041,-0.026878070480712675,-0.0012217304763960308,0.0,0.0,0.0,0.0,0.0,0.0,0.0,0.0,0.0,0.1176798,0.4903325,9.5516771,0.0,0.0,0.0,0.0,0.0,0.0,0.0,0.0,0.0
1704780521939773359,8983,1704780521939277105,imu_link,0.003680399165898033,-0.0017152205989879404,-0.8325292566585117,-0.5539661988676767,0.0,0.0,0.0,0.0,0.0,0.0,0.0,0.0,0.0,0.0015707963267948967,0.055326937288220246,-0.009948376736367677,0.0,0.0,0.0,0.0,0.0,0.0,0.0,0.0,0.0,-0.167693715,-0.25301156999999996,10.201857995,0.0,0.0,0.0,0.0,0.0,0.0,0.0,0.0,0.0
1704780522039522422,8984,1704780522039305307,imu_link,0.003872649275640534,-0.0014276557020449917,-0.8320943589723175,-0.5546187358476384,0.0,0.0,0.0,0.0,0.0,0.0,0.0,0.0,0.0,-0.0017453292519943296,-0.0020943951023931952,-0.017278759594743863,0.0,0.0,0.0,0.0,0.0,0.0,0.0,0.0,0.0,-0.02941995,0.057859234999999995,9.454591265,0.0,0.0,0.0,0.0,0.0,0.0,0.0,0.0,0.0
1704780522139726648,8985,1704780522139483804,imu_link,0.0060976692254213994,-0.002182552222007545,-0.8316515144376423,-0.5552601313162971,0.0,0.0,0.0,0.0,0.0,0.0,0.0,0.0,0.0,-0.02234021442552742,0.04031710572106901,-0.014486232791552934,0.0,0.0,0.0,0.0,0.0,0.0,0.0,0.0,0.0,-0.35009740500000003,0.1372931,10.17734137,0.0,0.0,0.0,0.0,0.0,0.0,0.0,0.0,0.0
1704780522239041974,8986,1704780522238771690,imu_link,0.006073618034391548,-0.0011207771773401659,-0.8313644816895426,-0.5556932189684962,0.0,0.0,0.0,0.0,0.0,0.0,0.0,0.0,0.0,-0.003490658503988659,-0.026703537555513242,-0.005759586531581288,0.0,0.0,0.0,0.0,0.0,0.0,0.0,0.0,0.0,-0.197113665,-0.277528195,9.71446749,0.0,0.0,0.0,0.0,0.0,0.0,0.0,0.0,0.0
1704780522338709869,8987,1704780522338474199,imu_link,0.006266316702441084,-0.0014620461375111431,-0.8311690045624955,-0.5559826270223439,0.0,0.0,0.0,0.0,0.0,0.0,0.0,0.0,0.0,0.02129301687433082,0.01832595714594046,-0.006632251157578452,0.0,0.0,0.0,0.0,0.0,0.0,0.0,0.0,0.0,-0.21574629999999997,0.03138128,9.74388744,0.0,0.0,0.0,0.0,0.0,0.0,0.0,0.0,0.0
1704780522439957619,8988,1704780522439512619,imu_link,0.005829825311253962,-0.001801221512958363,-0.8310717717976983,-0.5561317099922788,0.0,0.0,0.0,0.0,0.0,0.0,0.0,0.0,0.0,0.016406094968746697,-0.02565634000431664,0.00034906585039886593,0.0,0.0,0.0,0.0,0.0,0.0,0.0,0.0,0.0,-0.114737805,-0.09414383999999999,10.00670566,0.0,0.0,0.0,0.0,0.0,0.0,0.0,0.0,0.0
1704780522539546768,8989,1704780522539262863,imu_link,0.005128183315344443,-0.0017511413229233835,-0.8311219572729913,-0.5560637799557379,0.0,0.0,0.0,0.0,0.0,0.0,0.0,0.0,0.0,0.022863813201125717,0.014835298641951801,0.002617993877991494,0.0,0.0,0.0,0.0,0.0,0.0,0.0,0.0,0.0,-0.036284605,-0.048052584999999995,9.73996478,0.0,0.0,0.0,0.0,0.0,0.0,0.0,0.0,0.0
1704780522638608891,8990,1704780522638194066,imu_link,0.0048615517338782025,-0.0019927309229103548,-0.8311216211557912,-0.5560658640714935,0.0,0.0,0.0,0.0,0.0,0.0,0.0,0.0,0.0,0.0041887902047863905,-0.024260076602721177,0.00034906585039886593,0.0,0.0,0.0,0.0,0.0,0.0,0.0,0.0,0.0,-0.196133,0.016671304999999997,9.867451229999999,0.0,0.0,0.0,0.0,0.0,0.0,0.0,0.0,0.0
1704780522739071553,8991,1704780522738693437,imu_link,0.00437837440940688,-0.0014594582686083021,-0.8311242669368204,-0.5560675792813553,0.0,0.0,0.0,0.0,0.0,0.0,0.0,0.0,0.0,0.0027925268031909274,0.003490658503988659,-0.0019198621771937623,0.0,0.0,0.0,0.0,0.0,0.0,0.0,0.0,0.0,-0.057859234999999995,-0.048052584999999995,9.76546207,0.0,0.0,0.0,0.0,0.0,0.0,0.0,0.0,0.0
1704780522839183871,8992,1704780522838873281,imu_link,0.004959538074731629,-0.0012188232645287502,-0.8310753881668997,-0.5561363291812289,0.0,0.0,0.0,0.0,0.0,0.0,0.0,0.0,0.0,-0.01832595714594046,0.007330382858376183,0.0017453292519943296,0.0,0.0,0.0,0.0,0.0,0.0,0.0,0.0,0.0,0.03138128,0.134351105,9.61443966,0.0,0.0,0.0,0.0,0.0,0.0,0.0,0.0,0.0
1704780522939511240,8993,1704780522939094736,imu_link,0.0058320145169991925,-0.0005426566687808092,-0.8310753079308159,-0.5561290548767551,0.0,0.0,0.0,0.0,0.0,0.0,0.0,0.0,0.0,-0.01780235837034216,-0.005934119456780722,-0.00645771823237902,0.0,0.0,0.0,0.0,0.0,0.0,0.0,0.0,0.0,-0.195152335,-0.10198916,10.04789359,0.0,0.0,0.0,0.0,0.0,0.0,0.0,0.0,0.0
1704780523039556639,8994,1704780523039157998,imu_link,0.0055191266189693776,0.0004003765391535482,-0.8309314880413178,-0.5563472307124679,0.0,0.0,0.0,0.0,0.0,0.0,0.0,0.0,0.0,-0.01308996938995747,-0.006981317007977318,-0.0031415926535897933,0.0,0.0,0.0,0.0,0.0,0.0,0.0,0.0,0.0,-0.09316317499999999,-0.106892485,9.700738179999998,0.0,0.0,0.0,0.0,0.0,0.0,0.0,0.0,0.0
1704780523139321671,8995,1704780523138921883,imu_link,0.005979464444764728,0.0006167589133901125,-0.8308822655185032,-0.5564157855958404,0.0,0.0,0.0,0.0,0.0,0.0,0.0,0.0,0.0,-0.0027925268031909274,0.0054105206811824215,-0.0005235987755982988,0.0,0.0,0.0,0.0,0.0,0.0,0.0,0.0,0.0,-0.163771055,-0.134351105,10.02828029,0.0,0.0,0.0,0.0,0.0,0.0,0.0,0.0,0.0
1704780523239267808,8996,1704780523238874055,imu_link,0.005930271542101687,0.000229090638609561,-0.8308335290476262,-0.5564893767244651,0.0,0.0,0.0,0.0,0.0,0.0,0.0,0.0,0.0,0.013439035240356337,-0.0005235987755982988,-0.0031415926535897933,0.0,0.0,0.0,0.0,0.0,0.0,0.0,0.0,0.0,-0.07256921,-0.21084297499999996,9.63601429,0.0,0.0,0.0,0.0,0.0,0.0,0.0,0.0,0.0
1704780523338943313,8997,1704780523338676956,imu_link,0.005007962865544507,-0.0008355896786479177,-0.8306392256533367,-0.5567878401185246,0.0,0.0,0.0,0.0,0.0,0.0,0.0,0.0,0.0,0.03682644721708035,-0.005585053606381855,-0.009599310885968814,0.0,0.0,0.0,0.0,0.0,0.0,0.0,0.0,0.0,-0.157887065,-0.234378935,9.9635564,0.0,0.0,0.0,0.0,0.0,0.0,0.0,0.0,0.0
1704780523439499427,8998,1704780523438984219,imu_link,0.0035767951784662047,-0.0015611922219543055,-0.8301533886337416,-0.557521408158479,0.0,0.0,0.0,0.0,0.0,0.0,0.0,0.0,0.0,0.008552113334772213,-0.01972222054753592,-0.023038346126325153,0.0,0.0,0.0,0.0,0.0,0.0,0.0,0.0,0.0,-0.11375713999999998,0.355981395,10.06946822,0.0,0.0,0.0,0.0,0.0,0.0,0.0,0.0,0.0
1704780523539673350,8999,1704780523539204224,imu_link,0.00391616667746332,-0.0010585232713585056,-0.829521206180216,-0.5584604835298177,0.0,0.0,0.0,0.0,0.0,0.0,0.0,0.0,0.0,-0.024085543677521744,0.012217304763960306,-0.019896753472735354,0.0,0.0,0.0,0.0,0.0,0.0,0.0,0.0,0.0,0.006864655,-0.016671304999999997,9.617381654999999,0.0,0.0,0.0,0.0,0.0,0.0,0.0,0.0,0.0
1704780523638593130,9000,1704780523638142142,imu_link,0.004206492297087396,-0.0009417630603300602,-0.8291309830411671,-0.5590377728437324,0.0,0.0,0.0,0.0,0.0,0.0,0.0,0.0,0.0,-0.0012217304763960308,-0.0022689280275926286,-0.01832595714594046,0.0,0.0,0.0,0.0,0.0,0.0,0.0,0.0,0.0,0.15004174499999998,-0.371672035,9.76153941,0.0,0.0,0.0,0.0,0.0,0.0,0.0,0.0,0.0
1704780523738818820,9001,1704780523738432023,imu_link,0.004684077293186458,-0.0017967144199514127,-0.8284931244419889,-0.5599767620085284,0.0,0.0,0.0,0.0,0.0,0.0,0.0,0.0,0.0,0.01780235837034216,0.021118483949131385,-0.017278759594743863,0.0,0.0,0.0,0.0,0.0,0.0,0.0,0.0,0.0,-0.15886772999999998,0.09022118,9.96159507,0.0,0.0,0.0,0.0,0.0,0.0,0.0,0.0,0.0
1704780523839029575,9002,1704780523838631160,imu_link,0.004100787905219442,-0.0020368301582685882,-0.8282489119472154,-0.5603416589186605,0.0,0.0,0.0,0.0,0.0,0.0,0.0,0.0,0.0,0.008028514559173916,-0.007504915783575617,-0.00890117918517108,0.0,0.0,0.0,0.0,0.0,0.0,0.0,0.0,0.0,-0.11375713999999998,-0.09414383999999999,9.80665,0.0,0.0,0.0,0.0,0.0,0.0,0.0,0.0,0.0
1704780523939190441,9003,1704780523938729975,imu_link,0.004930833949482515,-0.004079474146454359,-0.8277964456539865,-0.5609920581700581,0.0,0.0,0.0,0.0,0.0,0.0,0.0,0.0,0.0,0.021467549799530253,0.04520402762665313,-0.016406094968746697,0.0,0.0,0.0,0.0,0.0,0.0,0.0,0.0,0.0,-0.24712757999999999,0.10395048999999999,10.010628319999999,0.0,0.0,0.0,0.0,0.0,0.0,0.0,0.0,0.0
1704780524038300231,9004,1704780524037925646,imu_link,0.0047839222800212175,-0.003984486419380156,-0.827454588648731,-0.5614981225968184,0.0,0.0,0.0,0.0,0.0,0.0,0.0,0.0,0.0,-0.01291543646475804,-0.02391101075232232,-0.007504915783575617,0.0,0.0,0.0,0.0,0.0,0.0,0.0,0.0,0.0,-0.195152335,0.310870805,9.827243965,0.0,0.0,0.0,0.0,0.0,0.0,0.0,0.0,0.0
1704780524138195631,9005,1704780524137751936,imu_link,0.005414795731738454,-0.0036764388426912984,-0.8273080099694419,-0.5617104417981043,0.0,0.0,0.0,0.0,0.0,0.0,0.0,0.0,0.0,0.0008726646259971648,0.0008726646259971648,-0.005759586531581288,0.0,0.0,0.0,0.0,0.0,0.0,0.0,0.0,0.0,-0.25301156999999996,-0.41776328999999995,9.923349135,0.0,0.0,0.0,0.0,0.0,0.0,0.0,0.0,0.0
