%time,field.header.seq,field.header.stamp,field.header.frame_id,field.orientation.x,field.orientation.y,field.orientation.z,field.orientation.w,field.orientation_covariance0,field.orientation_covariance1,field.orientation_covariance2,field.orientation_covariance3,field.orientation_covariance4,field.orientation_covariance5,field.orientation_covariance6,field.orientation_covariance7,field.orientation_covariance8,field.angular_velocity.x,field.angular_velocity.y,field.angular_velocity.z,field.angular_velocity_covariance0,field.angular_velocity_covariance1,field.angular_velocity_covariance2,field.angular_velocity_covariance3,field.angular_velocity_covariance4,field.angular_velocity_covariance5,field.angular_velocity_covariance6,field.angular_velocity_covariance7,field.angular_velocity_covariance8,field.linear_acceleration.x,field.linear_acceleration.y,field.linear_acceleration.z,field.linear_acceleration_covariance0,field.linear_acceleration_covariance1,field.linear_acceleration_covariance2,field.linear_acceleration_covariance3,field.linear_acceleration_covariance4,field.linear_acceleration_covariance5,field.linear_acceleration_covariance6,field.linear_acceleration_covariance7,field.linear_acceleration_covariance8
1704779910031900780,2862,1704779910031667715,imu_link,0.0021190335402873194,0.0013585705168995604,-0.017891553697677903,0.9998367648217827,0.0,0.0,0.0,0.0,0.0,0.0,0.0,0.0,0.0,-0.0,0.00017453292519943296,0.00017453292519943296,0.0,0.0,0.0,0.0,0.0,0.0,0.0,0.0,0.0,-0.026477955,0.048052584999999995,9.821359975,0.0,0.0,0.0,0.0,0.0,0.0,0.0,0.0,0.0
1704779910131572139,2863,1704779910131295886,imu_link,0.0020317814550377352,0.0013601318418146355,-0.017891435072099792,0.9998369459349623,0.0,0.0,0.0,0.0,0.0,0.0,0.0,0.0,0.0,-0.0,-0.0005235987755982988,-0.0005235987755982988,0.0,0.0,0.0,0.0,0.0,0.0,0.0,0.0,0.0,-0.022555295,0.032361944999999996,9.819398645,0.0,0.0,0.0,0.0,0.0,0.0,0.0,0.0,0.0
1704779910231182498,2864,1704779910231023998,imu_link,0.0021190335402873194,0.0013585705168995604,-0.017891553697677903,0.9998367648217827,0.0,0.0,0.0,0.0,0.0,0.0,0.0,0.0,0.0,0.0008726646259971648,0.0,0.0005235987755982988,0.0,0.0,0.0,0.0,0.0,0.0,0.0,0.0,0.0,-0.02157463,0.03138128,9.834108619999999,0.0,0.0,0.0,0.0,0.0,0.0,0.0,0.0,0.0
1704779910331784900,2865,1704779910331439620,imu_link,0.0021190335402873194,0.0013585705168995604,-0.017891553697677903,0.9998367648217827,0.0,0.0,0.0,0.0,0.0,0.0,0.0,0.0,0.0,-0.00034906585039886593,-0.00034906585039886593,-0.00034906585039886593,0.0,0.0,0.0,0.0,0.0,0.0,0.0,0.0,0.0,-0.03530394,0.0392266,9.842934605,0.0,0.0,0.0,0.0,0.0,0.0,0.0,0.0,0.0
1704779910431870702,2866,1704779910431555798,imu_link,0.002117472710356676,0.0012713183090190452,-0.017891373068393904,0.9998368861113326,0.0,0.0,0.0,0.0,0.0,0.0,0.0,0.0,0.0,0.00034906585039886593,0.00034906585039886593,-0.0017453292519943296,0.0,0.0,0.0,0.0,0.0,0.0,0.0,0.0,0.0,-0.006864655,0.04412992499999999,9.81841798,0.0,0.0,0.0,0.0,0.0,0.0,0.0,0.0,0.0
1704779910531369208,2867,1704779910531118253,imu_link,0.0021190335402873194,0.0013585705168995604,-0.017891553697677903,0.9998367648217827,0.0,0.0,0.0,0.0,0.0,0.0,0.0,0.0,0.0,-0.0,-0.00034906585039886593,0.00017453292519943296,0.0,0.0,0.0,0.0,0.0,0.0,0.0,0.0,0.0,-0.05099458,0.033342609999999995,9.815475984999999,0.0,0.0,0.0,0.0,0.0,0.0,0.0,0.0,0.0
1704779910630973915,2868,1704779910630734964,imu_link,0.002117472710356676,0.0012713183090190452,-0.017891373068393904,0.9998368861113326,0.0,0.0,0.0,0.0,0.0,0.0,0.0,0.0,0.0,0.0005235987755982988,-0.0005235987755982988,0.0006981317007977319,0.0,0.0,0.0,0.0,0.0,0.0,0.0,0.0,0.0,0.0,0.038245934999999995,9.823321305,0.0,0.0,0.0,0.0,0.0,0.0,0.0,0.0,0.0
1704779910730842696,2869,1704779910730264928,imu_link,0.002117472710356676,0.0012713183090190452,-0.017891373068393904,0.9998368861113326,0.0,0.0,0.0,0.0,0.0,0.0,0.0,0.0,0.0,0.00017453292519943296,0.00034906585039886593,-0.00034906585039886593,0.0,0.0,0.0,0.0,0.0,0.0,0.0,0.0,0.0,-0.04314926,0.04511059,9.84391527,0.0,0.0,0.0,0.0,0.0,0.0,0.0,0.0,0.0
1704779910831320621,2870,1704779910831133048,imu_link,0.002117472710356676,0.0012713183090190452,-0.017891373068393904,0.9998368861113326,0.0,0.0,0.0,0.0,0.0,0.0,0.0,0.0,0.0,-0.0,-0.0005235987755982988,0.00017453292519943296,0.0,0.0,0.0,0.0,0.0,0.0,0.0,0.0,0.0,-0.01765197,0.032361944999999996,9.826263299999999,0.0,0.0,0.0,0.0,0.0,0.0,0.0,0.0,0.0
1704779910932602332,2871,1704779910932362731,imu_link,0.002117472710356676,0.0012713183090190452,-0.017891373068393904,0.9998368861113326,0.0,0.0,0.0,0.0,0.0,0.0,0.0,0.0,0.0,-0.00034906585039886593,0.0008726646259971648,-0.0006981317007977319,0.0,0.0,0.0,0.0,0.0,0.0,0.0,0.0,0.0,-0.036284605,0.048052584999999995,9.81645665,0.0,0.0,0.0,0.0,0.0,0.0,0.0,0.0,0.0
1704779911031146574,2872,1704779911030878691,imu_link,0.0020302206145285428,0.001272879618503498,-0.01789126205699576,0.9998370670883037,0.0,0.0,0.0,0.0,0.0,0.0,0.0,0.0,0.0,-0.0008726646259971648,-0.0012217304763960308,0.00034906585039886593,0.0,0.0,0.0,0.0,0.0,0.0,0.0,0.0,0.0,-0.02157463,0.037265269999999996,9.804688669999999,0.0,0.0,0.0,0.0,0.0,0.0,0.0,0.0,0.0
1704779911130585512,2873,1704779911130388878,imu_link,0.0020302206145285428,0.001272879618503498,-0.01789126205699576,0.9998370670883037,0.0,0.0,0.0,0.0,0.0,0.0,0.0,0.0,0.0,-0.0012217304763960308,0.0005235987755982988,0.00034906585039886593,0.0,0.0,0.0,0.0,0.0,0.0,0.0,0.0,0.0,-0.03138128,0.01569064,9.779191379999999,0.0,0.0,0.0,0.0,0.0,0.0,0.0,0.0,0.0
1704779911231532412,2874,1704779911231204878,imu_link,0.0020302206145285428,0.001272879618503498,-0.01789126205699576,0.9998370670883037,0.0,0.0,0.0,0.0,0.0,0.0,0.0,0.0,0.0,-0.0013962634015954637,-0.0012217304763960308,0.0,0.0,0.0,0.0,0.0,0.0,0.0,0.0,0.0,0.0,-0.03530394,0.06472388999999999,9.835089284999999,0.0,0.0,0.0,0.0,0.0,0.0,0.0,0.0,0.0
1704779911331773824,2875,1704779911330974580,imu_link,0.0019429683868430706,0.001274440920377253,-0.017891150909199936,0.9998372404513308,0.0,0.0,0.0,0.0,0.0,0.0,0.0,0.0,0.0,-0.0013962634015954637,0.0008726646259971648,-0.0005235987755982988,0.0,0.0,0.0,0.0,0.0,0.0,0.0,0.0,0.0,-0.006864655,0.01569064,9.85764458,0.0,0.0,0.0,0.0,0.0,0.0,0.0,0.0,0.0
1704779911430907248,2876,1704779911430619729,imu_link,0.0020302206145285428,0.001272879618503498,-0.01789126205699576,0.9998370670883037,0.0,0.0,0.0,0.0,0.0,0.0,0.0,0.0,0.0,0.004886921905584123,0.0010471975511965976,0.00034906585039886593,0.0,0.0,0.0,0.0,0.0,0.0,0.0,0.0,0.0,-0.04314926,0.04412992499999999,9.835089284999999,0.0,0.0,0.0,0.0,0.0,0.0,0.0,0.0,0.0
1704779911530311743,2877,1704779911529973334,imu_link,0.002117472710356676,0.0012713183090190452,-0.017891373068393904,0.9998368861113326,0.0,0.0,0.0,0.0,0.0,0.0,0.0,0.0,0.0,-0.00017453292519943296,-0.0005235987755982988,0.00017453292519943296,0.0,0.0,0.0,0.0,0.0,0.0,0.0,0.0,0.0,-0.01765197,0.08237586,9.907658495,0.0,0.0,0.0,0.0,0.0,0.0,0.0,0.0,0.0
1704779911631049939,2878,1704779911630860909,imu_link,0.002117472710356676,0.0012713183090190452,-0.017891373068393904,0.9998368861113326,0.0,0.0,0.0,0.0,0.0,0.0,0.0,0.0,0.0,-0.0006981317007977319,-0.00017453292519943296,-0.0,0.0,0.0,0.0,0.0,0.0,0.0,0.0,0.0,0.0,-0.032361944999999996,0.004903325,9.801746675,0.0,0.0,0.0,0.0,0.0,0.0,0.0,0.0,0.0
1704779911730633353,2879,1704779911730418710,imu_link,0.002117472710356676,0.0012713183090190452,-0.017891373068393904,0.9998368861113326,0.0,0.0,0.0,0.0,0.0,0.0,0.0,0.0,0.0,0.0005235987755982988,-0.00017453292519943296,0.0006981317007977319,0.0,0.0,0.0,0.0,0.0,0.0,0.0,0.0,0.0,-0.01765197,0.06080122999999999,9.76546207,0.0,0.0,0.0,0.0,0.0,0.0,0.0,0.0,0.0
1704779911830955293,2880,1704779911830395199,imu_link,0.002117472710356676,0.0012713183090190452,-0.017891373068393904,0.9998368861113326,0.0,0.0,0.0,0.0,0.0,0.0,0.0,0.0,0.0,-0.0005235987755982988,0.00034906585039886593,-0.00017453292519943296,0.0,0.0,0.0,0.0,0.0,0.0,0.0,0.0,0.0,-0.032361944999999996,0.030400614999999995,9.83018596,0.0,0.0,0.0,0.0,0.0,0.0,0.0,0.0,0.0
1704779911929974728,2881,1704779911929688552,imu_link,0.002117472710356676,0.0012713183090190452,-0.017891373068393904,0.9998368861113326,0.0,0.0,0.0,0.0,0.0,0.0,0.0,0.0,0.0,0.0010471975511965976,-0.00017453292519943296,-0.00017453292519943296,0.0,0.0,0.0,0.0,0.0,0.0,0.0,0.0,0.0,-0.0196133,0.034323275,9.86352857,0.0,0.0,0.0,0.0,0.0,0.0,0.0,0.0,0.0
1704779912031178005,2882,1704779912030638838,imu_link,0.002117472710356676,0.0012713183090190452,-0.017891373068393904,0.9998368861113326,0.0,0.0,0.0,0.0,0.0,0.0,0.0,0.0,0.0,-0.0005235987755982988,0.00034906585039886593,0.0006981317007977319,0.0,0.0,0.0,0.0,0.0,0.0,0.0,0.0,0.0,-0.030400614999999995,0.05687856999999999,9.826263299999999,0.0,0.0,0.0,0.0,0.0,0.0,0.0,0.0,0.0
1704779912130805254,2883,1704779912130390814,imu_link,0.002117472710356676,0.0012713183090190452,-0.017891373068393904,0.9998368861113326,0.0,0.0,0.0,0.0,0.0,0.0,0.0,0.0,0.0,-0.00017453292519943296,-0.0005235987755982988,0.00034906585039886593,0.0,0.0,0.0,0.0,0.0,0.0,0.0,0.0,0.0,-0.0196133,0.0196133,9.797824015,0.0,0.0,0.0,0.0,0.0,0.0,0.0,0.0,0.0
1704779912232607915,2884,1704779912231183246,imu_link,0.002117472710356676,0.0012713183090190452,-0.017891373068393904,0.9998368861113326,0.0,0.0,0.0,0.0,0.0,0.0,0.0,0.0,0.0,0.0005235987755982988,0.00034906585039886593,0.00034906585039886593,0.0,0.0,0.0,0.0,0.0,0.0,0.0,0.0,0.0,-0.02941995,0.05491724,9.82037931,0.0,0.0,0.0,0.0,0.0,0.0,0.0,0.0,0.0
1704779912330955691,2885,1704779912330569538,imu_link,0.002117472710356676,0.0012713183090190452,-0.017891373068393904,0.9998368861113326,0.0,0.0,0.0,0.0,0.0,0.0,0.0,0.0,0.0,-0.00034906585039886593,-0.0005235987755982988,0.00034906585039886593,0.0,0.0,0.0,0.0,0.0,0.0,0.0,0.0,0.0,-0.026477955,0.030400614999999995,9.83999261,0.0,0.0,0.0,0.0,0.0,0.0,0.0,0.0,0.0
1704779912430875882,2886,1704779912430433256,imu_link,0.002117472710356676,0.0012713183090190452,-0.017891373068393904,0.9998368861113326,0.0,0.0,0.0,0.0,0.0,0.0,0.0,0.0,0.0,0.0,0.0005235987755982988,0.00017453292519943296,0.0,0.0,0.0,0.0,0.0,0.0,0.0,0.0,0.0,-0.02745862,0.038245934999999995,9.832147289999998,0.0,0.0,0.0,0.0,0.0,0.0,0.0,0.0,0.0
1704779912530396038,2887,1704779912529930833,imu_link,0.0021173617655338857,0.0012715030773881426,-0.01780412603395003,0.9998384435273757,0.0,0.0,0.0,0.0,0.0,0.0,0.0,0.0,0.0,-0.0006981317007977319,0.00017453292519943296,0.0,0.0,0.0,0.0,0.0,0.0,0.0,0.0,0.0,0.0,-0.026477955,0.047071919999999996,9.812533989999999,0.0,0.0,0.0,0.0,0.0,0.0,0.0,0.0,0.0
1704779912631368785,2888,1704779912631007993,imu_link,0.0021173617655338857,0.0012715030773881426,-0.01780412603395003,0.9998384435273757,0.0,0.0,0.0,0.0,0.0,0.0,0.0,0.0,0.0,0.00017453292519943296,0.0005235987755982988,-0.0,0.0,0.0,0.0,0.0,0.0,0.0,0.0,0.0,0.0,-0.02549729,0.026477955,9.81841798,0.0,0.0,0.0,0.0,0.0,0.0,0.0,0.0,0.0
1704779912730827601,2889,1704779912730167247,imu_link,0.0021173617655338857,0.0012715030773881426,-0.01780412603395003,0.9998384435273757,0.0,0.0,0.0,0.0,0.0,0.0,0.0,0.0,0.0,0.00017453292519943296,-0.00034906585039886593,-0.00017453292519943296,0.0,0.0,0.0,0.0,0.0,0.0,0.0,0.0,0.0,-0.023535959999999998,0.055897905,9.83018596,0.0,0.0,0.0,0.0,0.0,0.0,0.0,0.0,0.0
1704779912830581194,2890,1704779912830083674,imu_link,0.0021173617655338857,0.0012715030773881426,-0.01780412603395003,0.9998384435273757,0.0,0.0,0.0,0.0,0.0,0.0,0.0,0.0,0.0,-0.00034906585039886593,0.0,0.00017453292519943296,0.0,0.0,0.0,0.0,0.0,0.0,0.0,0.0,0.0,-0.023535959999999998,0.032361944999999996,9.823321305,0.0,0.0,0.0,0.0,0.0,0.0,0.0,0.0,0.0
1704779912930674404,2891,1704779912929676840,imu_link,0.0021173617655338857,0.0012715030773881426,-0.01780412603395003,0.9998384435273757,0.0,0.0,0.0,0.0,0.0,0.0,0.0,0.0,0.0,0.00034906585039886593,0.00034906585039886593,0.00017453292519943296,0.0,0.0,0.0,0.0,0.0,0.0,0.0,0.0,0.0,-0.028439284999999995,0.040207265,9.819398645,0.0,0.0,0.0,0.0,0.0,0.0,0.0,0.0,0.0
1704779913030823325,2892,1704779913030279819,imu_link,0.0021173617655338857,0.0012715030773881426,-0.01780412603395003,0.9998384435273757,0.0,0.0,0.0,0.0,0.0,0.0,0.0,0.0,0.0,-0.00017453292519943296,0.0,-0.0,0.0,0.0,0.0,0.0,0.0,0.0,0.0,0.0,0.0,-0.024516625,0.040207265,9.82234064,0.0,0.0,0.0,0.0,0.0,0.0,0.0,0.0,0.0
1704779913132535137,2893,1704779913131985558,imu_link,0.0021173617655338857,0.0012715030773881426,-0.01780412603395003,0.9998384435273757,0.0,0.0,0.0,0.0,0.0,0.0,0.0,0.0,0.0,0.0005235987755982988,-0.00017453292519943296,-0.00017453292519943296,0.0,0.0,0.0,0.0,0.0,0.0,0.0,0.0,0.0,-0.02745862,0.033342609999999995,9.829205295,0.0,0.0,0.0,0.0,0.0,0.0,0.0,0.0,0.0
1704779913231255005,2894,1704779913230843824,imu_link,0.00211580853321691,0.0011842507239568825,-0.01780394525849675,0.9998385571869621,0.0,0.0,0.0,0.0,0.0,0.0,0.0,0.0,0.0,-0.00017453292519943296,-0.00017453292519943296,-0.00017453292519943296,0.0,0.0,0.0,0.0,0.0,0.0,0.0,0.0,0.0,-0.023535959999999998,0.04511059,9.826263299999999,0.0,0.0,0.0,0.0,0.0,0.0,0.0,0.0,0.0
1704779913331475628,2895,1704779913330304709,imu_link,0.00211580853321691,0.0011842507239568825,-0.01780394525849675,0.9998385571869621,0.0,0.0,0.0,0.0,0.0,0.0,0.0,0.0,0.0,0.00034906585039886593,0.00017453292519943296,-0.0005235987755982988,0.0,0.0,0.0,0.0,0.0,0.0,0.0,0.0,0.0,-0.026477955,0.033342609999999995,9.823321305,0.0,0.0,0.0,0.0,0.0,0.0,0.0,0.0,0.0
1704779913430427439,2896,1704779913430045072,imu_link,0.00211580853321691,0.0011842507239568825,-0.01780394525849675,0.9998385571869621,0.0,0.0,0.0,0.0,0.0,0.0,0.0,0.0,0.0,0.0,0.00017453292519943296,0.0,0.0,0.0,0.0,0.0,0.0,0.0,0.0,0.0,0.0,-0.024516625,0.04412992499999999,9.823321305,0.0,0.0,0.0,0.0,0.0,0.0,0.0,0.0,0.0
1704779913530041487,2897,1704779913529603690,imu_link,0.00211580853321691,0.0011842507239568825,-0.01780394525849675,0.9998385571869621,0.0,0.0,0.0,0.0,0.0,0.0,0.0,0.0,0.0,-0.00017453292519943296,-0.00034906585039886593,-0.0005235987755982988,0.0,0.0,0.0,0.0,0.0,0.0,0.0,0.0,0.0,-0.028439284999999995,0.038245934999999995,9.827243965,0.0,0.0,0.0,0.0,0.0,0.0,0.0,0.0,0.0
1704779913631286740,2898,1704779913630701869,imu_link,0.0021159118643005645,0.0011840660914568927,-0.01789119230285938,0.9998369997866932,0.0,0.0,0.0,0.0,0.0,0.0,0.0,0.0,0.0,-0.0,-0.00017453292519943296,-0.0005235987755982988,0.0,0.0,0.0,0.0,0.0,0.0,0.0,0.0,0.0,-0.024516625,0.040207265,9.827243965,0.0,0.0,0.0,0.0,0.0,0.0,0.0,0.0,0.0
1704779913730755127,2899,1704779913730249300,imu_link,0.0021159118643005645,0.0011840660914568927,-0.01789119230285938,0.9998369997866932,0.0,0.0,0.0,0.0,0.0,0.0,0.0,0.0,0.0,-0.00034906585039886593,0.00017453292519943296,0.00034906585039886593,0.0,0.0,0.0,0.0,0.0,0.0,0.0,0.0,0.0,-0.028439284999999995,0.04118793,9.823321305,0.0,0.0,0.0,0.0,0.0,0.0,0.0,0.0,0.0
1704779913830358954,2900,1704779913829948630,imu_link,0.0021159118643005645,0.0011840660914568927,-0.01789119230285938,0.9998369997866932,0.0,0.0,0.0,0.0,0.0,0.0,0.0,0.0,0.0,-0.0,0.00034906585039886593,-0.0,0.0,0.0,0.0,0.0,0.0,0.0,0.0,0.0,0.0,-0.023535959999999998,0.03530394,9.825282634999999,0.0,0.0,0.0,0.0,0.0,0.0,0.0,0.0,0.0
1704779913929880597,2901,1704779913929353544,imu_link,0.0021159118643005645,0.0011840660914568927,-0.01789119230285938,0.9998369997866932,0.0,0.0,0.0,0.0,0.0,0.0,0.0,0.0,0.0,0.0,0.00017453292519943296,-0.0008726646259971648,0.0,0.0,0.0,0.0,0.0,0.0,0.0,0.0,0.0,-0.026477955,0.04314926,9.825282634999999,0.0,0.0,0.0,0.0,0.0,0.0,0.0,0.0,0.0
1704779914030865783,2902,1704779914030096760,imu_link,0.0021159118643005645,0.0011840660914568927,-0.01789119230285938,0.9998369997866932,0.0,0.0,0.0,0.0,0.0,0.0,0.0,0.0,0.0,-0.00017453292519943296,-0.0,-0.0006981317007977319,0.0,0.0,0.0,0.0,0.0,0.0,0.0,0.0,0.0,-0.023535959999999998,0.036284605,9.825282634999999,0.0,0.0,0.0,0.0,0.0,0.0,0.0,0.0,0.0
1704779914131090102,2903,1704779914130574241,imu_link,0.0021159118643005645,0.0011840660914568927,-0.01789119230285938,0.9998369997866932,0.0,0.0,0.0,0.0,0.0,0.0,0.0,0.0,0.0,0.0,0.00034906585039886593,-0.00017453292519943296,0.0,0.0,0.0,0.0,0.0,0.0,0.0,0.0,0.0,-0.02549729,0.040207265,9.826263299999999,0.0,0.0,0.0,0.0,0.0,0.0,0.0,0.0,0.0
1704779914230160514,2904,1704779914229756338,imu_link,0.0020286597585583437,0.0011856273854988328,-0.017891088905642047,0.9998371806274545,0.0,0.0,0.0,0.0,0.0,0.0,0.0,0.0,0.0,0.00017453292519943296,-0.00017453292519943296,-0.0,0.0,0.0,0.0,0.0,0.0,0.0,0.0,0.0,0.0,-0.02549729,0.04118793,9.823321305,0.0,0.0,0.0,0.0,0.0,0.0,0.0,0.0,0.0
1704779914331003327,2905,1704779914330442789,imu_link,0.0020286597585583437,0.0011856273854988328,-0.017891088905642047,0.9998371806274545,0.0,0.0,0.0,0.0,0.0,0.0,0.0,0.0,0.0,0.00017453292519943296,0.00034906585039886593,0.00017453292519943296,0.0,0.0,0.0,0.0,0.0,0.0,0.0,0.0,0.0,-0.024516625,0.038245934999999995,9.825282634999999,0.0,0.0,0.0,0.0,0.0,0.0,0.0,0.0,0.0
1704779914430679388,2906,1704779914430166366,imu_link,0.0020286597585583437,0.0011856273854988328,-0.017891088905642047,0.9998371806274545,0.0,0.0,0.0,0.0,0.0,0.0,0.0,0.0,0.0,-0.0,-0.00017453292519943296,0.0,0.0,0.0,0.0,0.0,0.0,0.0,0.0,0.0,0.0,-0.02549729,0.04314926,9.82430197,0.0,0.0,0.0,0.0,0.0,0.0,0.0,0.0,0.0
1704779914529893070,2907,1704779914529308190,imu_link,0.0020286597585583437,0.0011856273854988328,-0.017891088905642047,0.9998371806274545,0.0,0.0,0.0,0.0,0.0,0.0,0.0,0.0,0.0,0.0,-0.00034906585039886593,0.0,0.0,0.0,0.0,0.0,0.0,0.0,0.0,0.0,0.0,-0.02549729,0.040207265,9.82430197,0.0,0.0,0.0,0.0,0.0,0.0,0.0,0.0,0.0
1704779914630534185,2908,1704779914630145843,imu_link,0.0021159118643005645,0.0011840660914568927,-0.01789119230285938,0.9998369997866932,0.0,0.0,0.0,0.0,0.0,0.0,0.0,0.0,0.0,0.00017453292519943296,0.00034906585039886593,0.00034906585039886593,0.0,0.0,0.0,0.0,0.0,0.0,0.0,0.0,0.0,-0.026477955,0.04118793,9.82430197,0.0,0.0,0.0,0.0,0.0,0.0,0.0,0.0,0.0
1704779914730171848,2909,1704779914729705292,imu_link,0.0021159118643005645,0.0011840660914568927,-0.01789119230285938,0.9998369997866932,0.0,0.0,0.0,0.0,0.0,0.0,0.0,0.0,0.0,-0.00017453292519943296,0.0005235987755982988,0.0005235987755982988,0.0,0.0,0.0,0.0,0.0,0.0,0.0,0.0,0.0,-0.02549729,0.0392266,9.827243965,0.0,0.0,0.0,0.0,0.0,0.0,0.0,0.0,0.0
1704779914829996682,2910,1704779914829504309,imu_link,0.0020286597585583437,0.0011856273854988328,-0.017891088905642047,0.9998371806274545,0.0,0.0,0.0,0.0,0.0,0.0,0.0,0.0,0.0,-0.0,0.0,0.00017453292519943296,0.0,0.0,0.0,0.0,0.0,0.0,0.0,0.0,0.0,-0.02549729,0.0392266,9.825282634999999,0.0,0.0,0.0,0.0,0.0,0.0,0.0,0.0,0.0
1704779914929484047,2911,1704779914929008997,imu_link,0.0020286597585583437,0.0011856273854988328,-0.017891088905642047,0.9998371806274545,0.0,0.0,0.0,0.0,0.0,0.0,0.0,0.0,0.0,0.0,-0.00017453292519943296,-0.00017453292519943296,0.0,0.0,0.0,0.0,0.0,0.0,0.0,0.0,0.0,-0.02549729,0.042168594999999996,9.825282634999999,0.0,0.0,0.0,0.0,0.0,0.0,0.0,0.0,0.0
1704779915030370159,2912,1704779915029949898,imu_link,0.002028556291566489,0.0011858044042694425,-0.017803841845499428,0.9998387380187003,0.0,0.0,0.0,0.0,0.0,0.0,0.0,0.0,0.0,0.0,0.00017453292519943296,0.0005235987755982988,0.0,0.0,0.0,0.0,0.0,0.0,0.0,0.0,0.0,-0.023535959999999998,0.0392266,9.82430197,0.0,0.0,0.0,0.0,0.0,0.0,0.0,0.0,0.0
1704779915129690478,2913,1704779915129269386,imu_link,0.002028556291566489,0.0011858044042694425,-0.017803841845499428,0.9998387380187003,0.0,0.0,0.0,0.0,0.0,0.0,0.0,0.0,0.0,0.00017453292519943296,-0.00017453292519943296,-0.00017453292519943296,0.0,0.0,0.0,0.0,0.0,0.0,0.0,0.0,0.0,-0.026477955,0.04118793,9.827243965,0.0,0.0,0.0,0.0,0.0,0.0,0.0,0.0,0.0
1704779915230740323,2914,1704779915230324966,imu_link,0.002028556291566489,0.0011858044042694425,-0.017803841845499428,0.9998387380187003,0.0,0.0,0.0,0.0,0.0,0.0,0.0,0.0,0.0,-0.0,0.0,-0.00034906585039886593,0.0,0.0,0.0,0.0,0.0,0.0,0.0,0.0,0.0,-0.02549729,0.040207265,9.826263299999999,0.0,0.0,0.0,0.0,0.0,0.0,0.0,0.0,0.0
1704779915330614554,2915,1704779915329761207,imu_link,0.002028556291566489,0.0011858044042694425,-0.017803841845499428,0.9998387380187003,0.0,0.0,0.0,0.0,0.0,0.0,0.0,0.0,0.0,0.00017453292519943296,0.0005235987755982988,0.00017453292519943296,0.0,0.0,0.0,0.0,0.0,0.0,0.0,0.0,0.0,-0.026477955,0.0392266,9.825282634999999,0.0,0.0,0.0,0.0,0.0,0.0,0.0,0.0,0.0
1704779915429946637,2916,1704779915429513958,imu_link,0.0020301095337962043,0.0012730567731440805,-0.017804015006760036,0.9998386244946592,0.0,0.0,0.0,0.0,0.0,0.0,0.0,0.0,0.0,0.0,0.0005235987755982988,0.00017453292519943296,0.0,0.0,0.0,0.0,0.0,0.0,0.0,0.0,0.0,-0.02549729,0.04118793,9.826263299999999,0.0,0.0,0.0,0.0,0.0,0.0,0.0,0.0,0.0
1704779915529468575,2917,1704779915529021160,imu_link,0.0020301095337962043,0.0012730567731440805,-0.017804015006760036,0.9998386244946592,0.0,0.0,0.0,0.0,0.0,0.0,0.0,0.0,0.0,-0.00017453292519943296,0.00017453292519943296,0.0,0.0,0.0,0.0,0.0,0.0,0.0,0.0,0.0,0.0,-0.02549729,0.0392266,9.826263299999999,0.0,0.0,0.0,0.0,0.0,0.0,0.0,0.0,0.0
1704779915630350985,2918,1704779915629926793,imu_link,0.0020301095337962043,0.0012730567731440805,-0.017804015006760036,0.9998386244946592,0.0,0.0,0.0,0.0,0.0,0.0,0.0,0.0,0.0,0.00017453292519943296,0.0,0.00034906585039886593,0.0,0.0,0.0,0.0,0.0,0.0,0.0,0.0,0.0,-0.024516625,0.0392266,9.82430197,0.0,0.0,0.0,0.0,0.0,0.0,0.0,0.0,0.0
1704779915729836654,2919,1704779915729414014,imu_link,0.0020302206145285428,0.001272879618503498,-0.01789126205699576,0.9998370670883037,0.0,0.0,0.0,0.0,0.0,0.0,0.0,0.0,0.0,-0.0,-0.00017453292519943296,-0.00034906585039886593,0.0,0.0,0.0,0.0,0.0,0.0,0.0,0.0,0.0,-0.024516625,0.04118793,9.825282634999999,0.0,0.0,0.0,0.0,0.0,0.0,0.0,0.0,0.0
1704779915829556573,2920,1704779915829181138,imu_link,0.0020302206145285428,0.001272879618503498,-0.01789126205699576,0.9998370670883037,0.0,0.0,0.0,0.0,0.0,0.0,0.0,0.0,0.0,-0.00017453292519943296,-0.0,-0.00034906585039886593,0.0,0.0,0.0,0.0,0.0,0.0,0.0,0.0,0.0,-0.02549729,0.040207265,9.82430197,0.0,0.0,0.0,0.0,0.0,0.0,0.0,0.0,0.0
1704779915929190996,2921,1704779915928786482,imu_link,0.0020302206145285428,0.001272879618503498,-0.01789126205699576,0.9998370670883037,0.0,0.0,0.0,0.0,0.0,0.0,0.0,0.0,0.0,-0.00017453292519943296,-0.00034906585039886593,0.0,0.0,0.0,0.0,0.0,0.0,0.0,0.0,0.0,0.0,-0.02549729,0.04118793,9.825282634999999,0.0,0.0,0.0,0.0,0.0,0.0,0.0,0.0,0.0
1704779916029803499,2922,1704779916029382649,imu_link,0.0020302206145285428,0.001272879618503498,-0.01789126205699576,0.9998370670883037,0.0,0.0,0.0,0.0,0.0,0.0,0.0,0.0,0.0,-0.0,0.00034906585039886593,0.0,0.0,0.0,0.0,0.0,0.0,0.0,0.0,0.0,0.0,-0.02549729,0.0392266,9.825282634999999,0.0,0.0,0.0,0.0,0.0,0.0,0.0,0.0,0.0
1704779916129787298,2923,1704779916129151963,imu_link,0.0020302206145285428,0.001272879618503498,-0.01789126205699576,0.9998370670883037,0.0,0.0,0.0,0.0,0.0,0.0,0.0,0.0,0.0,0.00017453292519943296,-0.0,0.0,0.0,0.0,0.0,0.0,0.0,0.0,0.0,0.0,0.0,-0.02549729,0.040207265,9.825282634999999,0.0,0.0,0.0,0.0,0.0,0.0,0.0,0.0,0.0
1704779916230417656,2924,1704779916229937468,imu_link,0.0020302206145285428,0.001272879618503498,-0.01789126205699576,0.9998370670883037,0.0,0.0,0.0,0.0,0.0,0.0,0.0,0.0,0.0,0.00017453292519943296,-0.00017453292519943296,-0.0,0.0,0.0,0.0,0.0,0.0,0.0,0.0,0.0,0.0,-0.02549729,0.0392266,9.825282634999999,0.0,0.0,0.0,0.0,0.0,0.0,0.0,0.0,0.0
1704779916329770493,2925,1704779916329275626,imu_link,0.0020302206145285428,0.001272879618503498,-0.01789126205699576,0.9998370670883037,0.0,0.0,0.0,0.0,0.0,0.0,0.0,0.0,0.0,-0.00017453292519943296,-0.00034906585039886593,0.0,0.0,0.0,0.0,0.0,0.0,0.0,0.0,0.0,0.0,-0.026477955,0.040207265,9.825282634999999,0.0,0.0,0.0,0.0,0.0,0.0,0.0,0.0,0.0
1704779916429647213,2926,1704779916429190112,imu_link,0.0020302206145285428,0.001272879618503498,-0.01789126205699576,0.9998370670883037,0.0,0.0,0.0,0.0,0.0,0.0,0.0,0.0,0.0,-0.00017453292519943296,0.0005235987755982988,-0.00017453292519943296,0.0,0.0,0.0,0.0,0.0,0.0,0.0,0.0,0.0,-0.024516625,0.0392266,9.82430197,0.0,0.0,0.0,0.0,0.0,0.0,0.0,0.0,0.0
1704779916529310644,2927,1704779916528896596,imu_link,0.0020302206145285428,0.001272879618503498,-0.01789126205699576,0.9998370670883037,0.0,0.0,0.0,0.0,0.0,0.0,0.0,0.0,0.0,0.0,0.0,0.0,0.0,0.0,0.0,0.0,0.0,0.0,0.0,0.0,0.0,-0.024516625,0.0392266,9.826263299999999,0.0,0.0,0.0,0.0,0.0,0.0,0.0,0.0,0.0
1704779916629942282,2928,1704779916629538760,imu_link,0.0020286597585583437,0.0011856273854988328,-0.017891088905642047,0.9998371806274545,0.0,0.0,0.0,0.0,0.0,0.0,0.0,0.0,0.0,-0.0005235987755982988,-0.0008726646259971648,-0.0,0.0,0.0,0.0,0.0,0.0,0.0,0.0,0.0,0.0,-0.026477955,0.042168594999999996,9.825282634999999,0.0,0.0,0.0,0.0,0.0,0.0,0.0,0.0,0.0
1704779916729500192,2929,1704779916729056875,imu_link,0.0020286597585583437,0.0011856273854988328,-0.017891088905642047,0.9998371806274545,0.0,0.0,0.0,0.0,0.0,0.0,0.0,0.0,0.0,-0.00034906585039886593,-0.00034906585039886593,-0.00017453292519943296,0.0,0.0,0.0,0.0,0.0,0.0,0.0,0.0,0.0,-0.018632634999999998,0.040207265,9.825282634999999,0.0,0.0,0.0,0.0,0.0,0.0,0.0,0.0,0.0
1704779916829443288,2930,1704779916829045153,imu_link,0.0020286597585583437,0.0011856273854988328,-0.017891088905642047,0.9998371806274545,0.0,0.0,0.0,0.0,0.0,0.0,0.0,0.0,0.0,-0.00034906585039886593,0.00017453292519943296,0.0,0.0,0.0,0.0,0.0,0.0,0.0,0.0,0.0,0.0,-0.053936574999999994,0.055897905,9.7674234,0.0,0.0,0.0,0.0,0.0,0.0,0.0,0.0,0.0
1704779916928903522,2931,1704779916928433920,imu_link,0.0020286597585583437,0.0011856273854988328,-0.017891088905642047,0.9998371806274545,0.0,0.0,0.0,0.0,0.0,0.0,0.0,0.0,0.0,0.00034906585039886593,-0.00034906585039886593,0.0005235987755982988,0.0,0.0,0.0,0.0,0.0,0.0,0.0,0.0,0.0,-0.01569064,0.04118793,9.826263299999999,0.0,0.0,0.0,0.0,0.0,0.0,0.0,0.0,0.0
1704779917029294926,2932,1704779917028887469,imu_link,0.0021159118643005645,0.0011840660914568927,-0.01789119230285938,0.9998369997866932,0.0,0.0,0.0,0.0,0.0,0.0,0.0,0.0,0.0,0.00017453292519943296,-0.00017453292519943296,-0.0,0.0,0.0,0.0,0.0,0.0,0.0,0.0,0.0,0.0,-0.026477955,0.04314926,9.825282634999999,0.0,0.0,0.0,0.0,0.0,0.0,0.0,0.0,0.0
1704779917129275488,2933,1704779917128813642,imu_link,0.0020286597585583437,0.0011856273854988328,-0.017891088905642047,0.9998371806274545,0.0,0.0,0.0,0.0,0.0,0.0,0.0,0.0,0.0,-0.00034906585039886593,-0.00017453292519943296,0.00034906585039886593,0.0,0.0,0.0,0.0,0.0,0.0,0.0,0.0,0.0,-0.02549729,0.0392266,9.829205295,0.0,0.0,0.0,0.0,0.0,0.0,0.0,0.0,0.0
1704779917229805263,2934,1704779917229397562,imu_link,0.0020286597585583437,0.0011856273854988328,-0.017891088905642047,0.9998371806274545,0.0,0.0,0.0,0.0,0.0,0.0,0.0,0.0,0.0,-0.00017453292519943296,0.0,0.00017453292519943296,0.0,0.0,0.0,0.0,0.0,0.0,0.0,0.0,0.0,-0.026477955,0.0392266,9.826263299999999,0.0,0.0,0.0,0.0,0.0,0.0,0.0,0.0,0.0
1704779917329599324,2935,1704779917329225379,imu_link,0.0020286597585583437,0.0011856273854988328,-0.017891088905642047,0.9998371806274545,0.0,0.0,0.0,0.0,0.0,0.0,0.0,0.0,0.0,0.0,0.0005235987755982988,0.00034906585039886593,0.0,0.0,0.0,0.0,0.0,0.0,0.0,0.0,0.0,-0.02549729,0.040207265,9.82430197,0.0,0.0,0.0,0.0,0.0,0.0,0.0,0.0,0.0
1704779917428613168,2936,1704779917428176196,imu_link,0.0020286597585583437,0.0011856273854988328,-0.017891088905642047,0.9998371806274545,0.0,0.0,0.0,0.0,0.0,0.0,0.0,0.0,0.0,0.00034906585039886593,0.00034906585039886593,-0.00017453292519943296,0.0,0.0,0.0,0.0,0.0,0.0,0.0,0.0,0.0,-0.026477955,0.04118793,9.82430197,0.0,0.0,0.0,0.0,0.0,0.0,0.0,0.0,0.0
1704779917529113792,2937,1704779917528746603,imu_link,0.0020286597585583437,0.0011856273854988328,-0.017891088905642047,0.9998371806274545,0.0,0.0,0.0,0.0,0.0,0.0,0.0,0.0,0.0,-0.0,-0.00017453292519943296,0.00034906585039886593,0.0,0.0,0.0,0.0,0.0,0.0,0.0,0.0,0.0,-0.02549729,0.040207265,9.826263299999999,0.0,0.0,0.0,0.0,0.0,0.0,0.0,0.0,0.0
1704779917629166073,2938,1704779917628794082,imu_link,0.0020302206145285428,0.001272879618503498,-0.01789126205699576,0.9998370670883037,0.0,0.0,0.0,0.0,0.0,0.0,0.0,0.0,0.0,-0.0,0.0,0.00017453292519943296,0.0,0.0,0.0,0.0,0.0,0.0,0.0,0.0,0.0,-0.024516625,0.0392266,9.827243965,0.0,0.0,0.0,0.0,0.0,0.0,0.0,0.0,0.0
1704779917729624306,2939,1704779917729222527,imu_link,0.0020286597585583437,0.0011856273854988328,-0.017891088905642047,0.9998371806274545,0.0,0.0,0.0,0.0,0.0,0.0,0.0,0.0,0.0,0.00017453292519943296,0.00017453292519943296,-0.0006981317007977319,0.0,0.0,0.0,0.0,0.0,0.0,0.0,0.0,0.0,-0.026477955,0.04118793,9.826263299999999,0.0,0.0,0.0,0.0,0.0,0.0,0.0,0.0,0.0
1704779917828956183,2940,1704779917828502232,imu_link,0.0020286597585583437,0.0011856273854988328,-0.017891088905642047,0.9998371806274545,0.0,0.0,0.0,0.0,0.0,0.0,0.0,0.0,0.0,-0.00017453292519943296,0.00017453292519943296,-0.00017453292519943296,0.0,0.0,0.0,0.0,0.0,0.0,0.0,0.0,0.0,-0.024516625,0.040207265,9.82430197,0.0,0.0,0.0,0.0,0.0,0.0,0.0,0.0,0.0
1704779917928741634,2941,1704779917928284053,imu_link,0.0020286597585583437,0.0011856273854988328,-0.017891088905642047,0.9998371806274545,0.0,0.0,0.0,0.0,0.0,0.0,0.0,0.0,0.0,-0.00017453292519943296,0.0,-0.00017453292519943296,0.0,0.0,0.0,0.0,0.0,0.0,0.0,0.0,0.0,-0.02549729,0.038245934999999995,9.825282634999999,0.0,0.0,0.0,0.0,0.0,0.0,0.0,0.0,0.0
1704779918029522924,2942,1704779918029176390,imu_link,0.0020302206145285428,0.001272879618503498,-0.01789126205699576,0.9998370670883037,0.0,0.0,0.0,0.0,0.0,0.0,0.0,0.0,0.0,-0.0,0.00034906585039886593,-0.00034906585039886593,0.0,0.0,0.0,0.0,0.0,0.0,0.0,0.0,0.0,-0.020593965,0.0392266,9.829205295,0.0,0.0,0.0,0.0,0.0,0.0,0.0,0.0,0.0
1704779918128818129,2943,1704779918128315779,imu_link,0.0020302206145285428,0.001272879618503498,-0.01789126205699576,0.9998370670883037,0.0,0.0,0.0,0.0,0.0,0.0,0.0,0.0,0.0,-0.00017453292519943296,0.00017453292519943296,-0.00034906585039886593,0.0,0.0,0.0,0.0,0.0,0.0,0.0,0.0,0.0,-0.0029419949999999998,0.037265269999999996,9.838031280000001,0.0,0.0,0.0,0.0,0.0,0.0,0.0,0.0,0.0
1704779918229608145,2944,1704779918229115229,imu_link,0.002027098887139026,0.0010983751434651037,-0.017890915618039977,0.999837286552414,0.0,0.0,0.0,0.0,0.0,0.0,0.0,0.0,0.0,-0.0006981317007977319,-0.00471238898038469,0.00017453292519943296,0.0,0.0,0.0,0.0,0.0,0.0,0.0,0.0,0.0,0.31773545999999997,0.059820565,9.803708004999999,0.0,0.0,0.0,0.0,0.0,0.0,0.0,0.0,0.0
1704779918329424941,2945,1704779918329051326,imu_link,0.002023977096959436,0.0009238705767701031,-0.017890568633980235,0.9998374755598138,0.0,0.0,0.0,0.0,0.0,0.0,0.0,0.0,0.0,-0.0015707963267948967,-0.005934119456780722,0.0008726646259971648,0.0,0.0,0.0,0.0,0.0,0.0,0.0,0.0,0.0,0.534462425,0.022555295,9.837050615,0.0,0.0,0.0,0.0,0.0,0.0,0.0,0.0,0.0
1704779918428101534,2946,1704779918427702260,imu_link,0.002023977096959436,0.0009238705767701031,-0.017890568633980235,0.9998374755598138,0.0,0.0,0.0,0.0,0.0,0.0,0.0,0.0,0.0,0.0024434609527920616,0.005759586531581288,-0.0,0.0,0.0,0.0,0.0,0.0,0.0,0.0,0.0,0.0,0.43933792,0.00980665,9.899813175,0.0,0.0,0.0,0.0,0.0,0.0,0.0,0.0,0.0
1704779918528828006,2947,1704779918528382738,imu_link,0.002106488798252101,0.0006607362626405034,-0.017802857758182647,0.9998390792463435,0.0,0.0,0.0,0.0,0.0,0.0,0.0,0.0,0.0,0.00034906585039886593,-0.0015707963267948967,0.0020943951023931952,0.0,0.0,0.0,0.0,0.0,0.0,0.0,0.0,0.0,0.528578435,0.06472388999999999,9.804688669999999,0.0,0.0,0.0,0.0,0.0,0.0,0.0,0.0,0.0
1704779918629078693,2948,1704779918628722823,imu_link,0.0021095954408672075,0.0008352411102941057,-0.017803220800608213,0.9998389356833871,0.0,0.0,0.0,0.0,0.0,0.0,0.0,0.0,0.0,-0.0015707963267948967,0.004363323129985824,-0.0006981317007977319,0.0,0.0,0.0,0.0,0.0,0.0,0.0,0.0,0.0,0.485429175,0.046091255,9.848818595,0.0,0.0,0.0,0.0,0.0,0.0,0.0,0.0,0.0
1704779918728780490,2949,1704779918728301840,imu_link,0.0021110682326684134,0.0009226777718709941,-0.0177161549128165,0.99984040222015,0.0,0.0,0.0,0.0,0.0,0.0,0.0,0.0,0.0,0.0031415926535897933,0.01064650843716541,-0.0,0.0,0.0,0.0,0.0,0.0,0.0,0.0,0.0,0.0,0.257914895,-0.008825985,9.792920689999999,0.0,0.0,0.0,0.0,0.0,0.0,0.0,0.0,0.0
1704779918828462608,2950,1704779918828081128,imu_link,0.0022903134331009665,0.0011811433279972218,-0.017804151678287534,0.999838172679876,0.0,0.0,0.0,0.0,0.0,0.0,0.0,0.0,0.0,0.0015707963267948967,0.0012217304763960308,-0.00034906585039886593,0.0,0.0,0.0,0.0,0.0,0.0,0.0,0.0,0.0,0.30596747999999996,0.07256921,9.703680175,0.0,0.0,0.0,0.0,0.0,0.0,0.0,0.0,0.0
1704779918928733642,2951,1704779918928261614,imu_link,0.0022091401154545856,0.0015318992135347018,-0.017717554161783795,0.9998394177363052,0.0,0.0,0.0,0.0,0.0,0.0,0.0,0.0,0.0,-0.0013962634015954637,0.010995574287564275,0.0010471975511965976,0.0,0.0,0.0,0.0,0.0,0.0,0.0,0.0,0.0,0.10395048999999999,0.028439284999999995,9.77723005,0.0,0.0,0.0,0.0,0.0,0.0,0.0,0.0,0.0
1704779919028157719,2952,1704779919027739455,imu_link,0.002212231181457667,0.0017064040609036002,-0.01771792974664599,0.9998391216510152,0.0,0.0,0.0,0.0,0.0,0.0,0.0,0.0,0.0,0.0024434609527920616,-0.0036651914291880917,0.0005235987755982988,0.0,0.0,0.0,0.0,0.0,0.0,0.0,0.0,0.0,0.038245934999999995,-0.0029419949999999998,9.839011945000001,0.0,0.0,0.0,0.0,0.0,0.0,0.0,0.0,0.0
1704779919129018160,2953,1704779919128592879,imu_link,0.0022165240168056473,0.0019685483444334038,-0.017543938012503854,0.9998416985091749,0.0,0.0,0.0,0.0,0.0,0.0,0.0,0.0,0.0,-0.0006981317007977319,0.010122909661567111,0.0031415926535897933,0.0,0.0,0.0,0.0,0.0,0.0,0.0,0.0,0.0,-0.040207265,0.083356525,9.733100125,0.0,0.0,0.0,0.0,0.0,0.0,0.0,0.0,0.0
1704779919229318925,2954,1704779919228913107,imu_link,0.0020404884637158552,0.0018843576320223881,-0.01754342204667887,0.9998422445296238,0.0,0.0,0.0,0.0,0.0,0.0,0.0,0.0,0.0,-0.0038397243543875246,-0.012217304763960306,-0.0020943951023931952,0.0,0.0,0.0,0.0,0.0,0.0,0.0,0.0,0.0,0.02745862,0.024516625,9.774288055,0.0,0.0,0.0,0.0,0.0,0.0,0.0,0.0,0.0
1704779919329171736,2955,1704779919328726576,imu_link,0.0020404884637158552,0.0018843576320223881,-0.01754342204667887,0.9998422445296238,0.0,0.0,0.0,0.0,0.0,0.0,0.0,0.0,0.0,0.0008726646259971648,0.008203047484373348,0.0022689280275926286,0.0,0.0,0.0,0.0,0.0,0.0,0.0,0.0,0.0,0.04903325,0.038245934999999995,9.97728571,0.0,0.0,0.0,0.0,0.0,0.0,0.0,0.0,0.0
1704779919428226132,2956,1704779919427662391,imu_link,0.0019517054802958922,0.0017986357549688583,-0.017543092896900012,0.9998425854337021,0.0,0.0,0.0,0.0,0.0,0.0,0.0,0.0,0.0,-0.0041887902047863905,-0.0019198621771937623,0.0,0.0,0.0,0.0,0.0,0.0,0.0,0.0,0.0,0.0,0.405014645,0.11375713999999998,9.66739557,0.0,0.0,0.0,0.0,0.0,0.0,0.0,0.0,0.0
1704779919528456568,2957,1704779919528112905,imu_link,0.0016040597021453502,0.0018921521936403293,-0.017455350600493268,0.99984456666422,0.0,0.0,0.0,0.0,0.0,0.0,0.0,0.0,0.0,-0.007504915783575617,0.0012217304763960308,0.0005235987755982988,0.0,0.0,0.0,0.0,0.0,0.0,0.0,0.0,0.0,0.32558077999999996,-0.00784532,9.974343714999998,0.0,0.0,0.0,0.0,0.0,0.0,0.0,0.0,0.0
1704779919628728355,2958,1704779919628235096,imu_link,0.0014265082500538322,0.0017206927434361265,-0.017454782017336964,0.9998451554492939,0.0,0.0,0.0,0.0,0.0,0.0,0.0,0.0,0.0,0.0031415926535897933,-0.0008726646259971648,0.0020943951023931952,0.0,0.0,0.0,0.0,0.0,0.0,0.0,0.0,0.0,0.44227991499999997,-0.023535959999999998,9.78311404,0.0,0.0,0.0,0.0,0.0,0.0,0.0,0.0,0.0
1704779919728342338,2959,1704779919727896537,imu_link,0.001516476193341232,0.0018939401426539906,-0.01728068985041599,0.9998477339320146,0.0,0.0,0.0,0.0,0.0,0.0,0.0,0.0,0.0,0.005235987755982988,-0.00017453292519943296,0.002967059728390361,0.0,0.0,0.0,0.0,0.0,0.0,0.0,0.0,0.0,0.565843705,0.04118793,9.549715769999999,0.0,0.0,0.0,0.0,0.0,0.0,0.0,0.0,0.0
1704779919828265750,2960,1704779919827902485,imu_link,0.0014275576965707693,0.0018083194432557872,-0.017193157503097488,0.9998495323771912,0.0,0.0,0.0,0.0,0.0,0.0,0.0,0.0,0.0,0.00034906585039886593,0.0027925268031909274,0.0020943951023931952,0.0,0.0,0.0,0.0,0.0,0.0,0.0,0.0,0.0,0.5432884099999999,-0.011767979999999999,9.768404064999999,0.0,0.0,0.0,0.0,0.0,0.0,0.0,0.0,0.0
1704779919928234839,2961,1704779919927746097,imu_link,0.0015163109200783413,0.0018940724649754313,-0.017193441871703293,0.9998492380590662,0.0,0.0,0.0,0.0,0.0,0.0,0.0,0.0,0.0,-0.00017453292519943296,-0.0020943951023931952,0.00017453292519943296,0.0,0.0,0.0,0.0,0.0,0.0,0.0,0.0,0.0,0.40207265,0.0392266,9.897851845,0.0,0.0,0.0,0.0,0.0,0.0,0.0,0.0,0.0
1704779920027994461,2962,1704779920027528413,imu_link,0.0016002646239131916,0.0017183446504731282,-0.017018842096703075,0.9998524118381087,0.0,0.0,0.0,0.0,0.0,0.0,0.0,0.0,0.0,0.0013962634015954637,0.005585053606381855,0.0020943951023931952,0.0,0.0,0.0,0.0,0.0,0.0,0.0,0.0,0.0,0.49621648999999995,0.04314926,9.99689901,0.0,0.0,0.0,0.0,0.0,0.0,0.0,0.0,0.0
1704779920128651217,2963,1704779920128226064,imu_link,0.0017777410285003297,0.0018898814512062446,-0.017019440875315685,0.9998517923258564,0.0,0.0,0.0,0.0,0.0,0.0,0.0,0.0,0.0,0.005585053606381855,0.0020943951023931952,0.0008726646259971648,0.0,0.0,0.0,0.0,0.0,0.0,0.0,0.0,0.0,0.534462425,-0.040207265,9.680144214999999,0.0,0.0,0.0,0.0,0.0,0.0,0.0,0.0,0.0
1704779920227902232,2964,1704779920227495082,imu_link,0.00212675493344551,0.0018839404322174176,-0.017020099531314035,0.999851110862935,0.0,0.0,0.0,0.0,0.0,0.0,0.0,0.0,0.0,0.015184364492350668,-0.00034906585039886593,0.0015707963267948967,0.0,0.0,0.0,0.0,0.0,0.0,0.0,0.0,0.0,0.52759777,0.04903325,9.837050615,0.0,0.0,0.0,0.0,0.0,0.0,0.0,0.0,0.0
1704779920327460197,2965,1704779920327024496,imu_link,0.002388351295650749,0.0018796929328672286,-0.016933343941752343,0.9998520012459428,0.0,0.0,0.0,0.0,0.0,0.0,0.0,0.0,0.0,0.0022689280275926286,-0.003490658503988659,0.0019198621771937623,0.0,0.0,0.0,0.0,0.0,0.0,0.0,0.0,0.0,0.383440015,0.167693715,9.94786576,0.0,0.0,0.0,0.0,0.0,0.0,0.0,0.0,0.0
1704779920428220401,2966,1704779920427834453,imu_link,0.0024739717155954377,0.001791177457584619,-0.016846049136275163,0.9998534301465212,0.0,0.0,0.0,0.0,0.0,0.0,0.0,0.0,0.0,0.005235987755982988,0.0020943951023931952,0.0012217304763960308,0.0,0.0,0.0,0.0,0.0,0.0,0.0,0.0,0.0,0.320677455,-0.018632634999999998,9.799785344999998,0.0,0.0,0.0,0.0,0.0,0.0,0.0,0.0,0.0
1704779920528219722,2967,1704779920527761028,imu_link,0.0026468612382887042,0.0017012145858534985,-0.016758887249259415,0.9998546092771112,0.0,0.0,0.0,0.0,0.0,0.0,0.0,0.0,0.0,0.0027925268031909274,-0.006981317007977318,0.0019198621771937623,0.0,0.0,0.0,0.0,0.0,0.0,0.0,0.0,0.0,0.230456275,0.08237586,9.782133375,0.0,0.0,0.0,0.0,0.0,0.0,0.0,0.0,0.0
1704779920628057821,2968,1704779920627550416,imu_link,0.002731058502976593,0.0015254830596043514,-0.01667126022547937,0.9998561313025902,0.0,0.0,0.0,0.0,0.0,0.0,0.0,0.0,0.0,0.0024434609527920616,-0.00017453292519943296,0.0015707963267948967,0.0,0.0,0.0,0.0,0.0,0.0,0.0,0.0,0.0,0.106892485,0.05687856999999999,9.729177465,0.0,0.0,0.0,0.0,0.0,0.0,0.0,0.0,0.0
1704779920728516368,2969,1704779920728174705,imu_link,0.0029039868808892057,0.001435572788164149,-0.01658402848740724,0.999857227803097,0.0,0.0,0.0,0.0,0.0,0.0,0.0,0.0,0.0,0.00471238898038469,-0.005585053606381855,-0.0013962634015954637,0.0,0.0,0.0,0.0,0.0,0.0,0.0,0.0,0.0,0.023535959999999998,-0.006864655,9.903735834999999,0.0,0.0,0.0,0.0,0.0,0.0,0.0,0.0,0.0
1704779920827671823,2970,1704779920827273990,imu_link,0.0029027757342379897,0.0013478120391624533,-0.016758336144717417,0.9998544471398847,0.0,0.0,0.0,0.0,0.0,0.0,0.0,0.0,0.0,-0.0054105206811824215,0.004363323129985824,-0.004363323129985824,0.0,0.0,0.0,0.0,0.0,0.0,0.0,0.0,0.0,-0.033342609999999995,0.21868829499999998,9.704660839999999,0.0,0.0,0.0,0.0,0.0,0.0,0.0,0.0,0.0
1704779920927655807,2971,1704779920927168786,imu_link,0.002296525664167485,0.0016196102001041304,-0.016845345445142743,0.9998541579498019,0.0,0.0,0.0,0.0,0.0,0.0,0.0,0.0,0.0,-0.005934119456780722,0.0010471975511965976,0.0008726646259971648,0.0,0.0,0.0,0.0,0.0,0.0,0.0,0.0,0.0,-0.087279185,-0.07453053999999999,9.80665,0.0,0.0,0.0,0.0,0.0,0.0,0.0,0.0,0.0
1704779921028787186,2972,1704779921028221476,imu_link,0.002212210573371028,0.0017955876822525383,-0.016845579629733716,0.9998540435664562,0.0,0.0,0.0,0.0,0.0,0.0,0.0,0.0,0.0,0.002617993877991494,0.007504915783575617,-0.0013962634015954637,0.0,0.0,0.0,0.0,0.0,0.0,0.0,0.0,0.0,-0.1372931,0.012748645,9.77330739,0.0,0.0,0.0,0.0,0.0,0.0,0.0,0.0,0.0
1704779921128352668,2973,1704779921127869822,imu_link,0.0022169775853148666,0.002056961876691199,-0.017020638625807844,0.9998505647240461,0.0,0.0,0.0,0.0,0.0,0.0,0.0,0.0,0.0,-0.002617993877991494,0.003490658503988659,-0.0020943951023931952,0.0,0.0,0.0,0.0,0.0,0.0,0.0,0.0,0.0,-0.114737805,0.15102241,9.78311404,0.0,0.0,0.0,0.0,0.0,0.0,0.0,0.0,0.0
1704779921227066721,2974,1704779921226557188,imu_link,0.001960945185695763,0.0024106028516555906,-0.016933507911601416,0.9998517890155909,0.0,0.0,0.0,0.0,0.0,0.0,0.0,0.0,0.0,0.0019198621771937623,0.01117010721276371,0.003316125578789226,0.0,0.0,0.0,0.0,0.0,0.0,0.0,0.0,0.0,-0.230456275,-0.05099458,10.009647654999998,0.0,0.0,0.0,0.0,0.0,0.0,0.0,0.0,0.0
1704779921328326008,2975,1704779921327983782,imu_link,0.0019680811134255086,0.002847042065979048,-0.01684707759692435,0.9998520875532784,0.0,0.0,0.0,0.0,0.0,0.0,0.0,0.0,0.0,-0.0017453292519943296,0.010122909661567111,0.0,0.0,0.0,0.0,0.0,0.0,0.0,0.0,0.0,0.0,-0.10395048999999999,0.15886772999999998,9.672298894999999,0.0,0.0,0.0,0.0,0.0,0.0,0.0,0.0,0.0
1704779921427706988,2976,1704779921427299699,imu_link,0.0014501571045551745,0.003205003642121451,-0.01675880559875867,0.9998533729657211,0.0,0.0,0.0,0.0,0.0,0.0,0.0,0.0,0.0,-0.024434609527920613,-0.0005235987755982988,0.003316125578789226,0.0,0.0,0.0,0.0,0.0,0.0,0.0,0.0,0.0,-0.195152335,0.19024901,9.909619824999998,0.0,0.0,0.0,0.0,0.0,0.0,0.0,0.0,0.0
1704779921527767547,2977,1704779921527349129,imu_link,0.00048257021116327717,0.0027849047002195602,-0.016580995893617674,0.9998585309967495,0.0,0.0,0.0,0.0,0.0,0.0,0.0,0.0,0.0,-0.008552113334772213,-0.019896753472735354,0.004886921905584123,0.0,0.0,0.0,0.0,0.0,0.0,0.0,0.0,0.0,-0.2353596,-0.283412185,9.886083865,0.0,0.0,0.0,0.0,0.0,0.0,0.0,0.0,0.0
1704779921627977764,2978,1704779921627621534,imu_link,0.0008166205442500288,0.0019067886554818135,-0.016319568184701254,0.9998646753347048,0.0,0.0,0.0,0.0,0.0,0.0,0.0,0.0,0.0,0.01832595714594046,-0.0027925268031909274,0.0024434609527920616,0.0,0.0,0.0,0.0,0.0,0.0,0.0,0.0,0.0,-0.0058839899999999995,-0.0196133,9.759578079999999,0.0,0.0,0.0,0.0,0.0,0.0,0.0,0.0,0.0
1704779921727919414,2979,1704779921727440784,imu_link,0.0014274028756732144,0.001896819244267477,-0.016320729930562668,0.9998639899367907,0.0,0.0,0.0,0.0,0.0,0.0,0.0,0.0,0.0,0.0041887902047863905,-0.004537856055185257,0.0013962634015954637,0.0,0.0,0.0,0.0,0.0,0.0,0.0,0.0,0.0,-0.0588399,0.25693423,9.678182885,0.0,0.0,0.0,0.0,0.0,0.0,0.0,0.0,0.0
1704779921827917538,2980,1704779921827412648,imu_link,0.0011624900994683686,0.0017267854868351108,-0.01614554100356071,0.9998674853871156,0.0,0.0,0.0,0.0,0.0,0.0,0.0,0.0,0.0,-0.0054105206811824215,0.0017453292519943296,0.0036651914291880917,0.0,0.0,0.0,0.0,0.0,0.0,0.0,0.0,0.0,0.065704555,-0.09218251,9.833127954999998,0.0,0.0,0.0,0.0,0.0,0.0,0.0,0.0,0.0
1704779921928809483,2981,1704779921928442373,imu_link,0.0012522305703182113,0.0019001049196238338,-0.01597140022973512,0.9998698594790199,0.0,0.0,0.0,0.0,0.0,0.0,0.0,0.0,0.0,0.0027925268031909274,0.0010471975511965976,0.0019198621771937623,0.0,0.0,0.0,0.0,0.0,0.0,0.0,0.0,0.0,0.0784532,0.04511059,9.89687118,0.0,0.0,0.0,0.0,0.0,0.0,0.0,0.0,0.0
1704779922026916644,2982,1704779922026415066,imu_link,0.0012506790095957842,0.001812958850474489,-0.015884046323119027,0.9998714147602314,0.0,0.0,0.0,0.0,0.0,0.0,0.0,0.0,0.0,-0.007504915783575617,0.0031415926535897933,0.002617993877991494,0.0,0.0,0.0,0.0,0.0,0.0,0.0,0.0,0.0,0.114737805,0.14317708999999998,9.77526872,0.0,0.0,0.0,0.0,0.0,0.0,0.0,0.0,0.0
1704779922127524731,2983,1704779922127064394,imu_link,0.0008127144779001334,0.0017327759959713746,-0.01570868740188834,0.9998747792211958,0.0,0.0,0.0,0.0,0.0,0.0,0.0,0.0,0.0,-0.006632251157578452,-0.012042771838760872,0.005759586531581288,0.0,0.0,0.0,0.0,0.0,0.0,0.0,0.0,0.0,0.183384355,-0.07158854499999999,9.941001105,0.0,0.0,0.0,0.0,0.0,0.0,0.0,0.0,0.0
1704779922227513701,2984,1704779922227099021,imu_link,0.001061898541589974,0.0009436414185562961,-0.01544652365667501,0.9998796861719336,0.0,0.0,0.0,0.0,0.0,0.0,0.0,0.0,0.0,0.011868238913561443,-0.008028514559173916,0.0024434609527920616,0.0,0.0,0.0,0.0,0.0,0.0,0.0,0.0,0.0,0.36676871,-0.0980665,9.637975619999999,0.0,0.0,0.0,0.0,0.0,0.0,0.0,0.0,0.0
1704779922327680050,2985,1704779922327286230,imu_link,0.0016672479980223648,0.0005853273370455449,-0.015359272031546276,0.9998804780765961,0.0,0.0,0.0,0.0,0.0,0.0,0.0,0.0,0.0,-0.005934119456780722,-0.0143116998663535,0.00034906585039886593,0.0,0.0,0.0,0.0,0.0,0.0,0.0,0.0,0.0,0.40991796999999996,0.301064155,10.041028935,0.0,0.0,0.0,0.0,0.0,0.0,0.0,0.0,0.0
1704779922427894435,2986,1704779922427438529,imu_link,0.0009584863800823561,-0.00010191538088120158,-0.015270941455094767,0.9998829277791422,0.0,0.0,0.0,0.0,0.0,0.0,0.0,0.0,0.0,-0.024783675378319478,-0.008028514559173916,0.005235987755982988,0.0,0.0,0.0,0.0,0.0,0.0,0.0,0.0,0.0,0.40403397999999996,0.055897905,9.919426475,0.0,0.0,0.0,0.0,0.0,0.0,0.0,0.0,0.0
1704779922527973419,2987,1704779922527535862,imu_link,0.00016523752376933855,-0.0006134448462993344,-0.015183671558572658,0.999884519582128,0.0,0.0,0.0,0.0,0.0,0.0,0.0,0.0,0.0,-0.009773843811168246,-0.0027925268031909274,-0.0036651914291880917,0.0,0.0,0.0,0.0,0.0,0.0,0.0,0.0,0.0,0.599186315,-0.15396440499999997,9.911581154999999,0.0,0.0,0.0,0.0,0.0,0.0,0.0,0.0,0.0
1704779922626925429,2988,1704779922626443898,imu_link,0.00017984315286738163,0.0003463598275482861,-0.015271092062553037,0.9998833139114419,0.0,0.0,0.0,0.0,0.0,0.0,0.0,0.0,0.0,0.002967059728390361,0.024434609527920613,0.0013962634015954637,0.0,0.0,0.0,0.0,0.0,0.0,0.0,0.0,0.0,0.373633365,0.010787315,9.81841798,0.0,0.0,0.0,0.0,0.0,0.0,0.0,0.0,0.0
1704779922727374800,2989,1704779922726934780,imu_link,0.00017981292840854387,0.000346375519558907,-0.015183840986739703,0.9998846426784439,0.0,0.0,0.0,0.0,0.0,0.0,0.0,0.0,0.0,-0.00645771823237902,-0.015184364492350668,0.0022689280275926286,0.0,0.0,0.0,0.0,0.0,0.0,0.0,0.0,0.0,0.25497289999999995,0.06374322499999999,9.79488202,0.0,0.0,0.0,0.0,0.0,0.0,0.0,0.0,0.0
1704779922827526491,2990,1704779922827177533,imu_link,-0.0003543557046154063,-0.00034369451398288015,-0.015271152281153107,0.9998832672937984,0.0,0.0,0.0,0.0,0.0,0.0,0.0,0.0,0.0,-0.015184364492350668,-0.01117010721276371,-0.003316125578789226,0.0,0.0,0.0,0.0,0.0,0.0,0.0,0.0,0.0,0.152003075,0.04903325,9.713486825,0.0,0.0,0.0,0.0,0.0,0.0,0.0,0.0,0.0
1704779922927222601,2991,1704779922926750557,imu_link,-0.0004494566103151769,-0.0008659778762513799,-0.015096903571339934,0.9998855592384714,0.0,0.0,0.0,0.0,0.0,0.0,0.0,0.0,0.0,0.009250245035569947,-0.0020943951023931952,0.005759586531581288,0.0,0.0,0.0,0.0,0.0,0.0,0.0,0.0,0.0,0.067665885,-0.17259704,9.846857264999999,0.0,0.0,0.0,0.0,0.0,0.0,0.0,0.0,0.0
1704779923026496638,2992,1704779923026084980,imu_link,-0.00026835661517877487,-0.00043233029509363044,-0.015096642292508544,0.9998859097250721,0.0,0.0,0.0,0.0,0.0,0.0,0.0,0.0,0.0,-0.0005235987755982988,0.01291543646475804,-0.004014257279586958,0.0,0.0,0.0,0.0,0.0,0.0,0.0,0.0,0.0,-0.01569064,0.16082906,9.9047165,0.0,0.0,0.0,0.0,0.0,0.0,0.0,0.0,0.0
1704779923127427631,2993,1704779923126792328,imu_link,-0.0004323068763274117,0.0002683943398173491,-0.015183665042513866,0.9998845920360608,0.0,0.0,0.0,0.0,0.0,0.0,0.0,0.0,0.0,-0.010297442586766544,0.008552113334772213,0.002617993877991494,0.0,0.0,0.0,0.0,0.0,0.0,0.0,0.0,0.0,-0.097085835,-0.132389775,9.561483749999999,0.0,0.0,0.0,0.0,0.0,0.0,0.0,0.0,0.0
1704779923227245982,2994,1704779923226838507,imu_link,-0.0004231849151637889,0.0008791151541696206,-0.015008890842627498,0.9998868842357855,0.0,0.0,0.0,0.0,0.0,0.0,0.0,0.0,0.0,0.005235987755982988,0.017627825445142728,0.0005235987755982988,0.0,0.0,0.0,0.0,0.0,0.0,0.0,0.0,0.0,-0.0980665,-0.010787315,10.148902085,0.0,0.0,0.0,0.0,0.0,0.0,0.0,0.0,0.0
1704779923327493857,2995,1704779923327028586,imu_link,-0.00022530808714464536,0.0024470929771409577,-0.014921342605904863,0.9998856507156527,0.0,0.0,0.0,0.0,0.0,0.0,0.0,0.0,0.0,-0.005759586531581288,0.041189770347066175,0.0022689280275926286,0.0,0.0,0.0,0.0,0.0,0.0,0.0,0.0,0.0,-0.08629852,0.212804305,9.689950864999998,0.0,0.0,0.0,0.0,0.0,0.0,0.0,0.0,0.0
1704779923427986511,2996,1704779923427482973,imu_link,-0.0006491473259977957,0.003326053740144483,-0.014745124576024747,0.9998855420874453,0.0,0.0,0.0,0.0,0.0,0.0,0.0,0.0,0.0,-0.012042771838760872,-0.0031415926535897933,0.0013962634015954637,0.0,0.0,0.0,0.0,0.0,0.0,0.0,0.0,0.0,-0.191229675,-0.14121576,9.823321305,0.0,0.0,0.0,0.0,0.0,0.0,0.0,0.0,0.0
1704779923527331821,2997,1704779923526983637,imu_link,-0.0003822295422769678,0.003671218986022989,-0.0147458245689575,0.999884461680206,0.0,0.0,0.0,0.0,0.0,0.0,0.0,0.0,0.0,0.004014257279586958,0.021118483949131385,0.0020943951023931952,0.0,0.0,0.0,0.0,0.0,0.0,0.0,0.0,0.0,-0.07354987499999999,-0.09316317499999999,9.83018596,0.0,0.0,0.0,0.0,0.0,0.0,0.0,0.0,0.0
1704779923627253659,2998,1704779923626793869,imu_link,-0.00019524283449898487,0.004541190805023298,-0.01465887340755999,0.9998822215124785,0.0,0.0,0.0,0.0,0.0,0.0,0.0,0.0,0.0,-0.003316125578789226,0.010471975511965976,0.0010471975511965976,0.0,0.0,0.0,0.0,0.0,0.0,0.0,0.0,0.0,-0.13533177,0.19809432999999999,9.74388744,0.0,0.0,0.0,0.0,0.0,0.0,0.0,0.0,0.0
1704779923727033710,2999,1704779923726656463,imu_link,-0.000634846119613,0.004372963209798389,-0.014482521593358775,0.9998853587944309,0.0,0.0,0.0,0.0,0.0,0.0,0.0,0.0,0.0,-0.00890117918517108,-0.012391837689159739,0.00471238898038469,0.0,0.0,0.0,0.0,0.0,0.0,0.0,0.0,0.0,-0.26477955,-0.07453053999999999,9.987092359999998,0.0,0.0,0.0,0.0,0.0,0.0,0.0,0.0,0.0
1704779923827292417,3000,1704779923826892179,imu_link,-0.0006493495527649672,0.0034130272592630237,-0.014308742414203397,0.9998915888638176,0.0,0.0,0.0,0.0,0.0,0.0,0.0,0.0,0.0,0.011868238913561443,-0.01832595714594046,0.003316125578789226,0.0,0.0,0.0,0.0,0.0,0.0,0.0,0.0,0.0,-0.0058839899999999995,-0.20986230999999997,9.795862685,0.0,0.0,0.0,0.0,0.0,0.0,0.0,0.0,0.0
1704779923927015458,3001,1704779923926589074,imu_link,-5.394871543381197e-05,0.002357190442711095,-0.01413645491847287,0.9998972954184298,0.0,0.0,0.0,0.0,0.0,0.0,0.0,0.0,0.0,0.015184364492350668,-0.02809980095710871,0.0020943951023931952,0.0,0.0,0.0,0.0,0.0,0.0,0.0,0.0,0.0,0.22653361499999997,0.15886772999999998,9.762520075,0.0,0.0,0.0,0.0,0.0,0.0,0.0,0.0,0.0
1704779924026525142,3002,1704779924026037295,imu_link,-0.00015230939685246977,0.001573106041076441,-0.014136408025380886,0.999898826935691,0.0,0.0,0.0,0.0,0.0,0.0,0.0,0.0,0.0,-0.0019198621771937623,-0.019198621771937627,0.003490658503988659,0.0,0.0,0.0,0.0,0.0,0.0,0.0,0.0,0.0,0.3138128,0.02941995,9.988073024999998,0.0,0.0,0.0,0.0,0.0,0.0,0.0,0.0,0.0
1704779924126805208,3003,1704779924126332999,imu_link,-0.0005235470460018529,7.356272671058697e-06,-0.01404944534963221,0.9999011645806518,0.0,0.0,0.0,0.0,0.0,0.0,0.0,0.0,0.0,0.0036651914291880917,-0.035430183815484885,0.00034906585039886593,0.0,0.0,0.0,0.0,0.0,0.0,0.0,0.0,0.0,0.530539765,-0.07354987499999999,9.393790034999999,0.0,0.0,0.0,0.0,0.0,0.0,0.0,0.0,0.0
1704779924227121373,3004,1704779924226525443,imu_link,-0.0010630318553812852,-0.0011196386826829183,-0.014050618421343818,0.9999000932565576,0.0,0.0,0.0,0.0,0.0,0.0,0.0,0.0,0.0,-0.0031415926535897933,-0.01117010721276371,0.004014257279586958,0.0,0.0,0.0,0.0,0.0,0.0,0.0,0.0,0.0,0.5246557749999999,0.01765197,10.071429549999998,0.0,0.0,0.0,0.0,0.0,0.0,0.0,0.0,0.0
1704779924326991155,3005,1704779924326665279,imu_link,-0.0009790900170775095,-0.001382894332426012,-0.013789009431095187,0.9999034914455059,0.0,0.0,0.0,0.0,0.0,0.0,0.0,0.0,0.0,0.011519173063162576,-0.018500490071139894,0.0008726646259971648,0.0,0.0,0.0,0.0,0.0,0.0,0.0,0.0,0.0,0.43149259999999995,-0.220649625,9.61443966,0.0,0.0,0.0,0.0,0.0,0.0,0.0,0.0,0.0
1704779924427386383,3006,1704779924426910683,imu_link,-0.0009012746591377319,-0.0020822402899879737,-0.01370216874436491,0.9999035466239053,0.0,0.0,0.0,0.0,0.0,0.0,0.0,0.0,0.0,-0.004363323129985824,0.006108652381980153,0.0006981317007977319,0.0,0.0,0.0,0.0,0.0,0.0,0.0,0.0,0.0,0.48150651499999997,0.26870221,10.082216865,0.0,0.0,0.0,0.0,0.0,0.0,0.0,0.0,0.0
1704779924527087928,3007,1704779924526638816,imu_link,-0.0014152598161904443,-0.0013770011983208538,-0.013702299135620554,0.9999041693611197,0.0,0.0,0.0,0.0,0.0,0.0,0.0,0.0,0.0,-0.003316125578789226,0.009948376736367677,0.0006981317007977319,0.0,0.0,0.0,0.0,0.0,0.0,0.0,0.0,0.0,0.29125750499999997,-0.32754211,9.82822463,0.0,0.0,0.0,0.0,0.0,0.0,0.0,0.0,0.0
1704779924626939086,3008,1704779924626550744,imu_link,-0.0006250638911827897,-0.0010387842945654556,-0.013613753048884956,0.9999065936127461,0.0,0.0,0.0,0.0,0.0,0.0,0.0,0.0,0.0,0.033859387488689996,0.01658062789394613,0.0012217304763960308,0.0,0.0,0.0,0.0,0.0,0.0,0.0,0.0,0.0,0.246146915,-0.10591182,9.81645665,0.0,0.0,0.0,0.0,0.0,0.0,0.0,0.0,0.0
1704779924726650121,3009,1704779924726311782,imu_link,0.0005163296666463423,-0.0005307680974474813,-0.013787411125301012,0.9999046749482493,0.0,0.0,0.0,0.0,0.0,0.0,0.0,0.0,0.0,0.007330382858376183,-0.006108652381980153,-0.005934119456780722,0.0,0.0,0.0,0.0,0.0,0.0,0.0,0.0,0.0,-0.083356525,0.31773545999999997,10.20479999,0.0,0.0,0.0,0.0,0.0,0.0,0.0,0.0,0.0
1704779924826459833,3010,1704779924826022419,imu_link,0.00033934561291390296,-0.0007029076482069738,-0.01387469399060837,0.9999034371538383,0.0,0.0,0.0,0.0,0.0,0.0,0.0,0.0,0.0,-0.014835298641951801,0.014835298641951801,0.0010471975511965976,0.0,0.0,0.0,0.0,0.0,0.0,0.0,0.0,0.0,0.157887065,-0.055897905,9.549715769999999,0.0,0.0,0.0,0.0,0.0,0.0,0.0,0.0,0.0
1704779924927145901,3011,1704779924926786321,imu_link,8.725784730167603e-05,-1.2260455337159147e-06,-0.014049447222003507,0.9999012978376021,0.0,0.0,0.0,0.0,0.0,0.0,0.0,0.0,0.0,0.0005235987755982988,-0.012217304763960306,-0.0031415926535897933,0.0,0.0,0.0,0.0,0.0,0.0,0.0,0.0,0.0,-0.144157755,-0.122583125,10.030241619999998,0.0,0.0,0.0,0.0,0.0,0.0,0.0,0.0,0.0
1704779925026983881,3012,1704779925026386295,imu_link,-0.00018228115983112095,-0.0005209519424807798,-0.014834864862604233,0.9998898050121128,0.0,0.0,0.0,0.0,0.0,0.0,0.0,0.0,0.0,0.0022689280275926286,0.00942477796076938,-0.033859387488689996,0.0,0.0,0.0,0.0,0.0,0.0,0.0,0.0,0.0,-0.034323275,-0.30989014000000004,9.81645665,0.0,0.0,0.0,0.0,0.0,0.0,0.0,0.0,0.0
1704779925126312850,3013,1704779925125885030,imu_link,-1.0927576192028786e-05,-0.0006107674593031874,-0.01788868317573567,0.9998397980966435,0.0,0.0,0.0,0.0,0.0,0.0,0.0,0.0,0.0,0.009250245035569947,-0.019896753472735354,-0.07714355293814937,0.0,0.0,0.0,0.0,0.0,0.0,0.0,0.0,0.0,-0.02745862,-0.25105024,9.67524089,0.0,0.0,0.0,0.0,0.0,0.0,0.0,0.0,0.0
1704779925226650479,3014,1704779925226251126,imu_link,0.0003246329166210775,-0.0011416953380866681,-0.02146546884450523,0.9997688856893426,0.0,0.0,0.0,0.0,0.0,0.0,0.0,0.0,0.0,-0.0013962634015954637,-0.00471238898038469,-0.0635299847725936,0.0,0.0,0.0,0.0,0.0,0.0,0.0,0.0,0.0,-0.10493115499999998,-0.037265269999999996,10.082216865,0.0,0.0,0.0,0.0,0.0,0.0,0.0,0.0,0.0
1704779925326858247,3015,1704779925326363099,imu_link,0.0004803392653121645,-0.0017577255763315798,-0.0246929666167702,0.9996934215421505,0.0,0.0,0.0,0.0,0.0,0.0,0.0,0.0,0.0,0.012217304763960306,-0.0008726646259971648,-0.06963863715457375,0.0,0.0,0.0,0.0,0.0,0.0,0.0,0.0,0.0,-0.030400614999999995,-0.14513842,9.699757515,0.0,0.0,0.0,0.0,0.0,0.0,0.0,0.0,0.0
1704779925427110622,3016,1704779925426653900,imu_link,0.0009252254604711009,-0.001248217612902001,-0.02809489316231427,0.9996040530574275,0.0,0.0,0.0,0.0,0.0,0.0,0.0,0.0,0.0,0.0012217304763960308,-0.0006981317007977319,-0.06161012259539983,0.0,0.0,0.0,0.0,0.0,0.0,0.0,0.0,0.0,-0.051975244999999996,0.083356525,9.686028205,0.0,0.0,0.0,0.0,0.0,0.0,0.0,0.0,0.0
1704779925527191960,3017,1704779925526832455,imu_link,0.0007246213099496424,-0.0020298594172497545,-0.030100730298254035,0.9995445465962061,0.0,0.0,0.0,0.0,0.0,0.0,0.0,0.0,0.0,-0.015707963267948967,-0.010122909661567111,-0.016929693744344998,0.0,0.0,0.0,0.0,0.0,0.0,0.0,0.0,0.0,0.038245934999999995,0.287334845,9.95767241,0.0,0.0,0.0,0.0,0.0,0.0,0.0,0.0,0.0
1704779925626239191,3018,1704779925625855261,imu_link,0.00021398263222597913,-0.00157802065404434,-0.030363590282953882,0.9995376513405472,0.0,0.0,0.0,0.0,0.0,0.0,0.0,0.0,0.0,-0.0005235987755982988,0.021642082724729686,-0.008203047484373348,0.0,0.0,0.0,0.0,0.0,0.0,0.0,0.0,0.0,-0.31577413,-0.257914895,9.640917615,0.0,0.0,0.0,0.0,0.0,0.0,0.0,0.0,0.0
1704779925726468345,3019,1704779925726103461,imu_link,0.0008369029975651884,-0.0011610955554897553,-0.031148057206535705,0.9995137567751342,0.0,0.0,0.0,0.0,0.0,0.0,0.0,0.0,0.0,0.005759586531581288,0.0010471975511965976,-0.01937315469713706,0.0,0.0,0.0,0.0,0.0,0.0,0.0,0.0,0.0,-0.56486304,0.097085835,9.821359975,0.0,0.0,0.0,0.0,0.0,0.0,0.0,0.0,0.0
1704779925826909841,3020,1704779925826386350,imu_link,0.0013248812395005667,0.0004819920818013957,-0.031585883173198305,0.9995000472023517,0.0,0.0,0.0,0.0,0.0,0.0,0.0,0.0,0.0,-0.0008726646259971648,0.020420352248333655,0.002617993877991494,0.0,0.0,0.0,0.0,0.0,0.0,0.0,0.0,0.0,-1.515127425,0.030400614999999995,9.856663915,0.0,0.0,0.0,0.0,0.0,0.0,0.0,0.0,0.0
1704779925926778102,3021,1704779925926350048,imu_link,0.0011908875245531746,-0.0009979360028209941,-0.031496801519625306,0.9995026450213484,0.0,0.0,0.0,0.0,0.0,0.0,0.0,0.0,0.0,-0.0012217304763960308,-0.021467549799530253,-0.004363323129985824,0.0,0.0,0.0,0.0,0.0,0.0,0.0,0.0,0.0,-0.51386846,-0.024516625,9.558541755,0.0,0.0,0.0,0.0,0.0,0.0,0.0,0.0,0.0
1704779926026198473,3022,1704779926025621980,imu_link,0.0016460692014177033,-0.0004018360363131493,-0.03193347391378432,0.9994885603286221,0.0,0.0,0.0,0.0,0.0,0.0,0.0,0.0,0.0,0.005934119456780722,0.01308996938995747,-0.007504915783575617,0.0,0.0,0.0,0.0,0.0,0.0,0.0,0.0,0.0,-0.392266,0.02549729,9.599729685,0.0,0.0,0.0,0.0,0.0,0.0,0.0,0.0,0.0
1704779926126113891,3023,1704779926125777409,imu_link,0.0016376507736255241,-0.0006636444244067265,-0.03202025248258423,0.9994856582797841,0.0,0.0,0.0,0.0,0.0,0.0,0.0,0.0,0.0,-0.009948376736367677,-0.01308996938995747,0.0013962634015954637,0.0,0.0,0.0,0.0,0.0,0.0,0.0,0.0,0.0,-0.00784532,0.181423025,10.109675484999999,0.0,0.0,0.0,0.0,0.0,0.0,0.0,0.0,0.0
1704779926225973365,3024,1704779926225536637,imu_link,0.001294269791574902,-0.00047824983805607536,-0.03219514571052945,0.99948064950527,0.0,0.0,0.0,0.0,0.0,0.0,0.0,0.0,0.0,-0.0041887902047863905,0.011868238913561443,-0.007679448708775049,0.0,0.0,0.0,0.0,0.0,0.0,0.0,0.0,0.0,0.273605535,-0.14611908499999998,9.638956284999999,0.0,0.0,0.0,0.0,0.0,0.0,0.0,0.0,0.0
1704779926326594651,3025,1704779926326145881,imu_link,0.0012941027535845575,-0.0004787016441885996,-0.032544066838472586,0.9994693491330348,0.0,0.0,0.0,0.0,0.0,0.0,0.0,0.0,0.0,0.003316125578789226,-0.0020943951023931952,-0.004886921905584123,0.0,0.0,0.0,0.0,0.0,0.0,0.0,0.0,0.0,0.277528195,0.04511059,9.890987189999999,0.0,0.0,0.0,0.0,0.0,0.0,0.0,0.0,0.0
1704779926426678273,3026,1704779926426254819,imu_link,0.0013926600540549235,-0.00013290411485613224,-0.032718944329299074,0.9994636129026641,0.0,0.0,0.0,0.0,0.0,0.0,0.0,0.0,0.0,-0.006108652381980153,0.004363323129985824,-0.005759586531581288,0.0,0.0,0.0,0.0,0.0,0.0,0.0,0.0,0.0,0.21770762999999999,0.11375713999999998,9.746829434999999,0.0,0.0,0.0,0.0,0.0,0.0,0.0,0.0,0.0
1704779926526615277,3027,1704779926526111594,imu_link,0.0009478630417327659,-0.00038061772314278673,-0.03306760189982086,0.999452595369284,0.0,0.0,0.0,0.0,0.0,0.0,0.0,0.0,0.0,-0.014660765716752367,-0.005759586531581288,-0.006806784082777885,0.0,0.0,0.0,0.0,0.0,0.0,0.0,0.0,0.0,0.33244543499999996,0.03530394,9.65170493,0.0,0.0,0.0,0.0,0.0,0.0,0.0,0.0,0.0
1704779926626577132,3028,1704779926626047303,imu_link,0.0006919266349552764,-0.00019770435250252095,-0.033329462932511544,0.9994441600465486,0.0,0.0,0.0,0.0,0.0,0.0,0.0,0.0,0.0,0.00471238898038469,0.014486232791552934,-0.004014257279586958,0.0,0.0,0.0,0.0,0.0,0.0,0.0,0.0,0.0,0.43149259999999995,-0.07943386499999999,10.062603565,0.0,0.0,0.0,0.0,0.0,0.0,0.0,0.0,0.0
