%time,field.header.seq,field.header.stamp,field.header.frame_id,field.status.status,field.status.service,field.latitude,field.longitude,field.altitude,field.position_covariance0,field.position_covariance1,field.position_covariance2,field.position_covariance3,field.position_covariance4,field.position_covariance5,field.position_covariance6,field.position_covariance7,field.position_covariance8,field.position_covariance_type
1704780814147497341,11906,1704780814147197404,gnss_link,0,1,36.90414751,118.16648417,4.73403106310942,0.0,0.0,0.0,0.0,0.0,0.0,0.0,0.0,0.0,2
1704780814247258628,11907,1704780814246774230,gnss_link,0,1,36.90414751,118.16648417,4.73403106310942,0.0,0.0,0.0,0.0,0.0,0.0,0.0,0.0,0.0,2
1704780814347819939,11908,1704780814347594402,gnss_link,0,1,36.90414751,118.16648418,4.73403106310942,0.0,0.0,0.0,0.0,0.0,0.0,0.0,0.0,0.0,2
1704780814447641682,11909,1704780814447227293,gnss_link,0,1,36.90414751,118.16648417,4.73403106310942,0.0,0.0,0.0,0.0,0.0,0.0,0.0,0.0,0.0,2
1704780814548315228,11910,1704780814547991274,gnss_link,0,1,36.90414751,118.16648418,4.73403106310942,0.0,0.0,0.0,0.0,0.0,0.0,0.0,0.0,0.0,2
1704780814647745057,11911,1704780814647491500,gnss_link,0,1,36.90414751,118.16648417,4.73403106310942,0.0,0.0,0.0,0.0,0.0,0.0,0.0,0.0,0.0,2
1704780814747720503,11912,1704780814747282417,gnss_link,0,1,36.90414751,118.16648418,4.73403106310942,0.0,0.0,0.0,0.0,0.0,0.0,0.0,0.0,0.0,2
1704780814846953076,11913,1704780814846711465,gnss_link,0,1,36.90414751,118.16648417,4.73403106310942,0.0,0.0,0.0,0.0,0.0,0.0,0.0,0.0,0.0,2
1704780814948222917,11914,1704780814947717354,gnss_link,0,1,36.9041475,118.16648419,4.73403106310942,0.0,0.0,0.0,0.0,0.0,0.0,0.0,0.0,0.0,2
1704780815047525567,11915,1704780815047135165,gnss_link,0,1,36.9041475,118.16648418,4.73403106310942,0.0,0.0,0.0,0.0,0.0,0.0,0.0,0.0,0.0,2
1704780815147181783,11916,1704780815146953298,gnss_link,0,1,36.9041475,118.1664842,4.73403106310942,0.0,0.0,0.0,0.0,0.0,0.0,0.0,0.0,0.0,2
1704780815246783138,11917,1704780815246527246,gnss_link,0,1,36.9041475,118.16648419,4.73403106310942,0.0,0.0,0.0,0.0,0.0,0.0,0.0,0.0,0.0,2
1704780815347578851,11918,1704780815347259497,gnss_link,0,1,36.9041475,118.1664842,4.73403106310942,0.0,0.0,0.0,0.0,0.0,0.0,0.0,0.0,0.0,2
1704780815447206597,11919,1704780815446843946,gnss_link,0,1,36.90414751,118.16648419,4.73403106310942,0.0,0.0,0.0,0.0,0.0,0.0,0.0,0.0,0.0,2
1704780815547984071,11920,1704780815547718497,gnss_link,0,1,36.90414751,118.1664842,4.73403106310942,0.0,0.0,0.0,0.0,0.0,0.0,0.0,0.0,0.0,2
1704780815647793535,11921,1704780815647228742,gnss_link,0,1,36.90414751,118.1664842,4.73403106310942,0.0,0.0,0.0,0.0,0.0,0.0,0.0,0.0,0.0,2
1704780815747163461,11922,1704780815746873121,gnss_link,0,1,36.90414751,118.16648421,4.73403106310942,0.0,0.0,0.0,0.0,0.0,0.0,0.0,0.0,0.0,2
1704780815846553517,11923,1704780815846292828,gnss_link,0,1,36.90414751,118.1664842,4.733681997259021,0.0,0.0,0.0,0.0,0.0,0.0,0.0,0.0,0.0,2
1704780815947554717,11924,1704780815947259462,gnss_link,0,1,36.90414751,118.16648421,4.733681997259021,0.0,0.0,0.0,0.0,0.0,0.0,0.0,0.0,0.0,2
1704780816047859434,11925,1704780816047451135,gnss_link,0,1,36.90414752,118.16648421,4.73403106310942,0.0,0.0,0.0,0.0,0.0,0.0,0.0,0.0,0.0,2
1704780816146536676,11926,1704780816146264148,gnss_link,0,1,36.90414751,118.16648419,4.734380128959818,0.0,0.0,0.0,0.0,0.0,0.0,0.0,0.0,0.0,2
1704780816246795944,11927,1704780816246188716,gnss_link,0,1,36.90414752,118.16648412,4.734554661885017,0.0,0.0,0.0,0.0,0.0,0.0,0.0,0.0,0.0,2
1704780816347447247,11928,1704780816347030397,gnss_link,0,1,36.90414752,118.166484,4.735078260660616,0.0,0.0,0.0,0.0,0.0,0.0,0.0,0.0,0.0,2
1704780816447141674,11929,1704780816446831677,gnss_link,0,1,36.90414752,118.16648381,4.736125458211813,0.0,0.0,0.0,0.0,0.0,0.0,0.0,0.0,0.0,2
1704780816547187835,11930,1704780816546645572,gnss_link,0,1,36.90414753,118.16648358,4.737696254538608,0.0,0.0,0.0,0.0,0.0,0.0,0.0,0.0,0.0,2
1704780816647787282,11931,1704780816647272551,gnss_link,0,1,36.90414754,118.16648326,4.740663314266998,0.0,0.0,0.0,0.0,0.0,0.0,0.0,0.0,0.0,2
1704780816746925905,11932,1704780816746477245,gnss_link,0,1,36.90414754,118.16648289,4.744153972770986,0.0,0.0,0.0,0.0,0.0,0.0,0.0,0.0,0.0,2
1704780816847342637,11933,1704780816846695632,gnss_link,0,1,36.90414755,118.16648245,4.748517295900973,0.0,0.0,0.0,0.0,0.0,0.0,0.0,0.0,0.0,2
1704780816947246336,11934,1704780816946679757,gnss_link,0,1,36.90414757,118.16648195,4.753578750731756,0.0,0.0,0.0,0.0,0.0,0.0,0.0,0.0,0.0,2
1704780817047437085,11935,1704780817046938750,gnss_link,0,1,36.9041476,118.16648138,4.757942073861742,0.0,0.0,0.0,0.0,0.0,0.0,0.0,0.0,0.0,2
1704780817146516017,11936,1704780817146021913,gnss_link,0,1,36.90414762,118.16648076,4.760560067739733,0.0,0.0,0.0,0.0,0.0,0.0,0.0,0.0,0.0,2
1704780817246835521,11937,1704780817246259844,gnss_link,0,1,36.90414766,118.16648008,4.763003528692525,0.0,0.0,0.0,0.0,0.0,0.0,0.0,0.0,0.0,2
1704780817346884226,11938,1704780817346448926,gnss_link,0,1,36.90414769,118.16647935,4.7654469896453175,0.0,0.0,0.0,0.0,0.0,0.0,0.0,0.0,0.0,2
1704780817446847975,11939,1704780817446494511,gnss_link,0,1,36.90414773,118.16647856,4.76771591767291,0.0,0.0,0.0,0.0,0.0,0.0,0.0,0.0,0.0,2
1704780817547116068,11940,1704780817546666447,gnss_link,0,1,36.90414777,118.16647773,4.771730174952497,0.0,0.0,0.0,0.0,0.0,0.0,0.0,0.0,0.0,2
1704780817647427254,11941,1704780817646950721,gnss_link,0,1,36.90414782,118.16647684,4.776791629783281,0.0,0.0,0.0,0.0,0.0,0.0,0.0,0.0,0.0,2
1704780817746452685,11942,1704780817746026502,gnss_link,0,1,36.90414787,118.1664759,4.782725749240061,0.0,0.0,0.0,0.0,0.0,0.0,0.0,0.0,0.0,2
1704780817846911007,11943,1704780817846353825,gnss_link,0,1,36.90414793,118.1664749,4.78918346747244,0.0,0.0,0.0,0.0,0.0,0.0,0.0,0.0,0.0,2
1704780817946755599,11944,1704780817946415241,gnss_link,0,1,36.904148,118.16647386,4.794419455228423,0.0,0.0,0.0,0.0,0.0,0.0,0.0,0.0,0.0,2
1704780818046924708,11945,1704780818046499698,gnss_link,0,1,36.90414808,118.16647277,4.794943054004022,0.0,0.0,0.0,0.0,0.0,0.0,0.0,0.0,0.0,2
1704780818145915486,11946,1704780818145429179,gnss_link,0,1,36.90414815,118.16647162,4.794593988153622,0.0,0.0,0.0,0.0,0.0,0.0,0.0,0.0,0.0,2
1704780818246691908,11947,1704780818246278162,gnss_link,0,1,36.90414823,118.16647042,4.794419455228423,0.0,0.0,0.0,0.0,0.0,0.0,0.0,0.0,0.0,2
1704780818346688276,11948,1704780818346143523,gnss_link,0,1,36.90414831,118.16646917,4.794593988153622,0.0,0.0,0.0,0.0,0.0,0.0,0.0,0.0,0.0,2
1704780818447010541,11949,1704780818446303138,gnss_link,0,1,36.90414839,118.16646789,4.797037449106415,0.0,0.0,0.0,0.0,0.0,0.0,0.0,0.0,0.0,2
1704780818546973144,11950,1704780818546526437,gnss_link,0,1,36.90414847,118.1664666,4.801226239311201,0.0,0.0,0.0,0.0,0.0,0.0,0.0,0.0,0.0,2
1704780818647187122,11951,1704780818646649678,gnss_link,0,1,36.90414858,118.16646532,4.8076839575435795,0.0,0.0,0.0,0.0,0.0,0.0,0.0,0.0,0.0,2
1704780818746419526,11952,1704780818745835571,gnss_link,0,1,36.90414868,118.16646405,4.815537939177555,0.0,0.0,0.0,0.0,0.0,0.0,0.0,0.0,0.0,2
1704780818846487607,11953,1704780818845996027,gnss_link,0,1,36.90414879,118.1664628,4.823391920811529,0.0,0.0,0.0,0.0,0.0,0.0,0.0,0.0,0.0,2
1704780818947048101,11954,1704780818946455324,gnss_link,0,1,36.90414891,118.16646157,4.832118567071501,0.0,0.0,0.0,0.0,0.0,0.0,0.0,0.0,0.0,2
1704780819046921101,11955,1704780819046437521,gnss_link,0,1,36.90414903,118.16646037,4.840147081630675,0.0,0.0,0.0,0.0,0.0,0.0,0.0,0.0,0.0,2
1704780819146186108,11956,1704780819145679293,gnss_link,0,1,36.90414915,118.1664593,4.847128398638652,0.0,0.0,0.0,0.0,0.0,0.0,0.0,0.0,0.0,2
1704780819246426237,11957,1704780819245751858,gnss_link,0,1,36.90414926,118.16645835,4.8537606497962305,0.0,0.0,0.0,0.0,0.0,0.0,0.0,0.0,0.0,2
1704780819346416307,11958,1704780819345871449,gnss_link,0,1,36.90414937,118.16645745,4.856553176599421,0.0,0.0,0.0,0.0,0.0,0.0,0.0,0.0,0.0,2
1704780819446545936,11959,1704780819446070152,gnss_link,0,1,36.90414948,118.16645652,4.854458781497028,0.0,0.0,0.0,0.0,0.0,0.0,0.0,0.0,0.0,2
1704780819546721261,11960,1704780819546176458,gnss_link,0,1,36.9041496,118.16645553,4.854982380272626,0.0,0.0,0.0,0.0,0.0,0.0,0.0,0.0,0.0,2
1704780819645386933,11961,1704780819644882238,gnss_link,0,1,36.90414973,118.16645446,4.854109715646629,0.0,0.0,0.0,0.0,0.0,0.0,0.0,0.0,0.0,2
1704780819746350200,11962,1704780819745886513,gnss_link,0,1,36.90414987,118.16645332,4.853586116871031,0.0,0.0,0.0,0.0,0.0,0.0,0.0,0.0,0.0,2
1704780819846312058,11963,1704780819845651538,gnss_link,0,1,36.90415001,118.16645211,4.853411583945832,0.0,0.0,0.0,0.0,0.0,0.0,0.0,0.0,0.0,2
1704780819946354439,11964,1704780819945864309,gnss_link,0,1,36.90415015,118.16645087,4.854458781497028,0.0,0.0,0.0,0.0,0.0,0.0,0.0,0.0,0.0,2
1704780820046815925,11965,1704780820046207801,gnss_link,0,1,36.90415031,118.16644962,4.85690224244982,0.0,0.0,0.0,0.0,0.0,0.0,0.0,0.0,0.0,2
1704780820145734221,11966,1704780820145217965,gnss_link,0,1,36.90415047,118.16644836,4.860567433879009,0.0,0.0,0.0,0.0,0.0,0.0,0.0,0.0,0.0,2
1704780820246339136,11967,1704780820245650484,gnss_link,0,1,36.90415063,118.16644712,4.867897816737385,0.0,0.0,0.0,0.0,0.0,0.0,0.0,0.0,0.0,2
1704780820346079846,11968,1704780820345581319,gnss_link,0,1,36.90415081,118.16644587,4.874879133745362,0.0,0.0,0.0,0.0,0.0,0.0,0.0,0.0,0.0,2
1704780820446317647,11969,1704780820445757256,gnss_link,0,1,36.90415099,118.16644459,4.885002043406929,0.0,0.0,0.0,0.0,0.0,0.0,0.0,0.0,0.0,2
1704780820545363716,11970,1704780820544875405,gnss_link,0,1,36.9041512,118.16644326,4.899488276198483,0.0,0.0,0.0,0.0,0.0,0.0,0.0,0.0,0.0,2
1704780820645685588,11971,1704780820645159038,gnss_link,0,1,36.90415143,118.16644189,4.9143235748404335,0.0,0.0,0.0,0.0,0.0,0.0,0.0,0.0,0.0,2
1704780820745788496,11972,1704780820745242287,gnss_link,0,1,36.90415171,118.16644046,4.930031538108383,0.0,0.0,0.0,0.0,0.0,0.0,0.0,0.0,0.0,2
1704780820846135376,11973,1704780820845376676,gnss_link,0,1,36.90415198,118.16643899,4.944692303825135,0.0,0.0,0.0,0.0,0.0,0.0,0.0,0.0,0.0,2
1704780820946051283,11974,1704780820945578260,gnss_link,0,1,36.9041523,118.16643747,4.957433207364694,0.0,0.0,0.0,0.0,0.0,0.0,0.0,0.0,0.0,2
1704780821046318611,11975,1704780821045772605,gnss_link,0,1,36.90415263,118.16643595,4.97087224260505,0.0,0.0,0.0,0.0,0.0,0.0,0.0,0.0,0.0,2
1704780821145577966,11976,1704780821144994969,gnss_link,0,1,36.90415298,118.1664344,4.981693283967415,0.0,0.0,0.0,0.0,0.0,0.0,0.0,0.0,0.0,2
1704780821245823522,11977,1704780821245221384,gnss_link,0,1,36.90415333,118.16643287,4.989198199750991,0.0,0.0,0.0,0.0,0.0,0.0,0.0,0.0,0.0,2
1704780821345796203,11978,1704780821345268137,gnss_link,0,1,36.90415371,118.16643138,4.997401247235364,0.0,0.0,0.0,0.0,0.0,0.0,0.0,0.0,0.0,2
1704780821446079560,11979,1704780821445462643,gnss_link,0,1,36.90415408,118.16642989,5.005080695944138,0.0,0.0,0.0,0.0,0.0,0.0,0.0,0.0,0.0,2
1704780821545333875,11980,1704780821544736980,gnss_link,0,1,36.90415444,118.16642843,5.012760144652914,0.0,0.0,0.0,0.0,0.0,0.0,0.0,0.0,0.0,2
1704780821645827455,11981,1704780821644895040,gnss_link,0,1,36.90415482,118.16642696,5.022359455538883,0.0,0.0,0.0,0.0,0.0,0.0,0.0,0.0,0.0,2
1704780821745400618,11982,1704780821744904897,gnss_link,0,1,36.90415521,118.16642552,5.034402227377643,0.0,0.0,0.0,0.0,0.0,0.0,0.0,0.0,0.0,2
1704780821845777275,11983,1704780821845220231,gnss_link,0,1,36.90415562,118.16642406,5.047841262618,0.0,0.0,0.0,0.0,0.0,0.0,0.0,0.0,0.0,2
1704780821945880481,11984,1704780821945375598,gnss_link,0,1,36.90415604,118.16642263,5.061454830783556,0.0,0.0,0.0,0.0,0.0,0.0,0.0,0.0,0.0,2
1704780822046056237,11985,1704780822045519526,gnss_link,0,1,36.90415649,118.16642119,5.074719333098712,0.0,0.0,0.0,0.0,0.0,0.0,0.0,0.0,0.0,2
1704780822145265439,11986,1704780822144664410,gnss_link,0,1,36.90415693,118.16641977,5.086762104937473,0.0,0.0,0.0,0.0,0.0,0.0,0.0,0.0,0.0,2
1704780822245388776,11987,1704780822244809723,gnss_link,0,1,36.90415739,118.16641834,5.10020114017783,0.0,0.0,0.0,0.0,0.0,0.0,0.0,0.0,0.0,2
1704780822345524340,11988,1704780822345050589,gnss_link,0,1,36.90415789,118.16641694,5.113116576642588,0.0,0.0,0.0,0.0,0.0,0.0,0.0,0.0,0.0,2
1704780822445971475,11989,1704780822445204311,gnss_link,0,1,36.90415839,118.16641555,5.128824539910537,0.0,0.0,0.0,0.0,0.0,0.0,0.0,0.0,0.0,2
1704780822544963807,11990,1704780822544396222,gnss_link,0,1,36.90415889,118.16641419,5.150292089710066,0.0,0.0,0.0,0.0,0.0,0.0,0.0,0.0,0.0,2
1704780822645254711,11991,1704780822644573598,gnss_link,0,1,36.90415944,118.16641283,5.168967112706407,0.0,0.0,0.0,0.0,0.0,0.0,0.0,0.0,0.0,2
1704780822745255620,11992,1704780822744741644,gnss_link,0,1,36.90416001,118.1664115,5.185896806450751,0.0,0.0,0.0,0.0,0.0,0.0,0.0,0.0,0.0,2
1704780822845325212,11993,1704780822844783218,gnss_link,0,1,36.90416058,118.16641014,5.201081170943102,0.0,0.0,0.0,0.0,0.0,0.0,0.0,0.0,0.0,2
1704780822945538870,11994,1704780822944999288,gnss_link,0,1,36.90416118,118.16640881,5.214345673258259,0.0,0.0,0.0,0.0,0.0,0.0,0.0,0.0,0.0,2
1704780823045653001,11995,1704780823045179893,gnss_link,0,1,36.9041618,118.16640746,5.228657373124612,0.0,0.0,0.0,0.0,0.0,0.0,0.0,0.0,0.0,2
1704780823145004986,11996,1704780823144455972,gnss_link,0,1,36.90416242,118.16640615,5.235464157207391,0.0,0.0,0.0,0.0,0.0,0.0,0.0,0.0,0.0,2
1704780823245164984,11997,1704780823244561658,gnss_link,0,1,36.90416303,118.1664048,5.23528962428219,0.0,0.0,0.0,0.0,0.0,0.0,0.0,0.0,0.0,2
1704780823345591782,11998,1704780823345038305,gnss_link,0,1,36.90416365,118.16640348,5.23563869013259,0.0,0.0,0.0,0.0,0.0,0.0,0.0,0.0,0.0,2
1704780823445562041,11999,1704780823444962252,gnss_link,0,1,36.90416427,118.16640216,5.232846163329398,0.0,0.0,0.0,0.0,0.0,0.0,0.0,0.0,0.0,2
1704780823544587660,12000,1704780823544038821,gnss_link,0,1,36.90416488,118.16640086,5.230577235301806,0.0,0.0,0.0,0.0,0.0,0.0,0.0,0.0,0.0,2
1704780823646038168,12001,1704780823645530044,gnss_link,0,1,36.90416549,118.16639954,5.229180971900211,0.0,0.0,0.0,0.0,0.0,0.0,0.0,0.0,0.0,2
1704780823745370344,12002,1704780823744830450,gnss_link,0,1,36.90416609,118.16639824,5.227261109723017,0.0,0.0,0.0,0.0,0.0,0.0,0.0,0.0,0.0,2
1704780823845520777,12003,1704780823844938375,gnss_link,0,1,36.9041667,118.16639692,5.22638844509702,0.0,0.0,0.0,0.0,0.0,0.0,0.0,0.0,0.0,2
1704780823944880588,12004,1704780823944248972,gnss_link,0,1,36.90416729,118.16639562,5.227784708498615,0.0,0.0,0.0,0.0,0.0,0.0,0.0,0.0,0.0,2
1704780824044821001,12005,1704780824044242952,gnss_link,0,1,36.9041679,118.1663943,5.23860574986098,0.0,0.0,0.0,0.0,0.0,0.0,0.0,0.0,0.0,2
1704780824145182136,12006,1704780824144571970,gnss_link,0,1,36.90416855,118.16639302,5.252393850951735,0.0,0.0,0.0,0.0,0.0,0.0,0.0,0.0,0.0,2
1704780824245335394,12007,1704780824244772789,gnss_link,0,1,36.9041692,118.16639173,5.266705550818089,0.0,0.0,0.0,0.0,0.0,0.0,0.0,0.0,0.0,2
1704780824344205429,12008,1704780824343722943,gnss_link,0,1,36.90416985,118.16639046,5.282238981160838,0.0,0.0,0.0,0.0,0.0,0.0,0.0,0.0,0.0,2
1704780824444543665,12009,1704780824444007837,gnss_link,0,1,36.90417054,118.16638919,5.296027082251594,0.0,0.0,0.0,0.0,0.0,0.0,0.0,0.0,0.0,2
1704780824544798310,12010,1704780824544211384,gnss_link,0,1,36.90417125,118.16638795,5.30946611749195,0.0,0.0,0.0,0.0,0.0,0.0,0.0,0.0,0.0,2
1704780824644918314,12011,1704780824644307969,gnss_link,0,1,36.90417195,118.16638671,5.325174080759899,0.0,0.0,0.0,0.0,0.0,0.0,0.0,0.0,0.0,2
1704780824745651018,12012,1704780824745043672,gnss_link,0,1,36.90417267,118.16638548,5.341405642803447,0.0,0.0,0.0,0.0,0.0,0.0,0.0,0.0,0.0,2
1704780824845354393,12013,1704780824844752422,gnss_link,0,1,36.90417342,118.16638429,5.357288138996594,0.0,0.0,0.0,0.0,0.0,0.0,0.0,0.0,0.0,2
1704780824944857068,12014,1704780824943976333,gnss_link,0,1,36.90417418,118.1663831,5.3722979705637455,0.0,0.0,0.0,0.0,0.0,0.0,0.0,0.0,0.0,2
1704780825044536986,12015,1704780825043988411,gnss_link,0,1,36.90417494,118.16638192,5.386958736280498,0.0,0.0,0.0,0.0,0.0,0.0,0.0,0.0,0.0,2
1704780825144705690,12016,1704780825144222002,gnss_link,0,1,36.90417573,118.16638076,5.403364831249244,0.0,0.0,0.0,0.0,0.0,0.0,0.0,0.0,0.0,2
1704780825244822689,12017,1704780825244279093,gnss_link,0,1,36.90417653,118.16637961,5.419770926217991,0.0,0.0,0.0,0.0,0.0,0.0,0.0,0.0,0.0,2
1704780825343962006,12018,1704780825343451871,gnss_link,0,1,36.90417729,118.1663785,5.4415875418679205,0.0,0.0,0.0,0.0,0.0,0.0,0.0,0.0,0.0,2
1704780825444521265,12019,1704780825444053696,gnss_link,0,1,36.90417804,118.16637752,5.466196684321041,0.0,0.0,0.0,0.0,0.0,0.0,0.0,0.0,0.0,2
1704780825544305135,12020,1704780825543801108,gnss_link,0,1,36.90417872,118.16637664,5.482951845140186,0.0,0.0,0.0,0.0,0.0,0.0,0.0,0.0,0.0,2
1704780825644862784,12021,1704780825644195215,gnss_link,0,1,36.9041794,118.16637579,5.50057967058533,0.0,0.0,0.0,0.0,0.0,0.0,0.0,0.0,0.0,2
1704780825744912330,12022,1704780825744306478,gnss_link,0,1,36.90418007,118.16637497,5.5183820289556715,0.0,0.0,0.0,0.0,0.0,0.0,0.0,0.0,0.0,2
1704780825844842990,12023,1704780825844330679,gnss_link,0,1,36.90418084,118.16637411,5.531821064196027,0.0,0.0,0.0,0.0,0.0,0.0,0.0,0.0,0.0,2
1704780825944061325,12024,1704780825943527316,gnss_link,0,1,36.90418161,118.1663732,5.542991171408791,0.0,0.0,0.0,0.0,0.0,0.0,0.0,0.0,0.0,2
1704780826044399631,12025,1704780826043825333,gnss_link,0,1,36.9041825,118.16637226,5.552066883519162,0.0,0.0,0.0,0.0,0.0,0.0,0.0,0.0,0.0,2
1704780826144487283,12026,1704780826143930696,gnss_link,0,1,36.90418338,118.16637128,5.560793529779134,0.0,0.0,0.0,0.0,0.0,0.0,0.0,0.0,0.0,2
1704780826244615292,12027,1704780826244069205,gnss_link,0,1,36.90418431,118.16637026,5.570043774814703,0.0,0.0,0.0,0.0,0.0,0.0,0.0,0.0,0.0,2
1704780826343804156,12028,1704780826343283058,gnss_link,0,1,36.90418526,118.16636923,5.578770421074675,0.0,0.0,0.0,0.0,0.0,0.0,0.0,0.0,0.0,2
1704780826444042892,12029,1704780826443437945,gnss_link,0,1,36.90418623,118.16636821,5.5888933307362425,0.0,0.0,0.0,0.0,0.0,0.0,0.0,0.0,0.0,2
1704780826544370862,12030,1704780826543729136,gnss_link,0,1,36.90418717,118.16636716,5.598318108697011,0.0,0.0,0.0,0.0,0.0,0.0,0.0,0.0,0.0,2
1704780826644396780,12031,1704780826643820217,gnss_link,0,1,36.90418815,118.16636618,5.608615551283778,0.0,0.0,0.0,0.0,0.0,0.0,0.0,0.0,0.0,2
1704780826744440918,12032,1704780826743905725,gnss_link,0,1,36.90418912,118.16636523,5.6208328560477385,0.0,0.0,0.0,0.0,0.0,0.0,0.0,0.0,0.0,2
1704780826844643455,12033,1704780826844148922,gnss_link,0,1,36.90419013,118.16636431,5.6320029632605015,0.0,0.0,0.0,0.0,0.0,0.0,0.0,0.0,0.0,2
1704780826943765677,12034,1704780826943292007,gnss_link,0,1,36.9041911,118.16636337,5.645616531426058,0.0,0.0,0.0,0.0,0.0,0.0,0.0,0.0,0.0,2
1704780827043925136,12035,1704780827043390318,gnss_link,0,1,36.90419213,118.16636249,5.660800895918408,0.0,0.0,0.0,0.0,0.0,0.0,0.0,0.0,0.0,2
1704780827144292681,12036,1704780827143687503,gnss_link,0,1,36.90419315,118.16636161,5.675112595784762,0.0,0.0,0.0,0.0,0.0,0.0,0.0,0.0,0.0,2
1704780827244353990,12037,1704780827243858690,gnss_link,0,1,36.90419417,118.16636074,5.690122427351913,0.0,0.0,0.0,0.0,0.0,0.0,0.0,0.0,0.0,2
1704780827343678179,12038,1704780827342949758,gnss_link,0,1,36.9041952,118.16635988,5.705655857694663,0.0,0.0,0.0,0.0,0.0,0.0,0.0,0.0,0.0,2
1704780827443308359,12039,1704780827442772366,gnss_link,0,1,36.90419625,118.16635908,5.720142090486216,0.0,0.0,0.0,0.0,0.0,0.0,0.0,0.0,0.0,2
1704780827544229711,12040,1704780827543673615,gnss_link,0,1,36.9041973,118.16635826,5.736897251305361,0.0,0.0,0.0,0.0,0.0,0.0,0.0,0.0,0.0,2
1704780827644044323,12041,1704780827643473022,gnss_link,0,1,36.90419837,118.16635748,5.757143070628496,0.0,0.0,0.0,0.0,0.0,0.0,0.0,0.0,0.0,2
1704780827744201733,12042,1704780827743664541,gnss_link,0,1,36.90419944,118.16635675,5.7775634228768284,0.0,0.0,0.0,0.0,0.0,0.0,0.0,0.0,0.0,2
1704780827844295563,12043,1704780827843822566,gnss_link,0,1,36.90420053,118.16635605,5.796936577573966,0.0,0.0,0.0,0.0,0.0,0.0,0.0,0.0,0.0,2
1704780827943602503,12044,1704780827943060725,gnss_link,0,1,36.9042016,118.16635535,5.817007863971901,0.0,0.0,0.0,0.0,0.0,0.0,0.0,0.0,0.0,2
1704780828043612958,12045,1704780828043094452,gnss_link,0,1,36.90420272,118.16635471,5.837951814995833,0.0,0.0,0.0,0.0,0.0,0.0,0.0,0.0,0.0,2
1704780828144089284,12046,1704780828143479990,gnss_link,0,1,36.90420384,118.16635408,5.858372167244167,0.0,0.0,0.0,0.0,0.0,0.0,0.0,0.0,0.0,2
1704780828244069593,12047,1704780828243479298,gnss_link,0,1,36.90420496,118.16635347,5.880014249968895,0.0,0.0,0.0,0.0,0.0,0.0,0.0,0.0,0.0,2
1704780828343268381,12048,1704780828342634848,gnss_link,0,1,36.90420609,118.16635288,5.9016563326936256,0.0,0.0,0.0,0.0,0.0,0.0,0.0,0.0,0.0,2
1704780828443324616,12049,1704780828442814802,gnss_link,0,1,36.90420724,118.16635235,5.922774816642757,0.0,0.0,0.0,0.0,0.0,0.0,0.0,0.0,0.0,2
1704780828543754792,12050,1704780828543170020,gnss_link,0,1,36.90420837,118.16635182,5.943195168891091,0.0,0.0,0.0,0.0,0.0,0.0,0.0,0.0,0.0,2
1704780828643708965,12051,1704780828643154273,gnss_link,0,1,36.90420955,118.16635133,5.961346593111832,0.0,0.0,0.0,0.0,0.0,0.0,0.0,0.0,0.0,2
1704780828742946455,12052,1704780828742438982,gnss_link,0,1,36.9042107,118.16635088,5.979323484407373,0.0,0.0,0.0,0.0,0.0,0.0,0.0,0.0,0.0,2
1704780828843042024,12053,1704780828842535424,gnss_link,0,1,36.90421189,118.16635048,5.997823974478513,0.0,0.0,0.0,0.0,0.0,0.0,0.0,0.0,0.0,2
1704780828943798310,12054,1704780828943083185,gnss_link,0,1,36.90421304,118.16635007,6.013881003596861,0.0,0.0,0.0,0.0,0.0,0.0,0.0,0.0,0.0,2
1704780829043448788,12055,1704780829042842850,gnss_link,0,1,36.90421423,118.1663497,6.028716302238814,0.0,0.0,0.0,0.0,0.0,0.0,0.0,0.0,0.0,2
1704780829143788277,12056,1704780829143177811,gnss_link,0,1,36.90421539,118.16634934,6.046518660609156,0.0,0.0,0.0,0.0,0.0,0.0,0.0,0.0,0.0,2
1704780829243614267,12057,1704780829243092912,gnss_link,0,1,36.9042166,118.16634903,6.062401156802304,0.0,0.0,0.0,0.0,0.0,0.0,0.0,0.0,0.0,2
1704780829342573292,12058,1704780829342256259,gnss_link,0,1,36.90421778,118.16634871,6.073920329865466,0.0,0.0,0.0,0.0,0.0,0.0,0.0,0.0,0.0,2
1704780829443135415,12059,1704780829442573433,gnss_link,0,1,36.90421901,118.16634842,6.086137634629426,0.0,0.0,0.0,0.0,0.0,0.0,0.0,0.0,0.0,2
1704780829543314006,12060,1704780829542751004,gnss_link,0,1,36.90422021,118.16634812,6.096086011365794,0.0,0.0,0.0,0.0,0.0,0.0,0.0,0.0,0.0,2
1704780829643376301,12061,1704780829642906038,gnss_link,0,1,36.90422143,118.16634788,6.104987190550966,0.0,0.0,0.0,0.0,0.0,0.0,0.0,0.0,0.0,2
1704780829743086459,12062,1704780829742474165,gnss_link,0,1,36.90422261,118.16634758,6.114411968511734,0.0,0.0,0.0,0.0,0.0,0.0,0.0,0.0,0.0,2
1704780829842919386,12063,1704780829842252997,gnss_link,0,1,36.90422383,118.16634735,6.123138614771706,0.0,0.0,0.0,0.0,0.0,0.0,0.0,0.0,0.0,2
1704780829943053823,12064,1704780829942526480,gnss_link,0,1,36.90422503,118.16634712,6.1315161951812795,0.0,0.0,0.0,0.0,0.0,0.0,0.0,0.0,0.0,2
1704780830042985924,12065,1704780830042525513,gnss_link,0,1,36.90422625,118.1663469,6.139719242665652,0.0,0.0,0.0,0.0,0.0,0.0,0.0,0.0,0.0,2
1704780830143236806,12066,1704780830142722916,gnss_link,0,1,36.90422743,118.16634668,6.147747757224827,0.0,0.0,0.0,0.0,0.0,0.0,0.0,0.0,0.0,2
1704780830243368278,12067,1704780830242906452,gnss_link,0,1,36.90422865,118.16634654,6.155776271784,0.0,0.0,0.0,0.0,0.0,0.0,0.0,0.0,0.0,2
1704780830342787327,12068,1704780830342192493,gnss_link,0,1,36.90422984,118.16634636,6.16502651681957,0.0,0.0,0.0,0.0,0.0,0.0,0.0,0.0,0.0,2
1704780830442819873,12069,1704780830442294352,gnss_link,0,1,36.90423105,118.16634618,6.17113516920155,0.0,0.0,0.0,0.0,0.0,0.0,0.0,0.0,0.0,2
1704780830543106716,12070,1704780830542488651,gnss_link,0,1,36.90423224,118.16634602,6.173753163079542,0.0,0.0,0.0,0.0,0.0,0.0,0.0,0.0,0.0,2
1704780830643126335,12071,1704780830642575591,gnss_link,0,1,36.90423345,118.16634587,6.177069288658331,0.0,0.0,0.0,0.0,0.0,0.0,0.0,0.0,0.0,2
1704780830742648768,12072,1704780830742046718,gnss_link,0,1,36.90423463,118.16634571,6.179338216685924,0.0,0.0,0.0,0.0,0.0,0.0,0.0,0.0,0.0,2
1704780830842501222,12073,1704780830842031608,gnss_link,0,1,36.90423585,118.16634557,6.179512749611123,0.0,0.0,0.0,0.0,0.0,0.0,0.0,0.0,0.0,2
1704780830942604938,12074,1704780830942091860,gnss_link,0,1,36.90423708,118.16634543,6.179512749611123,0.0,0.0,0.0,0.0,0.0,0.0,0.0,0.0,0.0,2
1704780831042777387,12075,1704780831042239887,gnss_link,0,1,36.90423835,118.16634526,6.179338216685924,0.0,0.0,0.0,0.0,0.0,0.0,0.0,0.0,0.0,2
1704780831142915717,12076,1704780831142457739,gnss_link,0,1,36.90423964,118.1663451,6.1791636837607244,0.0,0.0,0.0,0.0,0.0,0.0,0.0,0.0,0.0,2
1704780831242824214,12077,1704780831242217407,gnss_link,0,1,36.90424099,118.16634496,6.178814617910325,0.0,0.0,0.0,0.0,0.0,0.0,0.0,0.0,0.0,2
1704780831343087671,12078,1704780831342338420,gnss_link,0,1,36.90424237,118.16634478,6.178465552059927,0.0,0.0,0.0,0.0,0.0,0.0,0.0,0.0,0.0,2
1704780831442511056,12079,1704780831442017574,gnss_link,0,1,36.90424382,118.1663446,6.177767420359128,0.0,0.0,0.0,0.0,0.0,0.0,0.0,0.0,0.0,2
1704780831542373221,12080,1704780831541745592,gnss_link,0,1,36.9042453,118.16634441,6.178291019134727,0.0,0.0,0.0,0.0,0.0,0.0,0.0,0.0,0.0,2
1704780831642925450,12081,1704780831642382953,gnss_link,0,1,36.90424679,118.16634423,6.181083545937918,0.0,0.0,0.0,0.0,0.0,0.0,0.0,0.0,0.0,2
1704780831741974529,12082,1704780831741507676,gnss_link,0,1,36.90424829,118.16634402,6.187192198319898,0.0,0.0,0.0,0.0,0.0,0.0,0.0,0.0,0.0,2
1704780831842039348,12083,1704780831841611507,gnss_link,0,1,36.90424979,118.16634387,6.195569778729471,0.0,0.0,0.0,0.0,0.0,0.0,0.0,0.0,0.0,2
1704780831942430900,12084,1704780831941797586,gnss_link,0,1,36.90425128,118.1663437,6.20220202988705,0.0,0.0,0.0,0.0,0.0,0.0,0.0,0.0,0.0,2
1704780832042242143,12085,1704780832041920913,gnss_link,0,1,36.90425276,118.16634358,6.208485215194229,0.0,0.0,0.0,0.0,0.0,0.0,0.0,0.0,0.0,2
1704780832142856386,12086,1704780832142245462,gnss_link,0,1,36.90425425,118.16634348,6.2144193346510095,0.0,0.0,0.0,0.0,0.0,0.0,0.0,0.0,0.0,2
1704780832242817183,12087,1704780832242344986,gnss_link,0,1,36.90425573,118.16634338,6.217211861454201,0.0,0.0,0.0,0.0,0.0,0.0,0.0,0.0,0.0,2
1704780832342124802,12088,1704780832341674402,gnss_link,0,1,36.9042572,118.16634325,6.219480789481794,0.0,0.0,0.0,0.0,0.0,0.0,0.0,0.0,0.0,2
1704780832442038683,12089,1704780832441605826,gnss_link,0,1,36.90425868,118.16634316,6.224018645536979,0.0,0.0,0.0,0.0,0.0,0.0,0.0,0.0,0.0,2
1704780832542186854,12090,1704780832541775731,gnss_link,0,1,36.90426016,118.16634307,6.2276838369661665,0.0,0.0,0.0,0.0,0.0,0.0,0.0,0.0,0.0,2
1704780832642372303,12091,1704780832641967714,gnss_link,0,1,36.90426164,118.16634297,6.232396225946551,0.0,0.0,0.0,0.0,0.0,0.0,0.0,0.0,0.0,2
1704780832742145149,12092,1704780832741584473,gnss_link,0,1,36.90426312,118.16634288,6.238155812478133,0.0,0.0,0.0,0.0,0.0,0.0,0.0,0.0,0.0,2
1704780832841847493,12093,1704780832841355280,gnss_link,0,1,36.90426461,118.16634282,6.243391800234116,0.0,0.0,0.0,0.0,0.0,0.0,0.0,0.0,0.0,2
1704780832942208725,12094,1704780832941559617,gnss_link,0,1,36.90426607,118.16634277,6.250722183092492,0.0,0.0,0.0,0.0,0.0,0.0,0.0,0.0,0.0,2
1704780833042344456,12095,1704780833041778671,gnss_link,0,1,36.90426754,118.16634274,6.258750697651666,0.0,0.0,0.0,0.0,0.0,0.0,0.0,0.0,0.0,2
1704780833142356286,12096,1704780833141824452,gnss_link,0,1,36.90426901,118.16634271,6.2638121524824495,0.0,0.0,0.0,0.0,0.0,0.0,0.0,0.0,0.0,2
1704780833242572594,12097,1704780833242031703,gnss_link,0,1,36.90427049,118.1663427,6.268175475612435,0.0,0.0,0.0,0.0,0.0,0.0,0.0,0.0,0.0,2
1704780833341896795,12098,1704780833341267927,gnss_link,0,1,36.90427192,118.16634267,6.2737605292188166,0.0,0.0,0.0,0.0,0.0,0.0,0.0,0.0,0.0,2
1704780833441897991,12099,1704780833441334872,gnss_link,0,1,36.90427324,118.16634267,6.277425720648005,0.0,0.0,0.0,0.0,0.0,0.0,0.0,0.0,0.0,2
1704780833542054690,12100,1704780833541562580,gnss_link,0,1,36.90427446,118.16634267,6.280916379151994,0.0,0.0,0.0,0.0,0.0,0.0,0.0,0.0,0.0,2
1704780833642301606,12101,1704780833641708071,gnss_link,0,1,36.90427564,118.16634267,6.282661708403989,0.0,0.0,0.0,0.0,0.0,0.0,0.0,0.0,0.0,2
1704780833741684430,12102,1704780833741069575,gnss_link,0,1,36.90427679,118.16634267,6.2824871754787885,0.0,0.0,0.0,0.0,0.0,0.0,0.0,0.0,0.0,2
1704780833841627493,12103,1704780833841042896,gnss_link,0,1,36.90427795,118.1663427,0.0008726646259971648,0.0,0.0,0.0,0.0,0.0,0.0,0.0,0.0,0.0,2
1704780833941391430,12104,1704780833940823580,gnss_link,0,1,36.90427912,118.16634272,0.0015707963267948964,0.0,0.0,0.0,0.0,0.0,0.0,0.0,0.0,0.0,2
1704780834041935659,12105,1704780834041358240,gnss_link,0,1,36.90428032,118.16634273,0.0024434609527920616,0.0,0.0,0.0,0.0,0.0,0.0,0.0,0.0,0.0,2
1704780834141943469,12106,1704780834141486583,gnss_link,0,1,36.90428156,118.16634271,0.003665191429188092,0.0,0.0,0.0,0.0,0.0,0.0,0.0,0.0,0.0,2
1704780834241852031,12107,1704780834241304309,gnss_link,0,1,36.90428278,118.16634273,0.003839724354387525,0.0,0.0,0.0,0.0,0.0,0.0,0.0,0.0,0.0,2
1704780834341810857,12108,1704780834341207548,gnss_link,0,1,36.90428403,118.16634273,0.004537856055185257,0.0,0.0,0.0,0.0,0.0,0.0,0.0,0.0,0.0,2
1704780834441437354,12109,1704780834440969668,gnss_link,0,1,36.90428528,118.16634275,0.0054105206811824215,0.0,0.0,0.0,0.0,0.0,0.0,0.0,0.0,0.0,2
1704780834541739005,12110,1704780834541057584,gnss_link,0,1,36.90428653,118.16634276,0.006108652381980153,0.0,0.0,0.0,0.0,0.0,0.0,0.0,0.0,0.0,2
1704780834643332152,12111,1704780834642697984,gnss_link,0,1,36.90428778,118.16634278,0.006806784082777886,0.0,0.0,0.0,0.0,0.0,0.0,0.0,0.0,0.0,2
1704780834741480830,12112,1704780834740972476,gnss_link,0,1,36.90428901,118.16634277,0.008028514559173916,0.0,0.0,0.0,0.0,0.0,0.0,0.0,0.0,0.0,2
1704780834841666374,12113,1704780834841048145,gnss_link,0,1,36.90429023,118.16634279,0.008552113334772215,0.0,0.0,0.0,0.0,0.0,0.0,0.0,0.0,0.0,2
1704780834941458029,12114,1704780834940947285,gnss_link,0,1,36.90429144,118.1663428,0.010122909661567111,0.0,0.0,0.0,0.0,0.0,0.0,0.0,0.0,0.0,2
1704780835042103689,12115,1704780835041531785,gnss_link,0,1,36.90429267,118.16634284,0.011344640137963142,0.0,0.0,0.0,0.0,0.0,0.0,0.0,0.0,0.0,2
1704780835141205495,12116,1704780835140599262,gnss_link,0,1,36.90429396,118.16634285,0.013439035240356337,0.0,0.0,0.0,0.0,0.0,0.0,0.0,0.0,0.0,2
1704780835241308353,12117,1704780835240812330,gnss_link,0,1,36.90429526,118.16634288,0.016057029118347832,0.0,0.0,0.0,0.0,0.0,0.0,0.0,0.0,0.0,2
1704780835341438756,12118,1704780835340975517,gnss_link,0,1,36.90429658,118.16634291,0.017976891295541596,0.0,0.0,0.0,0.0,0.0,0.0,0.0,0.0,0.0,2
1704780835441797253,12119,1704780835441209180,gnss_link,0,1,36.90429788,118.16634295,0.02007128639793479,0.0,0.0,0.0,0.0,0.0,0.0,0.0,0.0,0.0,2
1704780835540920510,12120,1704780835540354911,gnss_link,0,1,36.90429919,118.16634298,0.022165681500327987,0.0,0.0,0.0,0.0,0.0,0.0,0.0,0.0,0.0,2
1704780835641213459,12121,1704780835640730996,gnss_link,0,1,36.90430048,118.16634304,0.023736477827122883,0.0,0.0,0.0,0.0,0.0,0.0,0.0,0.0,0.0,2
1704780835741242535,12122,1704780835740710249,gnss_link,0,1,36.90430178,118.16634307,0.025830872929516076,0.0,0.0,0.0,0.0,0.0,0.0,0.0,0.0,0.0,2
1704780835841318649,12123,1704780835840809496,gnss_link,0,1,36.90430309,118.16634311,0.027925268031909273,0.0,0.0,0.0,0.0,0.0,0.0,0.0,0.0,0.0,2
1704780835941194264,12124,1704780835940713549,gnss_link,0,1,36.90430438,118.16634316,0.029321531433504737,0.0,0.0,0.0,0.0,0.0,0.0,0.0,0.0,0.0,2
1704780836041767388,12125,1704780836041227119,gnss_link,0,1,36.90430565,118.16634322,0.030892327760299633,0.0,0.0,0.0,0.0,0.0,0.0,0.0,0.0,0.0,2
1704780836141136285,12126,1704780836140416773,gnss_link,0,1,36.90430687,118.16634328,0.032114058236695664,0.0,0.0,0.0,0.0,0.0,0.0,0.0,0.0,0.0,2
1704780836240621145,12127,1704780836240105581,gnss_link,0,1,36.90430809,118.16634334,0.03316125578789226,0.0,0.0,0.0,0.0,0.0,0.0,0.0,0.0,0.0,2
1704780836341534594,12128,1704780836340953016,gnss_link,0,1,36.90430931,118.16634341,0.03385938748868999,0.0,0.0,0.0,0.0,0.0,0.0,0.0,0.0,0.0,2
1704780836441459426,12129,1704780836440886278,gnss_link,0,1,36.90431055,118.16634347,0.034732052114687155,0.0,0.0,0.0,0.0,0.0,0.0,0.0,0.0,0.0,2
1704780836540179106,12130,1704780836539730685,gnss_link,0,1,36.90431179,118.16634353,0.035255650890285456,0.0,0.0,0.0,0.0,0.0,0.0,0.0,0.0,0.0,2
1704780836640759762,12131,1704780836640246432,gnss_link,0,1,36.90431302,118.16634361,0.03630284844148206,0.0,0.0,0.0,0.0,0.0,0.0,0.0,0.0,0.0,2
1704780836740865218,12132,1704780836740295546,gnss_link,0,1,36.90431424,118.16634367,0.03735004599267865,0.0,0.0,0.0,0.0,0.0,0.0,0.0,0.0,0.0,2
1704780836841093098,12133,1704780836840527217,gnss_link,0,1,36.90431546,118.16634372,0.03822271061867582,0.0,0.0,0.0,0.0,0.0,0.0,0.0,0.0,0.0,2
1704780836941368864,12134,1704780836940794069,gnss_link,0,1,36.90431669,118.1663438,0.03874630939427412,0.0,0.0,0.0,0.0,0.0,0.0,0.0,0.0,0.0,2
1704780837041137360,12135,1704780837040579304,gnss_link,0,1,36.90431789,118.16634388,0.039968039870670144,0.0,0.0,0.0,0.0,0.0,0.0,0.0,0.0,0.0,2
1704780837140321880,12136,1704780837139794739,gnss_link,0,1,36.9043191,118.16634394,0.040491638646268445,0.0,0.0,0.0,0.0,0.0,0.0,0.0,0.0,0.0,2
1704780837240844109,12137,1704780837240259504,gnss_link,0,1,36.90432031,118.16634404,0.04136430327226561,0.0,0.0,0.0,0.0,0.0,0.0,0.0,0.0,0.0,2
1704780837340882280,12138,1704780837340288200,gnss_link,0,1,36.90432157,118.16634412,0.04258603374866164,0.0,0.0,0.0,0.0,0.0,0.0,0.0,0.0,0.0,2
1704780837441067466,12139,1704780837440502951,gnss_link,0,1,36.90432286,118.16634419,0.04328416544945937,0.0,0.0,0.0,0.0,0.0,0.0,0.0,0.0,0.0,2
1704780837540258189,12140,1704780837539753821,gnss_link,0,1,36.90432421,118.1663443,0.04415683007545653,0.0,0.0,0.0,0.0,0.0,0.0,0.0,0.0,0.0,2
1704780837640330326,12141,1704780837639853800,gnss_link,0,1,36.90432559,118.1663444,0.04537856055185257,0.0,0.0,0.0,0.0,0.0,0.0,0.0,0.0,0.0,2
1704780837740600443,12142,1704780837740117820,gnss_link,0,1,36.90432703,118.1663445,0.04642575810304917,0.0,0.0,0.0,0.0,0.0,0.0,0.0,0.0,0.0,2
1704780837840941466,12143,1704780837840211505,gnss_link,0,1,36.90432848,118.1663446,0.04799655442984406,0.0,0.0,0.0,0.0,0.0,0.0,0.0,0.0,0.0,2
1704780837939918256,12144,1704780837939358799,gnss_link,0,1,36.90432996,118.1663447,0.04974188368183839,0.0,0.0,0.0,0.0,0.0,0.0,0.0,0.0,0.0,2
1704780838040086646,12145,1704780838039641171,gnss_link,0,1,36.90433144,118.1663448,0.050265482457436686,0.0,0.0,0.0,0.0,0.0,0.0,0.0,0.0,0.0,2
1704780838140314355,12146,1704780838139849431,gnss_link,0,1,36.90433294,118.16634494,0.05131268000863329,0.0,0.0,0.0,0.0,0.0,0.0,0.0,0.0,0.0,2
1704780838240044885,12147,1704780838239457313,gnss_link,0,1,36.90433441,118.16634506,0.05235987755982989,0.0,0.0,0.0,0.0,0.0,0.0,0.0,0.0,0.0,2
1704780838340933746,12148,1704780838340402356,gnss_link,0,1,36.90433589,118.16634518,0.053581608036225914,0.0,0.0,0.0,0.0,0.0,0.0,0.0,0.0,0.0,2
1704780838440768339,12149,1704780838440216538,gnss_link,0,1,36.90433736,118.16634531,0.05445427266222309,0.0,0.0,0.0,0.0,0.0,0.0,0.0,0.0,0.0,2
1704780838539579043,12150,1704780838539027013,gnss_link,0,1,36.90433883,118.16634543,0.05619960191421741,0.0,0.0,0.0,0.0,0.0,0.0,0.0,0.0,0.0,2
1704780838640245827,12151,1704780838639719374,gnss_link,0,1,36.90434031,118.16634553,0.05777039824101231,0.0,0.0,0.0,0.0,0.0,0.0,0.0,0.0,0.0,2
1704780838740012187,12152,1704780838739391772,gnss_link,0,1,36.90434181,118.16634567,0.05899212871740834,0.0,0.0,0.0,0.0,0.0,0.0,0.0,0.0,0.0,2
1704780838840447753,12153,1704780838839989971,gnss_link,0,1,36.90434328,118.1663458,0.06021385919380437,0.0,0.0,0.0,0.0,0.0,0.0,0.0,0.0,0.0,2
1704780838939811347,12154,1704780838939401311,gnss_link,0,1,36.90434476,118.16634592,0.061086523819801536,0.0,0.0,0.0,0.0,0.0,0.0,0.0,0.0,0.0,2
1704780839039674447,12155,1704780839039167045,gnss_link,0,1,36.9043462,118.16634605,0.06161012259539983,0.0,0.0,0.0,0.0,0.0,0.0,0.0,0.0,0.0,2
1704780839139924416,12156,1704780839139481039,gnss_link,0,1,36.90434765,118.1663462,0.06230825429619756,0.0,0.0,0.0,0.0,0.0,0.0,0.0,0.0,0.0,2
1704780839239974080,12157,1704780839239491237,gnss_link,0,1,36.90434908,118.16634631,0.0635299847725936,0.0,0.0,0.0,0.0,0.0,0.0,0.0,0.0,0.0,2
1704780839340250005,12158,1704780839339710197,gnss_link,0,1,36.90435053,118.16634644,0.06370451769779303,0.0,0.0,0.0,0.0,0.0,0.0,0.0,0.0,0.0,2
1704780839440553060,12159,1704780839439946691,gnss_link,0,1,36.90435195,118.16634658,0.0645771823237902,0.0,0.0,0.0,0.0,0.0,0.0,0.0,0.0,0.0,2
1704780839539247854,12160,1704780839538794625,gnss_link,0,1,36.90435342,118.16634669,0.06579891280018622,0.0,0.0,0.0,0.0,0.0,0.0,0.0,0.0,0.0,2
1704780839639756459,12161,1704780839639309223,gnss_link,0,1,36.90435487,118.1663468,0.0661479786505851,0.0,0.0,0.0,0.0,0.0,0.0,0.0,0.0,0.0,2
1704780839739857986,12162,1704780839739374771,gnss_link,0,1,36.90435636,118.16634695,0.06632251157578452,0.0,0.0,0.0,0.0,0.0,0.0,0.0,0.0,0.0,2
1704780839840109289,12163,1704780839839667820,gnss_link,0,1,36.90435784,118.16634707,0.06684611035138283,0.0,0.0,0.0,0.0,0.0,0.0,0.0,0.0,0.0,2
1704780839939254002,12164,1704780839938726427,gnss_link,0,1,36.90435932,118.16634722,0.06702064327658225,0.0,0.0,0.0,0.0,0.0,0.0,0.0,0.0,0.0,2
1704780840039598452,12165,1704780840038953153,gnss_link,0,1,36.90436078,118.16634737,0.06736970912698112,0.0,0.0,0.0,0.0,0.0,0.0,0.0,0.0,0.0,2
1704780840139702099,12166,1704780840139222684,gnss_link,0,1,36.90436226,118.1663475,0.06911503837897545,0.0,0.0,0.0,0.0,0.0,0.0,0.0,0.0,0.0,2
1704780840239952607,12167,1704780840239287704,gnss_link,0,1,36.90436369,118.16634761,0.07033676885537149,0.0,0.0,0.0,0.0,0.0,0.0,0.0,0.0,0.0,2
1704780840340009817,12168,1704780840339452518,gnss_link,0,1,36.90436519,118.16634776,0.07120943348136864,0.0,0.0,0.0,0.0,0.0,0.0,0.0,0.0,0.0,2
1704780840440138687,12169,1704780840439646254,gnss_link,0,1,36.90436665,118.16634791,0.07312929565856241,0.0,0.0,0.0,0.0,0.0,0.0,0.0,0.0,0.0,2
1704780840539401386,12170,1704780840538829268,gnss_link,0,1,36.90436814,118.16634804,0.07417649320975901,0.0,0.0,0.0,0.0,0.0,0.0,0.0,0.0,0.0,2
1704780840639526936,12171,1704780840639034631,gnss_link,0,1,36.90436961,118.1663482,0.07487462491055674,0.0,0.0,0.0,0.0,0.0,0.0,0.0,0.0,0.0,2
1704780840739628458,12172,1704780840739203132,gnss_link,0,1,36.90437114,118.16634837,0.0757472895365539,0.0,0.0,0.0,0.0,0.0,0.0,0.0,0.0,0.0,2
1704780840839900066,12173,1704780840839320878,gnss_link,0,1,36.90437259,118.16634851,0.07644542123735164,0.0,0.0,0.0,0.0,0.0,0.0,0.0,0.0,0.0,2
1704780840939040862,12174,1704780840938559661,gnss_link,0,1,36.90437409,118.16634869,0.07679448708775051,0.0,0.0,0.0,0.0,0.0,0.0,0.0,0.0,0.0,2
1704780841039460187,12175,1704780841038943330,gnss_link,0,1,36.90437554,118.16634884,0.07801621756414652,0.0,0.0,0.0,0.0,0.0,0.0,0.0,0.0,0.0,2
1704780841139236279,12176,1704780841138782383,gnss_link,0,1,36.90437703,118.16634898,0.07888888219014369,0.0,0.0,0.0,0.0,0.0,0.0,0.0,0.0,0.0,2
1704780841239303738,12177,1704780841238928551,gnss_link,0,1,36.90437849,118.16634916,0.07993607974134029,0.0,0.0,0.0,0.0,0.0,0.0,0.0,0.0,0.0,2
1704780841339560608,12178,1704780841339157928,gnss_link,0,1,36.90437996,118.16634934,0.08115781021773633,0.0,0.0,0.0,0.0,0.0,0.0,0.0,0.0,0.0,2
1704780841439708632,12179,1704780841439306429,gnss_link,0,1,36.90438143,118.16634948,0.08220500776893293,0.0,0.0,0.0,0.0,0.0,0.0,0.0,0.0,0.0,2
1704780841538863667,12180,1704780841538466857,gnss_link,0,1,36.90438291,118.16634966,0.08272860654453122,0.0,0.0,0.0,0.0,0.0,0.0,0.0,0.0,0.0,2
1704780841638992486,12181,1704780841638660119,gnss_link,0,1,36.90438436,118.16634982,0.08377580409572781,0.0,0.0,0.0,0.0,0.0,0.0,0.0,0.0,0.0,2
1704780841738971682,12182,1704780841738712795,gnss_link,0,1,36.90438583,118.16635,0.08395033702092725,0.0,0.0,0.0,0.0,0.0,0.0,0.0,0.0,0.0,2
1704780841839075020,12183,1704780841838617257,gnss_link,0,1,36.90438728,118.16635018,0.08447393579652555,0.0,0.0,0.0,0.0,0.0,0.0,0.0,0.0,0.0,2
1704780841938751632,12184,1704780841938453194,gnss_link,0,1,36.90438875,118.16635035,0.08517206749732328,0.0,0.0,0.0,0.0,0.0,0.0,0.0,0.0,0.0,2
1704780842038424735,12185,1704780842038193229,gnss_link,0,1,36.90439021,118.16635051,0.08621926504851989,0.0,0.0,0.0,0.0,0.0,0.0,0.0,0.0,0.0,2
1704780842138744917,12186,1704780842138272031,gnss_link,0,1,36.90439167,118.16635073,0.08691739674931762,0.0,0.0,0.0,0.0,0.0,0.0,0.0,0.0,0.0,2
1704780842239288685,12187,1704780842238801626,gnss_link,0,1,36.90439314,118.1663509,0.08848819307611251,0.0,0.0,0.0,0.0,0.0,0.0,0.0,0.0,0.0,2
1704780842339536422,12188,1704780842338929427,gnss_link,0,1,36.90439466,118.16635108,0.09023352232810683,0.0,0.0,0.0,0.0,0.0,0.0,0.0,0.0,0.0,2
1704780842439218034,12189,1704780842438957794,gnss_link,0,1,36.90439619,118.16635129,0.09197885158010116,0.0,0.0,0.0,0.0,0.0,0.0,0.0,0.0,0.0,2
1704780842538454803,12190,1704780842538158666,gnss_link,0,1,36.90439771,118.16635147,0.09354964790689607,0.0,0.0,0.0,0.0,0.0,0.0,0.0,0.0,0.0,2
1704780842638728725,12191,1704780842638292894,gnss_link,0,1,36.9043992,118.16635167,0.0947713783832921,0.0,0.0,0.0,0.0,0.0,0.0,0.0,0.0,0.0,2
1704780842738848087,12192,1704780842738538623,gnss_link,0,1,36.90440068,118.16635187,0.09546951008408983,0.0,0.0,0.0,0.0,0.0,0.0,0.0,0.0,0.0,2
1704780842838550339,12193,1704780842838307252,gnss_link,0,1,36.90440213,118.16635205,0.09616764178488756,0.0,0.0,0.0,0.0,0.0,0.0,0.0,0.0,0.0,2
1704780842938478768,12194,1704780842938151308,gnss_link,0,1,36.90440361,118.16635224,0.09704030641088472,0.0,0.0,0.0,0.0,0.0,0.0,0.0,0.0,0.0,2
1704780843038547272,12195,1704780843038066800,gnss_link,0,1,36.90440507,118.16635244,0.09721483933608416,0.0,0.0,0.0,0.0,0.0,0.0,0.0,0.0,0.0,2
1704780843138036658,12196,1704780843137797148,gnss_link,0,1,36.90440655,118.16635265,0.09773843811168245,0.0,0.0,0.0,0.0,0.0,0.0,0.0,0.0,0.0,2
1704780843238639344,12197,1704780843238387972,gnss_link,0,1,36.90440802,118.16635283,0.09913470151327791,0.0,0.0,0.0,0.0,0.0,0.0,0.0,0.0,0.0,2
1704780843339143200,12198,1704780843338623398,gnss_link,0,1,36.90440948,118.16635303,0.10018189906447451,0.0,0.0,0.0,0.0,0.0,0.0,0.0,0.0,0.0,2
1704780843438724507,12199,1704780843438369997,gnss_link,0,1,36.90441093,118.16635322,0.10140362954087054,0.0,0.0,0.0,0.0,0.0,0.0,0.0,0.0,0.0,2
1704780843538403147,12200,1704780843538140928,gnss_link,0,1,36.90441241,118.16635343,0.10245082709206714,0.0,0.0,0.0,0.0,0.0,0.0,0.0,0.0,0.0,2
1704780843638810694,12201,1704780843638163732,gnss_link,0,1,36.90441388,118.16635364,0.10349802464326374,0.0,0.0,0.0,0.0,0.0,0.0,0.0,0.0,0.0,2
1704780843738556072,12202,1704780843738216291,gnss_link,0,1,36.90441534,118.16635386,0.10297442586766545,0.0,0.0,0.0,0.0,0.0,0.0,0.0,0.0,0.0,2
1704780843838058382,12203,1704780843837902302,gnss_link,0,1,36.9044168,118.16635406,0.10157816246606999,0.0,0.0,0.0,0.0,0.0,0.0,0.0,0.0,0.0,2
1704780843938236347,12204,1704780843937818273,gnss_link,0,1,36.90441826,118.16635427,0.09965830028887622,0.0,0.0,0.0,0.0,0.0,0.0,0.0,0.0,0.0,2
1704780844037717863,12205,1704780844037554068,gnss_link,0,1,36.90441972,118.16635447,0.09669124056048586,0.0,0.0,0.0,0.0,0.0,0.0,0.0,0.0,0.0,2
1704780844138558940,12206,1704780844138078129,gnss_link,0,1,36.90442117,118.16635465,0.0932005820564972,0.0,0.0,0.0,0.0,0.0,0.0,0.0,0.0,0.0,2
1704780844239028772,12207,1704780844238331601,gnss_link,0,1,36.90442263,118.16635483,0.08988445647770797,0.0,0.0,0.0,0.0,0.0,0.0,0.0,0.0,0.0,2
1704780844338553418,12208,1704780844338265237,gnss_link,0,1,36.90442409,118.16635498,0.08656833089891874,0.0,0.0,0.0,0.0,0.0,0.0,0.0,0.0,0.0,2
1704780844438742372,12209,1704780844438372334,gnss_link,0,1,36.90442554,118.16635514,0.08290313946973066,0.0,0.0,0.0,0.0,0.0,0.0,0.0,0.0,0.0,2
1704780844538018393,12210,1704780844537600002,gnss_link,0,1,36.90442699,118.1663553,0.07923794804054256,0.0,0.0,0.0,0.0,0.0,0.0,0.0,0.0,0.0,2
1704780844638363741,12211,1704780844637901433,gnss_link,0,1,36.90442844,118.16635544,0.0762708883121522,0.0,0.0,0.0,0.0,0.0,0.0,0.0,0.0,0.0,2
1704780844738395162,12212,1704780844737911233,gnss_link,0,1,36.90442989,118.1663556,0.07539822368615504,0.0,0.0,0.0,0.0,0.0,0.0,0.0,0.0,0.0,2
1704780844838327200,12213,1704780844837798161,gnss_link,0,1,36.90443135,118.16635575,0.0736528944341607,0.0,0.0,0.0,0.0,0.0,0.0,0.0,0.0,0.0,2
1704780844938228036,12214,1704780844937672000,gnss_link,0,1,36.90443281,118.16635589,0.07208209810736581,0.0,0.0,0.0,0.0,0.0,0.0,0.0,0.0,0.0,2
1704780845038509168,12215,1704780845037611700,gnss_link,0,1,36.90443427,118.16635601,0.07103490055616922,0.0,0.0,0.0,0.0,0.0,0.0,0.0,0.0,0.0,2
1704780845137929854,12216,1704780845137385339,gnss_link,0,1,36.90443574,118.16635617,0.07033676885537149,0.0,0.0,0.0,0.0,0.0,0.0,0.0,0.0,0.0,2
1704780845238532160,12217,1704780845237928129,gnss_link,0,1,36.90443722,118.1663563,0.06981317007977318,0.0,0.0,0.0,0.0,0.0,0.0,0.0,0.0,0.0,2
1704780845338512807,12218,1704780845338040935,gnss_link,0,1,36.90443872,118.16635643,0.06981317007977318,0.0,0.0,0.0,0.0,0.0,0.0,0.0,0.0,0.0,2
1704780845438757563,12219,1704780845438234418,gnss_link,0,1,36.90444018,118.16635658,0.06981317007977318,0.0,0.0,0.0,0.0,0.0,0.0,0.0,0.0,0.0,2
1704780845538027172,12220,1704780845537518851,gnss_link,0,1,36.90444154,118.16635671,0.06928957130417489,0.0,0.0,0.0,0.0,0.0,0.0,0.0,0.0,0.0,2
1704780845639411083,12221,1704780845638928021,gnss_link,0,1,36.90444277,118.1663568,0.06911503837897545,0.0,0.0,0.0,0.0,0.0,0.0,0.0,0.0,0.0,2
1704780845737621031,12222,1704780845737129816,gnss_link,0,1,36.90444394,118.16635693,0.06928957130417489,0.0,0.0,0.0,0.0,0.0,0.0,0.0,0.0,0.0,2
1704780845838116600,12223,1704780845837423132,gnss_link,0,1,36.90444507,118.16635706,0.06911503837897545,0.0,0.0,0.0,0.0,0.0,0.0,0.0,0.0,0.0,2
1704780845937566310,12224,1704780845937053205,gnss_link,0,1,36.90444622,118.16635717,0.06911503837897545,0.0,0.0,0.0,0.0,0.0,0.0,0.0,0.0,0.0,2
1704780846038419536,12225,1704780846037785443,gnss_link,0,1,36.90444738,118.16635729,0.06928957130417489,0.0,0.0,0.0,0.0,0.0,0.0,0.0,0.0,0.0,2
1704780846137420057,12226,1704780846136911456,gnss_link,0,1,36.90444857,118.16635742,0.06998770300497262,0.0,0.0,0.0,0.0,0.0,0.0,0.0,0.0,0.0,2
1704780846237226068,12227,1704780846236631957,gnss_link,0,1,36.90444977,118.16635751,0.07016223593017204,0.0,0.0,0.0,0.0,0.0,0.0,0.0,0.0,0.0,2
1704780846337914688,12228,1704780846337403660,gnss_link,0,1,36.904451,118.16635763,0.06911503837897545,0.0,0.0,0.0,0.0,0.0,0.0,0.0,0.0,0.0,2
1704780846437756786,12229,1704780846437250468,gnss_link,0,1,36.90445221,118.16635774,0.06771877497737998,0.0,0.0,0.0,0.0,0.0,0.0,0.0,0.0,0.0,2
1704780846537680234,12230,1704780846537177647,gnss_link,0,1,36.90445345,118.16635787,0.06719517620178168,0.0,0.0,0.0,0.0,0.0,0.0,0.0,0.0,0.0,2
1704780846638590492,12231,1704780846637850814,gnss_link,0,1,36.90445468,118.16635799,0.0661479786505851,0.0,0.0,0.0,0.0,0.0,0.0,0.0,0.0,0.0,2
1704780846737758508,12232,1704780846737147675,gnss_link,0,1,36.9044559,118.16635813,0.0651007810993885,0.0,0.0,0.0,0.0,0.0,0.0,0.0,0.0,0.0,2
1704780846837563876,12233,1704780846837039345,gnss_link,0,1,36.90445713,118.16635825,0.0645771823237902,0.0,0.0,0.0,0.0,0.0,0.0,0.0,0.0,0.0,2
1704780846937755598,12234,1704780846937234018,gnss_link,0,1,36.90445836,118.16635837,0.06387905062299247,0.0,0.0,0.0,0.0,0.0,0.0,0.0,0.0,0.0,2
1704780847037640811,12235,1704780847037067620,gnss_link,0,1,36.90445962,118.16635848,0.06335545184739416,0.0,0.0,0.0,0.0,0.0,0.0,0.0,0.0,0.0,2
1704780847137512044,12236,1704780847136995842,gnss_link,0,1,36.9044609,118.16635859,0.06318091892219473,0.0,0.0,0.0,0.0,0.0,0.0,0.0,0.0,0.0,2
1704780847237277316,12237,1704780847236730748,gnss_link,0,1,36.90446213,118.16635868,0.06335545184739416,0.0,0.0,0.0,0.0,0.0,0.0,0.0,0.0,0.0,2
1704780847337065046,12238,1704780847336576619,gnss_link,0,1,36.90446337,118.1663588,0.06370451769779303,0.0,0.0,0.0,0.0,0.0,0.0,0.0,0.0,0.0,2
1704780847437629026,12239,1704780847437079841,gnss_link,0,1,36.90446461,118.1663589,0.06370451769779303,0.0,0.0,0.0,0.0,0.0,0.0,0.0,0.0,0.0,2
1704780847537898582,12240,1704780847537256676,gnss_link,0,1,36.9044659,118.166359,0.06370451769779303,0.0,0.0,0.0,0.0,0.0,0.0,0.0,0.0,0.0,2
1704780847637586503,12241,1704780847637101748,gnss_link,0,1,36.90446719,118.16635911,0.0635299847725936,0.0,0.0,0.0,0.0,0.0,0.0,0.0,0.0,0.0,2
1704780847737026590,12242,1704780847736534871,gnss_link,0,1,36.90446852,118.16635922,0.06283185307179587,0.0,0.0,0.0,0.0,0.0,0.0,0.0,0.0,0.0,2
1704780847837231884,12243,1704780847836719671,gnss_link,0,1,36.90446992,118.16635933,0.06283185307179587,0.0,0.0,0.0,0.0,0.0,0.0,0.0,0.0,0.0,2
1704780847937037982,12244,1704780847936452813,gnss_link,0,1,36.90447136,118.16635949,0.06300638599699529,0.0,0.0,0.0,0.0,0.0,0.0,0.0,0.0,0.0,2
1704780848037651377,12245,1704780848037133686,gnss_link,0,1,36.90447278,118.16635961,0.06335545184739416,0.0,0.0,0.0,0.0,0.0,0.0,0.0,0.0,0.0,2
1704780848137129537,12246,1704780848136261908,gnss_link,0,1,36.90447417,118.16635973,0.06422811647339133,0.0,0.0,0.0,0.0,0.0,0.0,0.0,0.0,0.0,2
1704780848236891934,12247,1704780848236371600,gnss_link,0,1,36.90447549,118.16635985,0.06562437987498679,0.0,0.0,0.0,0.0,0.0,0.0,0.0,0.0,0.0,2
1704780848337280974,12248,1704780848336751774,gnss_link,0,1,36.90447673,118.16635996,0.06702064327658225,0.0,0.0,0.0,0.0,0.0,0.0,0.0,0.0,0.0,2
1704780848436939840,12249,1704780848436581797,gnss_link,0,1,36.90447794,118.16636006,0.06859143960337716,0.0,0.0,0.0,0.0,0.0,0.0,0.0,0.0,0.0,2
1704780848537104904,12250,1704780848536799932,gnss_link,0,1,36.90447914,118.16636019,0.06894050545377602,0.0,0.0,0.0,0.0,0.0,0.0,0.0,0.0,0.0,2
1704780848637734940,12251,1704780848637155120,gnss_link,0,1,36.90448041,118.1663603,0.06928957130417489,0.0,0.0,0.0,0.0,0.0,0.0,0.0,0.0,0.0,2
1704780848736396277,12252,1704780848736121295,gnss_link,0,1,36.90448171,118.16636045,0.06824237375297829,0.0,0.0,0.0,0.0,0.0,0.0,0.0,0.0,0.0,2
1704780848837042392,12253,1704780848836479685,gnss_link,0,1,36.90448304,118.16636061,0.06806784082777885,0.0,0.0,0.0,0.0,0.0,0.0,0.0,0.0,0.0,2
1704780848937274646,12254,1704780848936838586,gnss_link,0,1,36.90448432,118.16636077,0.06841690667817772,0.0,0.0,0.0,0.0,0.0,0.0,0.0,0.0,0.0,2
1704780849037118818,12255,1704780849036586945,gnss_link,0,1,36.90448558,118.16636088,0.06841690667817772,0.0,0.0,0.0,0.0,0.0,0.0,0.0,0.0,0.0,2
1704780849136162338,12256,1704780849135907344,gnss_link,0,1,36.90448679,118.166361,0.06841690667817772,0.0,0.0,0.0,0.0,0.0,0.0,0.0,0.0,0.0,2
1704780849236299052,12257,1704780849235963343,gnss_link,0,1,36.90448796,118.16636109,0.06876597252857658,0.0,0.0,0.0,0.0,0.0,0.0,0.0,0.0,0.0,2
1704780849336853777,12258,1704780849336342751,gnss_link,0,1,36.90448913,118.16636118,0.06928957130417489,0.0,0.0,0.0,0.0,0.0,0.0,0.0,0.0,0.0,2
1704780849436932453,12259,1704780849436413990,gnss_link,0,1,36.9044903,118.16636131,0.06928957130417489,0.0,0.0,0.0,0.0,0.0,0.0,0.0,0.0,0.0,2
1704780849537288483,12260,1704780849536633880,gnss_link,0,1,36.90449145,118.16636145,0.06946410422937431,0.0,0.0,0.0,0.0,0.0,0.0,0.0,0.0,0.0,2
1704780849637209674,12261,1704780849636743846,gnss_link,0,1,36.90449255,118.16636156,0.06981317007977318,0.0,0.0,0.0,0.0,0.0,0.0,0.0,0.0,0.0,2
1704780849736394717,12262,1704780849735938138,gnss_link,0,1,36.90449356,118.16636167,0.06998770300497262,0.0,0.0,0.0,0.0,0.0,0.0,0.0,0.0,0.0,2
1704780849836416314,12263,1704780849836041127,gnss_link,0,1,36.90449455,118.16636175,0.07016223593017204,0.0,0.0,0.0,0.0,0.0,0.0,0.0,0.0,0.0,2
1704780849936619896,12264,1704780849936210017,gnss_link,0,1,36.90449548,118.16636183,0.07033676885537149,0.0,0.0,0.0,0.0,0.0,0.0,0.0,0.0,0.0,2
1704780850036396972,12265,1704780850036002488,gnss_link,0,1,36.90449639,118.16636192,0.07051130178057091,0.0,0.0,0.0,0.0,0.0,0.0,0.0,0.0,0.0,2
1704780850136447269,12266,1704780850135884599,gnss_link,0,1,36.90449732,118.16636201,0.07068583470577035,0.0,0.0,0.0,0.0,0.0,0.0,0.0,0.0,0.0,2
1704780850235959467,12267,1704780850235612523,gnss_link,0,1,36.90449825,118.1663621,0.06876597252857658,0.0,0.0,0.0,0.0,0.0,0.0,0.0,0.0,0.0,2
1704780850336748757,12268,1704780850336246158,gnss_link,0,1,36.9044992,118.16636222,0.0645771823237902,0.0,0.0,0.0,0.0,0.0,0.0,0.0,0.0,0.0,2
1704780850436247062,12269,1704780850435997160,gnss_link,0,1,36.90450017,118.16636233,0.06056292504420324,0.0,0.0,0.0,0.0,0.0,0.0,0.0,0.0,0.0,2
1704780850536718441,12270,1704780850536269598,gnss_link,0,1,36.90450114,118.16636242,0.056548667764616284,0.0,0.0,0.0,0.0,0.0,0.0,0.0,0.0,0.0,2
1704780850637059214,12271,1704780850636518211,gnss_link,0,1,36.90450212,118.16636248,0.052185344634630454,0.0,0.0,0.0,0.0,0.0,0.0,0.0,0.0,0.0,2
1704780850736433656,12272,1704780850735996912,gnss_link,0,1,36.90450311,118.16636255,0.04817108735504349,0.0,0.0,0.0,0.0,0.0,0.0,0.0,0.0,0.0,2
1704780850836171654,12273,1704780850835756908,gnss_link,0,1,36.90450409,118.16636261,0.04520402762665313,0.0,0.0,0.0,0.0,0.0,0.0,0.0,0.0,0.0,2
1704780850935943347,12274,1704780850935603857,gnss_link,0,1,36.90450507,118.16636266,0.04415683007545653,0.0,0.0,0.0,0.0,0.0,0.0,0.0,0.0,0.0,2
1704780851036596796,12275,1704780851036122300,gnss_link,0,1,36.90450603,118.16636271,0.04363323129985824,0.0,0.0,0.0,0.0,0.0,0.0,0.0,0.0,0.0,2
1704780851135494699,12276,1704780851135244536,gnss_link,0,1,36.90450699,118.16636278,0.04328416544945937,0.0,0.0,0.0,0.0,0.0,0.0,0.0,0.0,0.0,2
1704780851235662016,12277,1704780851235416267,gnss_link,0,1,36.90450781,118.16636282,0.04276056667386108,0.0,0.0,0.0,0.0,0.0,0.0,0.0,0.0,0.0,2
1704780851335954017,12278,1704780851335638090,gnss_link,0,1,36.90450852,118.16636288,0.04206243497306335,0.0,0.0,0.0,0.0,0.0,0.0,0.0,0.0,0.0,2
1704780851436509810,12279,1704780851435935764,gnss_link,0,1,36.90450913,118.16636292,0.04206243497306335,0.0,0.0,0.0,0.0,0.0,0.0,0.0,0.0,0.0,2
1704780851536121577,12280,1704780851535660872,gnss_link,0,1,36.90450963,118.16636296,0.041713369122664476,0.0,0.0,0.0,0.0,0.0,0.0,0.0,0.0,0.0,2
1704780851636747187,12281,1704780851636264178,gnss_link,0,1,36.90451005,118.16636299,0.041887902047863905,0.0,0.0,0.0,0.0,0.0,0.0,0.0,0.0,0.0,2
1704780851735874458,12282,1704780851735562808,gnss_link,0,1,36.9045104,118.16636303,0.041713369122664476,0.0,0.0,0.0,0.0,0.0,0.0,0.0,0.0,0.0,2
1704780851835745788,12283,1704780851835495710,gnss_link,0,1,36.90451064,118.16636305,0.04153883619746504,0.0,0.0,0.0,0.0,0.0,0.0,0.0,0.0,0.0,2
1704780851936102936,12284,1704780851935686676,gnss_link,0,1,36.90451078,118.16636307,0.041713369122664476,0.0,0.0,0.0,0.0,0.0,0.0,0.0,0.0,0.0,2
1704780852035749657,12285,1704780852035437522,gnss_link,0,1,36.9045108,118.16636308,0.04136430327226561,0.0,0.0,0.0,0.0,0.0,0.0,0.0,0.0,0.0,2
1704780852135740365,12286,1704780852135374195,gnss_link,0,1,36.90451076,118.16636308,0.04153883619746504,0.0,0.0,0.0,0.0,0.0,0.0,0.0,0.0,0.0,2
1704780852235529074,12287,1704780852235160414,gnss_link,0,1,36.90451071,118.16636309,0.041713369122664476,0.0,0.0,0.0,0.0,0.0,0.0,0.0,0.0,0.0,2
1704780852335492339,12288,1704780852335006081,gnss_link,0,1,36.90451068,118.1663631,0.04153883619746504,0.0,0.0,0.0,0.0,0.0,0.0,0.0,0.0,0.0,2
1704780852435796024,12289,1704780852435557803,gnss_link,0,1,36.90451064,118.1663631,0.041713369122664476,0.0,0.0,0.0,0.0,0.0,0.0,0.0,0.0,0.0,2
1704780852536041556,12290,1704780852535655676,gnss_link,0,1,36.90451062,118.16636311,0.04153883619746504,0.0,0.0,0.0,0.0,0.0,0.0,0.0,0.0,0.0,2
1704780852636061742,12291,1704780852635534291,gnss_link,0,1,36.90451058,118.16636311,0.04153883619746504,0.0,0.0,0.0,0.0,0.0,0.0,0.0,0.0,0.0,2
1704780852735867053,12292,1704780852735399760,gnss_link,0,1,36.90451058,118.16636312,0.04153883619746504,0.0,0.0,0.0,0.0,0.0,0.0,0.0,0.0,0.0,2
1704780852835685497,12293,1704780852835233054,gnss_link,0,1,36.90451055,118.16636312,0.04153883619746504,0.0,0.0,0.0,0.0,0.0,0.0,0.0,0.0,0.0,2
1704780852936254217,12294,1704780852935788586,gnss_link,0,1,36.90451055,118.16636313,0.04153883619746504,0.0,0.0,0.0,0.0,0.0,0.0,0.0,0.0,0.0,2
1704780853035826909,12295,1704780853035308117,gnss_link,0,1,36.90451051,118.16636314,0.04153883619746504,0.0,0.0,0.0,0.0,0.0,0.0,0.0,0.0,0.0,2
1704780853135626693,12296,1704780853135155053,gnss_link,0,1,36.90451052,118.16636314,0.04153883619746504,0.0,0.0,0.0,0.0,0.0,0.0,0.0,0.0,0.0,2
1704780853234858425,12297,1704780853234540894,gnss_link,0,1,36.90451049,118.16636314,0.04153883619746504,0.0,0.0,0.0,0.0,0.0,0.0,0.0,0.0,0.0,2
1704780853335561997,12298,1704780853335335546,gnss_link,0,1,36.90451049,118.16636314,0.04153883619746504,0.0,0.0,0.0,0.0,0.0,0.0,0.0,0.0,0.0,2
1704780853435348160,12299,1704780853434950172,gnss_link,0,1,36.90451046,118.16636314,0.04153883619746504,0.0,0.0,0.0,0.0,0.0,0.0,0.0,0.0,0.0,2
1704780853535479686,12300,1704780853535045373,gnss_link,0,1,36.90451048,118.16636314,0.04153883619746504,0.0,0.0,0.0,0.0,0.0,0.0,0.0,0.0,0.0,2
1704780853636251914,12301,1704780853635681796,gnss_link,0,1,36.90451045,118.16636314,0.04153883619746504,0.0,0.0,0.0,0.0,0.0,0.0,0.0,0.0,0.0,2
1704780853735606321,12302,1704780853735079488,gnss_link,0,1,36.90451047,118.16636314,0.04153883619746504,0.0,0.0,0.0,0.0,0.0,0.0,0.0,0.0,0.0,2
1704780853835549880,12303,1704780853834968182,gnss_link,0,1,36.90451044,118.16636314,0.04153883619746504,0.0,0.0,0.0,0.0,0.0,0.0,0.0,0.0,0.0,2
1704780853935561610,12304,1704780853934889001,gnss_link,0,1,36.90451047,118.16636313,0.04136430327226561,0.0,0.0,0.0,0.0,0.0,0.0,0.0,0.0,0.0,2
1704780854035895798,12305,1704780854035384721,gnss_link,0,1,36.90451044,118.16636313,0.04136430327226561,0.0,0.0,0.0,0.0,0.0,0.0,0.0,0.0,0.0,2
1704780854135035509,12306,1704780854134499464,gnss_link,0,1,36.90451047,118.16636313,0.04136430327226561,0.0,0.0,0.0,0.0,0.0,0.0,0.0,0.0,0.0,2
1704780854234938869,12307,1704780854234341645,gnss_link,0,1,36.90451044,118.16636313,0.04136430327226561,0.0,0.0,0.0,0.0,0.0,0.0,0.0,0.0,0.0,2
1704780854334948259,12308,1704780854334467578,gnss_link,0,1,36.90451048,118.16636313,0.04136430327226561,0.0,0.0,0.0,0.0,0.0,0.0,0.0,0.0,0.0,2
1704780854435650381,12309,1704780854435147585,gnss_link,0,1,36.90451046,118.16636313,0.04136430327226561,0.0,0.0,0.0,0.0,0.0,0.0,0.0,0.0,0.0,2
1704780854535982781,12310,1704780854535510082,gnss_link,0,1,36.9045105,118.16636313,0.04136430327226561,0.0,0.0,0.0,0.0,0.0,0.0,0.0,0.0,0.0,2
1704780854634610690,12311,1704780854634071643,gnss_link,0,1,36.90451047,118.16636313,0.04136430327226561,0.0,0.0,0.0,0.0,0.0,0.0,0.0,0.0,0.0,2
1704780854735421794,12312,1704780854734834319,gnss_link,0,1,36.9045105,118.16636312,0.04136430327226561,0.0,0.0,0.0,0.0,0.0,0.0,0.0,0.0,0.0,2
1704780854835699568,12313,1704780854835155295,gnss_link,0,1,36.90451048,118.16636312,0.04136430327226561,0.0,0.0,0.0,0.0,0.0,0.0,0.0,0.0,0.0,2
1704780854935777062,12314,1704780854935313587,gnss_link,0,1,36.90451051,118.16636312,0.04136430327226561,0.0,0.0,0.0,0.0,0.0,0.0,0.0,0.0,0.0,2
1704780855035230410,12315,1704780855034724855,gnss_link,0,1,36.90451049,118.16636311,0.04136430327226561,0.0,0.0,0.0,0.0,0.0,0.0,0.0,0.0,0.0,2
1704780855135114417,12316,1704780855134586849,gnss_link,0,1,36.90451052,118.16636311,0.041189770347066175,0.0,0.0,0.0,0.0,0.0,0.0,0.0,0.0,0.0,2
1704780855234600106,12317,1704780855234119723,gnss_link,0,1,36.9045105,118.16636311,0.041189770347066175,0.0,0.0,0.0,0.0,0.0,0.0,0.0,0.0,0.0,2
1704780855335418739,12318,1704780855334982759,gnss_link,0,1,36.90451053,118.1663631,0.041189770347066175,0.0,0.0,0.0,0.0,0.0,0.0,0.0,0.0,0.0,2
1704780855434942615,12319,1704780855434432376,gnss_link,0,1,36.90451051,118.1663631,0.041189770347066175,0.0,0.0,0.0,0.0,0.0,0.0,0.0,0.0,0.0,2
1704780855535009113,12320,1704780855534367541,gnss_link,0,1,36.90451055,118.16636309,0.041189770347066175,0.0,0.0,0.0,0.0,0.0,0.0,0.0,0.0,0.0,2
1704780855634785717,12321,1704780855634182645,gnss_link,0,1,36.90451053,118.16636309,0.041189770347066175,0.0,0.0,0.0,0.0,0.0,0.0,0.0,0.0,0.0,2
1704780855735152425,12322,1704780855734557020,gnss_link,0,1,36.90451057,118.16636309,0.041015237421866746,0.0,0.0,0.0,0.0,0.0,0.0,0.0,0.0,0.0,2
1704780855834686609,12323,1704780855834163965,gnss_link,0,1,36.90451055,118.16636308,0.041189770347066175,0.0,0.0,0.0,0.0,0.0,0.0,0.0,0.0,0.0,2
1704780855935452607,12324,1704780855934938923,gnss_link,0,1,36.90451058,118.16636308,0.041015237421866746,0.0,0.0,0.0,0.0,0.0,0.0,0.0,0.0,0.0,2
