%time,field.header.seq,field.header.stamp,field.header.frame_id,field.status.header.seq,field.status.header.stamp,field.status.header.frame_id,field.status.satellites_used,field.status.satellites_visible,field.status.status,field.status.motion_source,field.status.orientation_source,field.status.position_source,field.latitude,field.longitude,field.altitude,field.track,field.speed,field.climb,field.pitch,field.roll,field.dip,field.time,field.gdop,field.pdop,field.hdop,field.vdop,field.tdop,field.err,field.err_horz,field.err_vert,field.err_track,field.err_speed,field.err_climb,field.err_time,field.err_pitch,field.err_roll,field.err_dip,field.position_covariance0,field.position_covariance1,field.position_covariance2,field.position_covariance3,field.position_covariance4,field.position_covariance5,field.position_covariance6,field.position_covariance7,field.position_covariance8,field.position_covariance_type
1704781114553763726,14911,0,,0,0,,0,0,0,0,0,0,36.90474509,118.16621988,25.8,0.0,0.01,0.0,-0.91,-1.13,329.41,195534.0,0.0,0.0,0.009,-0.006,0.0,0.0,0.0,0.0,0.0,0.0,0.0,0.0,0.0,0.0,0.0,0.0,0.0,0.0,0.0,0.0,0.0,0.0,0.0,0.0,0
1704781114653640803,14912,0,,0,0,,0,0,0,0,0,0,36.9047451,118.16621988,25.8,0.0,0.011,0.0,-0.91,-1.13,329.41,195534.1,0.0,0.0,0.009,-0.006,0.0,0.0,0.0,0.0,0.0,0.0,0.0,0.0,0.0,0.0,0.0,0.0,0.0,0.0,0.0,0.0,0.0,0.0,0.0,0.0,0
1704781114752988525,14913,0,,0,0,,0,0,0,0,0,0,36.90474511,118.16621988,25.8,0.0,0.011,0.0,-0.91,-1.13,329.41,195534.2,0.0,0.0,0.01,-0.006,0.0,0.0,0.0,0.0,0.0,0.0,0.0,0.0,0.0,0.0,0.0,0.0,0.0,0.0,0.0,0.0,0.0,0.0,0.0,0.0,0
1704781114854044819,14914,0,,0,0,,0,0,0,0,0,0,36.90474512,118.16621988,25.8,0.0,0.011,0.0,-0.91,-1.13,329.41,195534.3,0.0,0.0,0.01,-0.006,0.0,0.0,0.0,0.0,0.0,0.0,0.0,0.0,0.0,0.0,0.0,0.0,0.0,0.0,0.0,0.0,0.0,0.0,0.0,0.0,0
1704781114953860297,14915,0,,0,0,,0,0,0,0,0,0,36.90474513,118.16621987,25.8,0.0,0.012,0.0,-0.91,-1.13,329.41,195534.4,0.0,0.0,0.01,-0.006,0.0,0.0,0.0,0.0,0.0,0.0,0.0,0.0,0.0,0.0,0.0,0.0,0.0,0.0,0.0,0.0,0.0,0.0,0.0,0.0,0
1704781115053504849,14916,0,,0,0,,0,0,0,0,0,0,36.90474513,118.16621988,25.8,0.0,0.012,0.0,-0.91,-1.13,329.41,195534.5,0.0,0.0,0.01,-0.006,0.0,0.0,0.0,0.0,0.0,0.0,0.0,0.0,0.0,0.0,0.0,0.0,0.0,0.0,0.0,0.0,0.0,0.0,0.0,0.0,0
1704781115153127085,14917,0,,0,0,,0,0,0,0,0,0,36.90474514,118.16621987,25.8,0.0,0.012,0.0,-0.91,-1.13,329.41,195534.6,0.0,0.0,0.011,-0.006,0.0,0.0,0.0,0.0,0.0,0.0,0.0,0.0,0.0,0.0,0.0,0.0,0.0,0.0,0.0,0.0,0.0,0.0,0.0,0.0,0
1704781115253969843,14918,0,,0,0,,0,0,0,0,0,0,36.90474515,118.16621987,25.8,0.0,0.013,0.0,-0.91,-1.13,329.41,195534.7,0.0,0.0,0.011,-0.006,0.0,0.0,0.0,0.0,0.0,0.0,0.0,0.0,0.0,0.0,0.0,0.0,0.0,0.0,0.0,0.0,0.0,0.0,0.0,0.0,0
1704781115353489038,14919,0,,0,0,,0,0,0,0,0,0,36.90474516,118.16621986,25.8,0.0,0.013,0.0,-0.91,-1.13,329.41,195534.8,0.0,0.0,0.011,-0.006,0.0,0.0,0.0,0.0,0.0,0.0,0.0,0.0,0.0,0.0,0.0,0.0,0.0,0.0,0.0,0.0,0.0,0.0,0.0,0.0,0
1704781115454376409,14920,0,,0,0,,0,0,0,0,0,0,36.90474516,118.16621987,25.8,0.0,0.012,0.0,-0.91,-1.13,329.41,195534.9,0.0,0.0,0.011,-0.006,0.0,0.0,0.0,0.0,0.0,0.0,0.0,0.0,0.0,0.0,0.0,0.0,0.0,0.0,0.0,0.0,0.0,0.0,0.0,0.0,0
1704781115553480001,14921,0,,0,0,,0,0,0,0,0,0,36.90474517,118.16621986,25.8,0.0,0.013,0.0,-0.91,-1.13,329.41,195535.0,0.0,0.0,0.011,-0.006,0.0,0.0,0.0,0.0,0.0,0.0,0.0,0.0,0.0,0.0,0.0,0.0,0.0,0.0,0.0,0.0,0.0,0.0,0.0,0.0,0
1704781115653860180,14922,0,,0,0,,0,0,0,0,0,0,36.90474517,118.16621986,25.8,0.0,0.013,0.0,-0.91,-1.13,329.41,195535.1,0.0,0.0,0.011,-0.006,0.0,0.0,0.0,0.0,0.0,0.0,0.0,0.0,0.0,0.0,0.0,0.0,0.0,0.0,0.0,0.0,0.0,0.0,0.0,0.0,0
1704781115752876613,14923,0,,0,0,,0,0,0,0,0,0,36.90474518,118.16621985,25.8,0.0,0.013,0.0,-0.91,-1.13,329.41,195535.2,0.0,0.0,0.011,-0.007,0.0,0.0,0.0,0.0,0.0,0.0,0.0,0.0,0.0,0.0,0.0,0.0,0.0,0.0,0.0,0.0,0.0,0.0,0.0,0.0,0
1704781115854036537,14924,0,,0,0,,0,0,0,0,0,0,36.90474517,118.16621986,25.8,0.0,0.013,0.0,-0.91,-1.13,329.41,195535.3,0.0,0.0,0.011,-0.006,0.0,0.0,0.0,0.0,0.0,0.0,0.0,0.0,0.0,0.0,0.0,0.0,0.0,0.0,0.0,0.0,0.0,0.0,0.0,0.0,0
1704781115953238572,14925,0,,0,0,,0,0,0,0,0,0,36.90474518,118.16621985,25.8,0.0,0.013,0.0,-0.91,-1.13,329.41,195535.4,0.0,0.0,0.011,-0.007,0.0,0.0,0.0,0.0,0.0,0.0,0.0,0.0,0.0,0.0,0.0,0.0,0.0,0.0,0.0,0.0,0.0,0.0,0.0,0.0,0
1704781116053696320,14926,0,,0,0,,0,0,0,0,0,0,36.90474518,118.16621986,25.8,0.0,0.013,0.0,-0.91,-1.13,329.41,195535.5,0.0,0.0,0.011,-0.006,0.0,0.0,0.0,0.0,0.0,0.0,0.0,0.0,0.0,0.0,0.0,0.0,0.0,0.0,0.0,0.0,0.0,0.0,0.0,0.0,0
1704781116152428959,14927,0,,0,0,,0,0,0,0,0,0,36.90474518,118.16621985,25.8,0.0,0.017,0.0,-0.9,-1.13,329.41,195535.6,0.0,0.0,0.015,-0.008,0.0,0.0,0.0,0.0,0.0,0.0,0.0,0.0,0.0,0.0,0.0,0.0,0.0,0.0,0.0,0.0,0.0,0.0,0.0,0.0,0
1704781116253018812,14928,0,,0,0,,0,0,0,0,0,0,36.9047452,118.16621984,25.8,0.0,0.059,0.0,-0.86,-1.15,329.4,195535.7,0.0,0.0,0.049,-0.033,0.0,0.0,0.0,0.0,0.0,0.0,0.0,0.0,0.0,0.0,0.0,0.0,0.0,0.0,0.0,0.0,0.0,0.0,0.0,0.0,0
1704781116353524805,14929,0,,0,0,,0,0,0,0,0,0,36.90474526,118.16621979,25.8,0.0,0.107,0.0,-0.82,-1.17,329.41,195535.8,0.0,0.0,0.09,-0.057,0.0,0.0,0.0,0.0,0.0,0.0,0.0,0.0,0.0,0.0,0.0,0.0,0.0,0.0,0.0,0.0,0.0,0.0,0.0,0.0,0
1704781116453110583,14930,0,,0,0,,0,0,0,0,0,0,36.90474535,118.16621972,25.8,0.0,0.164,0.0,-0.79,-1.2,329.42,195535.9,0.0,0.0,0.138,-0.09,0.0,0.0,0.0,0.0,0.0,0.0,0.0,0.0,0.0,0.0,0.0,0.0,0.0,0.0,0.0,0.0,0.0,0.0,0.0,0.0,0
1704781116552984382,14931,0,,0,0,,0,0,0,0,0,0,36.90474549,118.16621961,25.8,0.0,0.205,0.0,-0.74,-1.22,329.43,195536.0,0.0,0.0,0.178,-0.103,0.0,0.0,0.0,0.0,0.0,0.0,0.0,0.0,0.0,0.0,0.0,0.0,0.0,0.0,0.0,0.0,0.0,0.0,0.0,0.0,0
1704781116653706808,14932,0,,0,0,,0,0,0,0,0,0,36.90474566,118.1662195,25.8,0.0,0.275,0.0,-0.79,-1.15,329.43,195536.1,0.0,0.0,0.246,-0.123,0.0,0.0,0.0,0.0,0.0,0.0,0.0,0.0,0.0,0.0,0.0,0.0,0.0,0.0,0.0,0.0,0.0,0.0,0.0,0.0,0
1704781116753087606,14933,0,,0,0,,0,0,0,0,0,0,36.90474591,118.16621933,25.8,0.0,0.344,0.0,-0.8,-1.07,329.45,195536.2,0.0,0.0,0.299,-0.171,0.0,0.0,0.0,0.0,0.0,0.0,0.0,0.0,0.0,0.0,0.0,0.0,0.0,0.0,0.0,0.0,0.0,0.0,0.0,0.0,0
1704781116852875398,14934,0,,0,0,,0,0,0,0,0,0,36.90474617,118.16621913,25.8,0.0,0.402,0.0,-0.82,-1.1,329.46,195536.3,0.0,0.0,0.336,-0.22,0.0,0.0,0.0,0.0,0.0,0.0,0.0,0.0,0.0,0.0,0.0,0.0,0.0,0.0,0.0,0.0,0.0,0.0,0.0,0.0,0
1704781116953259900,14935,0,,0,0,,0,0,0,0,0,0,36.9047465,118.16621889,25.8,0.0,0.441,0.0,-0.84,-1.1,329.46,195536.4,0.0,0.0,0.382,-0.22,0.0,0.0,0.0,0.0,0.0,0.0,0.0,0.0,0.0,0.0,0.0,0.0,0.0,0.0,0.0,0.0,0.0,0.0,0.0,0.0,0
1704781117052251878,14936,0,,0,0,,0,0,0,0,0,0,36.90474685,118.16621864,25.8,0.0,0.487,0.0,-0.77,-1.05,329.43,195536.5,0.0,0.0,0.422,-0.243,0.0,0.0,0.0,0.0,0.0,0.0,0.0,0.0,0.0,0.0,0.0,0.0,0.0,0.0,0.0,0.0,0.0,0.0,0.0,0.0,0
1704781117152520938,14937,0,,0,0,,0,0,0,0,0,0,36.90474725,118.16621833,25.8,0.0,0.565,0.0,-0.83,-1.07,329.48,195536.6,0.0,0.0,0.474,-0.307,0.0,0.0,0.0,0.0,0.0,0.0,0.0,0.0,0.0,0.0,0.0,0.0,0.0,0.0,0.0,0.0,0.0,0.0,0.0,0.0,0
1704781117252596667,14938,0,,0,0,,0,0,0,0,0,0,36.90474767,118.16621802,25.8,0.0,0.584,0.0,-0.75,-1.08,329.49,195536.7,0.0,0.0,0.51,-0.286,0.0,0.0,0.0,0.0,0.0,0.0,0.0,0.0,0.0,0.0,0.0,0.0,0.0,0.0,0.0,0.0,0.0,0.0,0.0,0.0,0
1704781117352808300,14939,0,,0,0,,0,0,0,0,0,0,36.90474816,118.16621769,25.8,0.0,0.642,0.0,-0.67,-0.99,329.43,195536.8,0.0,0.0,0.561,-0.311,0.0,0.0,0.0,0.0,0.0,0.0,0.0,0.0,0.0,0.0,0.0,0.0,0.0,0.0,0.0,0.0,0.0,0.0,0.0,0.0,0
1704781117452074713,14940,0,,0,0,,0,0,0,0,0,0,36.90474865,118.16621733,25.8,0.0,0.68,0.0,-0.65,-1.02,329.45,195536.9,0.0,0.0,0.575,-0.363,0.0,0.0,0.0,0.0,0.0,0.0,0.0,0.0,0.0,0.0,0.0,0.0,0.0,0.0,0.0,0.0,0.0,0.0,0.0,0.0,0
1704781117552922767,14941,0,,0,0,,0,0,0,0,0,0,36.9047492,118.16621692,25.8,0.0,0.747,0.0,-0.58,-1.11,329.42,195537.0,0.0,0.0,0.642,-0.382,0.0,0.0,0.0,0.0,0.0,0.0,0.0,0.0,0.0,0.0,0.0,0.0,0.0,0.0,0.0,0.0,0.0,0.0,0.0,0.0,0
1704781117652300074,14942,0,,0,0,,0,0,0,0,0,0,36.90474977,118.16621652,25.8,0.0,0.776,0.0,-0.61,-1.07,329.37,195537.1,0.0,0.0,0.67,-0.392,0.0,0.0,0.0,0.0,0.0,0.0,0.0,0.0,0.0,0.0,0.0,0.0,0.0,0.0,0.0,0.0,0.0,0.0,0.0,0.0,0
1704781117752965910,14943,0,,0,0,,0,0,0,0,0,0,36.90475039,118.16621605,25.79,0.0,0.831,0.0,-0.53,-1.1,329.39,195537.2,0.0,0.0,0.705,-0.439,0.0,0.0,0.0,0.0,0.0,0.0,0.0,0.0,0.0,0.0,0.0,0.0,0.0,0.0,0.0,0.0,0.0,0.0,0.0,0.0,0
1704781117852890316,14944,0,,0,0,,0,0,0,0,0,0,36.90475104,118.1662156,25.79,0.0,0.864,0.0,-0.58,-1.1,329.32,195537.3,0.0,0.0,0.752,-0.426,0.0,0.0,0.0,0.0,0.0,0.0,0.0,0.0,0.0,0.0,0.0,0.0,0.0,0.0,0.0,0.0,0.0,0.0,0.0,0.0,0
1704781117953119909,14945,0,,0,0,,0,0,0,0,0,0,36.90475172,118.16621511,25.79,0.0,0.914,0.0,-0.53,-0.98,329.3,195537.4,0.0,0.0,0.782,-0.472,0.0,0.0,0.0,0.0,0.0,0.0,0.0,0.0,0.0,0.0,0.0,0.0,0.0,0.0,0.0,0.0,0.0,0.0,0.0,0.0,0
1704781118054526006,14946,0,,0,0,,0,0,0,0,0,0,36.90475243,118.16621459,25.79,0.0,0.953,0.0,-0.58,-1.12,329.3,195537.5,0.0,0.0,0.798,-0.521,0.0,0.0,0.0,0.0,0.0,0.0,0.0,0.0,0.0,0.0,0.0,0.0,0.0,0.0,0.0,0.0,0.0,0.0,0.0,0.0,0
1704781118152361408,14947,0,,0,0,,0,0,0,0,0,0,36.90475318,118.16621403,25.79,0.0,0.981,0.0,-0.55,-1.16,329.28,195537.6,0.0,0.0,0.857,-0.478,0.0,0.0,0.0,0.0,0.0,0.0,0.0,0.0,0.0,0.0,0.0,0.0,0.0,0.0,0.0,0.0,0.0,0.0,0.0,0.0,0
1704781118252506258,14948,0,,0,0,,0,0,0,0,0,0,36.90475396,118.16621352,25.79,0.0,1.042,0.0,-0.53,-0.93,329.29,195537.7,0.0,0.0,0.91,-0.507,0.0,0.0,0.0,0.0,0.0,0.0,0.0,0.0,0.0,0.0,0.0,0.0,0.0,0.0,0.0,0.0,0.0,0.0,0.0,0.0,0
1704781118352581999,14949,0,,0,0,,0,0,0,0,0,0,36.90475478,118.1662129,25.79,0.0,1.075,0.0,-0.65,-0.97,329.29,195537.8,0.0,0.0,0.912,-0.57,0.0,0.0,0.0,0.0,0.0,0.0,0.0,0.0,0.0,0.0,0.0,0.0,0.0,0.0,0.0,0.0,0.0,0.0,0.0,0.0,0
1704781118451820144,14950,0,,0,0,,0,0,0,0,0,0,36.90475562,118.16621231,25.79,0.0,1.112,0.0,-0.66,-1.03,329.32,195537.9,0.0,0.0,0.965,-0.552,0.0,0.0,0.0,0.0,0.0,0.0,0.0,0.0,0.0,0.0,0.0,0.0,0.0,0.0,0.0,0.0,0.0,0.0,0.0,0.0,0
1704781118552171122,14951,0,,0,0,,0,0,0,0,0,0,36.9047565,118.16621168,25.79,0.0,1.146,0.0,-0.68,-0.93,329.28,195538.0,0.0,0.0,0.991,-0.576,0.0,0.0,0.0,0.0,0.0,0.0,0.0,0.0,0.0,0.0,0.0,0.0,0.0,0.0,0.0,0.0,0.0,0.0,0.0,0.0,0
1704781118652253606,14952,0,,0,0,,0,0,0,0,0,0,36.90475738,118.16621104,25.79,0.0,1.151,0.0,-0.69,-1.01,329.31,195538.1,0.0,0.0,0.977,-0.608,0.0,0.0,0.0,0.0,0.0,0.0,0.0,0.0,0.0,0.0,0.0,0.0,0.0,0.0,0.0,0.0,0.0,0.0,0.0,0.0,0
1704781118752058294,14953,0,,0,0,,0,0,0,0,0,0,36.90475827,118.16621039,25.79,0.0,1.149,0.0,-0.68,-1.01,329.35,195538.2,0.0,0.0,0.998,-0.57,0.0,0.0,0.0,0.0,0.0,0.0,0.0,0.0,0.0,0.0,0.0,0.0,0.0,0.0,0.0,0.0,0.0,0.0,0.0,0.0,0
1704781118852425305,14954,0,,0,0,,0,0,0,0,0,0,36.90475915,118.1662098,25.79,0.0,1.128,0.0,-0.73,-0.87,329.37,195538.3,0.0,0.0,0.981,-0.558,0.0,0.0,0.0,0.0,0.0,0.0,0.0,0.0,0.0,0.0,0.0,0.0,0.0,0.0,0.0,0.0,0.0,0.0,0.0,0.0,0
1704781118952861461,14955,0,,0,0,,0,0,0,0,0,0,36.90476001,118.16620916,25.79,0.0,1.117,0.0,-0.62,-0.9,329.38,195538.4,0.0,0.0,0.955,-0.58,0.0,0.0,0.0,0.0,0.0,0.0,0.0,0.0,0.0,0.0,0.0,0.0,0.0,0.0,0.0,0.0,0.0,0.0,0.0,0.0,0
1704781119052823257,14956,0,,0,0,,0,0,0,0,0,0,36.90476086,118.16620857,25.79,0.0,1.109,0.0,-0.62,-0.97,329.32,195538.5,0.0,0.0,0.959,-0.556,0.0,0.0,0.0,0.0,0.0,0.0,0.0,0.0,0.0,0.0,0.0,0.0,0.0,0.0,0.0,0.0,0.0,0.0,0.0,0.0,0
1704781119151882632,14957,0,,0,0,,0,0,0,0,0,0,36.90476172,118.16620794,25.79,0.0,1.11,0.0,-0.58,-0.91,329.41,195538.6,0.0,0.0,0.954,-0.568,0.0,0.0,0.0,0.0,0.0,0.0,0.0,0.0,0.0,0.0,0.0,0.0,0.0,0.0,0.0,0.0,0.0,0.0,0.0,0.0,0
1704781119251720527,14958,0,,0,0,,0,0,0,0,0,0,36.90476255,118.16620737,25.79,0.0,1.129,0.0,-0.54,-0.97,329.38,195538.7,0.0,0.0,0.968,-0.581,0.0,0.0,0.0,0.0,0.0,0.0,0.0,0.0,0.0,0.0,0.0,0.0,0.0,0.0,0.0,0.0,0.0,0.0,0.0,0.0,0
1704781119352366693,14959,0,,0,0,,0,0,0,0,0,0,36.90476343,118.16620672,25.79,0.0,1.135,0.0,-0.47,-1.02,329.36,195538.8,0.0,0.0,0.977,-0.576,0.0,0.0,0.0,0.0,0.0,0.0,0.0,0.0,0.0,0.0,0.0,0.0,0.0,0.0,0.0,0.0,0.0,0.0,0.0,0.0,0
1704781119451396693,14960,0,,0,0,,0,0,0,0,0,0,36.90476436,118.16620607,25.79,0.0,1.179,0.0,-0.47,-1.03,329.36,195538.9,0.0,0.0,1.018,-0.596,0.0,0.0,0.0,0.0,0.0,0.0,0.0,0.0,0.0,0.0,0.0,0.0,0.0,0.0,0.0,0.0,0.0,0.0,0.0,0.0,0
1704781119551660155,14961,0,,0,0,,0,0,0,0,0,0,36.90476529,118.1662054,25.79,0.0,1.214,0.0,-0.39,-1.02,329.33,195539.0,0.0,0.0,1.054,-0.604,0.0,0.0,0.0,0.0,0.0,0.0,0.0,0.0,0.0,0.0,0.0,0.0,0.0,0.0,0.0,0.0,0.0,0.0,0.0,0.0,0
1704781119651817909,14962,0,,0,0,,0,0,0,0,0,0,36.90476626,118.16620473,25.79,0.0,1.259,0.0,-0.38,-0.98,329.31,195539.1,0.0,0.0,1.093,-0.625,0.0,0.0,0.0,0.0,0.0,0.0,0.0,0.0,0.0,0.0,0.0,0.0,0.0,0.0,0.0,0.0,0.0,0.0,0.0,0.0,0
1704781119751589272,14963,0,,0,0,,0,0,0,0,0,0,36.90476726,118.16620401,25.79,0.0,1.305,0.0,-0.37,-0.91,329.29,195539.2,0.0,0.0,1.125,-0.662,0.0,0.0,0.0,0.0,0.0,0.0,0.0,0.0,0.0,0.0,0.0,0.0,0.0,0.0,0.0,0.0,0.0,0.0,0.0,0.0,0
1704781119852552915,14964,0,,0,0,,0,0,0,0,0,0,36.9047683,118.16620328,25.79,0.0,1.36,0.0,-0.31,-0.94,329.28,195539.3,0.0,0.0,1.166,-0.7,0.0,0.0,0.0,0.0,0.0,0.0,0.0,0.0,0.0,0.0,0.0,0.0,0.0,0.0,0.0,0.0,0.0,0.0,0.0,0.0,0
1704781119952388719,14965,0,,0,0,,0,0,0,0,0,0,36.90476936,118.16620249,25.79,0.0,1.378,0.0,-0.36,-0.96,329.27,195539.4,0.0,0.0,1.195,-0.687,0.0,0.0,0.0,0.0,0.0,0.0,0.0,0.0,0.0,0.0,0.0,0.0,0.0,0.0,0.0,0.0,0.0,0.0,0.0,0.0,0
1704781120051643606,14966,0,,0,0,,0,0,0,0,0,0,36.90477043,118.16620176,25.79,0.0,1.386,0.0,-0.34,-0.9,329.31,195539.5,0.0,0.0,1.203,-0.687,0.0,0.0,0.0,0.0,0.0,0.0,0.0,0.0,0.0,0.0,0.0,0.0,0.0,0.0,0.0,0.0,0.0,0.0,0.0,0.0,0
1704781120151620236,14967,0,,0,0,,0,0,0,0,0,0,36.9047715,118.16620096,25.79,0.0,1.415,0.0,-0.3,-0.99,329.29,195539.6,0.0,0.0,1.21,-0.734,0.0,0.0,0.0,0.0,0.0,0.0,0.0,0.0,0.0,0.0,0.0,0.0,0.0,0.0,0.0,0.0,0.0,0.0,0.0,0.0,0
1704781120251940509,14968,0,,0,0,,0,0,0,0,0,0,36.90477257,118.16620021,25.8,0.0,1.379,0.0,-0.37,-1.02,329.22,195539.7,0.0,0.0,1.201,-0.676,0.0,0.0,0.0,0.0,0.0,0.0,0.0,0.0,0.0,0.0,0.0,0.0,0.0,0.0,0.0,0.0,0.0,0.0,0.0,0.0,0
1704781120352026888,14969,0,,0,0,,0,0,0,0,0,0,36.90477365,118.16619945,25.8,0.0,1.42,0.0,-0.3,-0.86,329.17,195539.8,0.0,0.0,1.224,-0.719,0.0,0.0,0.0,0.0,0.0,0.0,0.0,0.0,0.0,0.0,0.0,0.0,0.0,0.0,0.0,0.0,0.0,0.0,0.0,0.0,0
1704781120451249015,14970,0,,0,0,,0,0,0,0,0,0,36.90477478,118.16619865,25.8,0.0,1.376,0.0,-0.52,-0.95,329.17,195539.9,0.0,0.0,1.173,-0.72,0.0,0.0,0.0,0.0,0.0,0.0,0.0,0.0,0.0,0.0,0.0,0.0,0.0,0.0,0.0,0.0,0.0,0.0,0.0,0.0,0
1704781120552871351,14971,0,,0,0,,0,0,0,0,0,0,36.90477584,118.16619785,25.8,0.0,1.393,0.0,-0.43,-1.02,329.21,195540.0,0.0,0.0,1.199,-0.709,0.0,0.0,0.0,0.0,0.0,0.0,0.0,0.0,0.0,0.0,0.0,0.0,0.0,0.0,0.0,0.0,0.0,0.0,0.0,0.0,0
1704781120651821610,14972,0,,0,0,,0,0,0,0,0,0,36.90477696,118.1661971,25.8,0.0,1.342,0.0,-0.45,-0.93,329.2,195540.1,0.0,0.0,1.172,-0.653,0.0,0.0,0.0,0.0,0.0,0.0,0.0,0.0,0.0,0.0,0.0,0.0,0.0,0.0,0.0,0.0,0.0,0.0,0.0,0.0,0
1704781120752322700,14973,0,,0,0,,0,0,0,0,0,0,36.90477801,118.16619635,25.8,0.0,1.368,0.0,-0.47,-0.85,329.16,195540.2,0.0,0.0,1.18,-0.692,0.0,0.0,0.0,0.0,0.0,0.0,0.0,0.0,0.0,0.0,0.0,0.0,0.0,0.0,0.0,0.0,0.0,0.0,0.0,0.0,0
1704781120851963615,14974,0,,0,0,,0,0,0,0,0,0,36.90477909,118.16619559,25.79,0.0,1.341,0.0,-0.4,-0.9,329.23,195540.3,0.0,0.0,1.149,-0.69,0.0,0.0,0.0,0.0,0.0,0.0,0.0,0.0,0.0,0.0,0.0,0.0,0.0,0.0,0.0,0.0,0.0,0.0,0.0,0.0,0
1704781120951340964,14975,0,,0,0,,0,0,0,0,0,0,36.90478015,118.16619483,25.8,0.0,1.367,0.0,-0.48,-0.79,329.19,195540.4,0.0,0.0,1.199,-0.656,0.0,0.0,0.0,0.0,0.0,0.0,0.0,0.0,0.0,0.0,0.0,0.0,0.0,0.0,0.0,0.0,0.0,0.0,0.0,0.0,0
1704781121051865937,14976,0,,0,0,,0,0,0,0,0,0,36.90478124,118.1661941,25.79,0.0,1.35,0.0,-0.39,-0.73,329.22,195540.5,0.0,0.0,1.162,-0.688,0.0,0.0,0.0,0.0,0.0,0.0,0.0,0.0,0.0,0.0,0.0,0.0,0.0,0.0,0.0,0.0,0.0,0.0,0.0,0.0,0
1704781121151870084,14977,0,,0,0,,0,0,0,0,0,0,36.90478229,118.16619332,25.79,0.0,1.358,0.0,-0.36,-0.78,329.28,195540.6,0.0,0.0,1.177,-0.677,0.0,0.0,0.0,0.0,0.0,0.0,0.0,0.0,0.0,0.0,0.0,0.0,0.0,0.0,0.0,0.0,0.0,0.0,0.0,0.0,0
1704781121251103496,14978,0,,0,0,,0,0,0,0,0,0,36.90478338,118.16619259,25.79,0.0,1.356,0.0,-0.31,-0.71,329.25,195540.7,0.0,0.0,1.181,-0.666,0.0,0.0,0.0,0.0,0.0,0.0,0.0,0.0,0.0,0.0,0.0,0.0,0.0,0.0,0.0,0.0,0.0,0.0,0.0,0.0,0
1704781121351440043,14979,0,,0,0,,0,0,0,0,0,0,36.90478443,118.16619187,25.79,0.0,1.297,0.0,-0.23,-0.35,329.16,195540.8,0.0,0.0,1.155,-0.59,0.0,0.0,0.0,0.0,0.0,0.0,0.0,0.0,0.0,0.0,0.0,0.0,0.0,0.0,0.0,0.0,0.0,0.0,0.0,0.0,0
1704781121451611391,14980,0,,0,0,,0,0,0,0,0,0,36.90478552,118.16619113,25.79,0.0,1.471,0.0,-0.13,-0.47,329.25,195540.9,0.0,0.0,1.218,-0.825,0.0,0.0,0.0,0.0,0.0,0.0,0.0,0.0,0.0,0.0,0.0,0.0,0.0,0.0,0.0,0.0,0.0,0.0,0.0,0.0,0
1704781121551718758,14981,0,,0,0,,0,0,0,0,0,0,36.90478662,118.16619022,25.79,0.0,1.421,0.0,-0.6,-0.99,329.45,195541.0,0.0,0.0,1.183,-0.787,0.0,0.0,0.0,0.0,0.0,0.0,0.0,0.0,0.0,0.0,0.0,0.0,0.0,0.0,0.0,0.0,0.0,0.0,0.0,0.0,0
1704781121652168572,14982,0,,0,0,,0,0,0,0,0,0,36.9047878,118.16618944,25.79,0.0,1.52,0.0,-0.33,-0.87,329.43,195541.1,0.0,0.0,1.346,-0.705,0.0,0.0,0.0,0.0,0.0,0.0,0.0,0.0,0.0,0.0,0.0,0.0,0.0,0.0,0.0,0.0,0.0,0.0,0.0,0.0,0
1704781121752077724,14983,0,,0,0,,0,0,0,0,0,0,36.904789,118.16618863,25.79,0.0,1.519,0.0,-0.39,-0.63,329.45,195541.2,0.0,0.0,1.312,-0.764,0.0,0.0,0.0,0.0,0.0,0.0,0.0,0.0,0.0,0.0,0.0,0.0,0.0,0.0,0.0,0.0,0.0,0.0,0.0,0.0,0
1704781121851261077,14984,0,,0,0,,0,0,0,0,0,0,36.90479024,118.16618776,25.79,0.0,1.601,0.0,-0.23,-0.71,329.53,195541.3,0.0,0.0,1.375,-0.819,0.0,0.0,0.0,0.0,0.0,0.0,0.0,0.0,0.0,0.0,0.0,0.0,0.0,0.0,0.0,0.0,0.0,0.0,0.0,0.0,0
1704781121951407211,14985,0,,0,0,,0,0,0,0,0,0,36.90479152,118.16618689,25.79,0.0,1.631,0.0,-0.57,-0.29,329.5,195541.4,0.0,0.0,1.456,-0.736,0.0,0.0,0.0,0.0,0.0,0.0,0.0,0.0,0.0,0.0,0.0,0.0,0.0,0.0,0.0,0.0,0.0,0.0,0.0,0.0,0
1704781122051280767,14986,0,,0,0,,0,0,0,0,0,0,36.90479282,118.16618605,25.79,0.0,1.587,0.0,-0.32,-0.22,329.53,195541.5,0.0,0.0,1.341,-0.847,0.0,0.0,0.0,0.0,0.0,0.0,0.0,0.0,0.0,0.0,0.0,0.0,0.0,0.0,0.0,0.0,0.0,0.0,0.0,0.0,0
1704781122151916464,14987,0,,0,0,,0,0,0,0,0,0,36.90479406,118.16618505,25.79,0.0,1.657,0.0,-0.24,-0.73,329.6,195541.6,0.0,0.0,1.409,-0.873,0.0,0.0,0.0,0.0,0.0,0.0,0.0,0.0,0.0,0.0,0.0,0.0,0.0,0.0,0.0,0.0,0.0,0.0,0.0,0.0,0
1704781122250687340,14988,0,,0,0,,0,0,0,0,0,0,36.90479536,118.16618419,25.78,0.0,1.566,0.0,-0.26,-0.61,329.64,195541.7,0.0,0.0,1.388,-0.726,0.0,0.0,0.0,0.0,0.0,0.0,0.0,0.0,0.0,0.0,0.0,0.0,0.0,0.0,0.0,0.0,0.0,0.0,0.0,0.0,0
1704781122351736287,14989,0,,0,0,,0,0,0,0,0,0,36.90479656,118.16618335,25.79,0.0,1.49,0.0,-0.47,-0.53,329.61,195541.8,0.0,0.0,1.288,-0.749,0.0,0.0,0.0,0.0,0.0,0.0,0.0,0.0,0.0,0.0,0.0,0.0,0.0,0.0,0.0,0.0,0.0,0.0,0.0,0.0,0
1704781122451554842,14990,0,,0,0,,0,0,0,0,0,0,36.9047977,118.16618256,25.78,0.0,1.393,0.0,-0.0,-0.72,329.61,195541.9,0.0,0.0,1.203,-0.703,0.0,0.0,0.0,0.0,0.0,0.0,0.0,0.0,0.0,0.0,0.0,0.0,0.0,0.0,0.0,0.0,0.0,0.0,0.0,0.0,0
1704781122551881044,14991,0,,0,0,,0,0,0,0,0,0,36.90479881,118.16618176,25.78,0.0,1.409,0.0,-0.33,-0.72,329.63,195542.0,0.0,0.0,1.238,-0.673,0.0,0.0,0.0,0.0,0.0,0.0,0.0,0.0,0.0,0.0,0.0,0.0,0.0,0.0,0.0,0.0,0.0,0.0,0.0,0.0,0
1704781122651718672,14992,0,,0,0,,0,0,0,0,0,0,36.90479992,118.16618104,25.78,0.0,1.394,0.0,0.06,-0.67,329.63,195542.1,0.0,0.0,1.227,-0.662,0.0,0.0,0.0,0.0,0.0,0.0,0.0,0.0,0.0,0.0,0.0,0.0,0.0,0.0,0.0,0.0,0.0,0.0,0.0,0.0,0
1704781122751929368,14993,0,,0,0,,0,0,0,0,0,0,36.90480102,118.16618027,25.78,0.0,1.4,0.0,-0.1,-0.57,329.85,195542.2,0.0,0.0,1.22,-0.686,0.0,0.0,0.0,0.0,0.0,0.0,0.0,0.0,0.0,0.0,0.0,0.0,0.0,0.0,0.0,0.0,0.0,0.0,0.0,0.0,0
1704781122851130587,14994,0,,0,0,,0,0,0,0,0,0,36.90480214,118.16617953,25.78,0.0,1.37,0.0,-0.04,-0.62,330.21,195542.3,0.0,0.0,1.2,-0.661,0.0,0.0,0.0,0.0,0.0,0.0,0.0,0.0,0.0,0.0,0.0,0.0,0.0,0.0,0.0,0.0,0.0,0.0,0.0,0.0,0
1704781122951782825,14995,0,,0,0,,0,0,0,0,0,0,36.90480322,118.16617879,25.78,0.0,1.354,0.0,-0.08,-0.67,330.51,195542.4,0.0,0.0,1.193,-0.641,0.0,0.0,0.0,0.0,0.0,0.0,0.0,0.0,0.0,0.0,0.0,0.0,0.0,0.0,0.0,0.0,0.0,0.0,0.0,0.0,0
1704781123051496345,14996,0,,0,0,,0,0,0,0,0,0,36.90480433,118.16617809,25.78,0.0,1.376,0.0,-0.01,-0.61,330.86,195542.5,0.0,0.0,1.219,-0.638,0.0,0.0,0.0,0.0,0.0,0.0,0.0,0.0,0.0,0.0,0.0,0.0,0.0,0.0,0.0,0.0,0.0,0.0,0.0,0.0,0
1704781123152056049,14997,0,,0,0,,0,0,0,0,0,0,36.90480543,118.16617737,25.78,0.0,1.387,0.0,-0.05,-0.54,331.21,195542.6,0.0,0.0,1.218,-0.663,0.0,0.0,0.0,0.0,0.0,0.0,0.0,0.0,0.0,0.0,0.0,0.0,0.0,0.0,0.0,0.0,0.0,0.0,0.0,0.0,0
1704781123251148596,14998,0,,0,0,,0,0,0,0,0,0,36.90480657,118.16617663,25.78,0.0,1.44,0.0,-0.1,-0.7,331.6,195542.7,0.0,0.0,1.278,-0.664,0.0,0.0,0.0,0.0,0.0,0.0,0.0,0.0,0.0,0.0,0.0,0.0,0.0,0.0,0.0,0.0,0.0,0.0,0.0,0.0,0
1704781123351159401,14999,0,,0,0,,0,0,0,0,0,0,36.90480773,118.16617591,25.78,0.0,1.473,0.0,-0.07,-0.5,331.9,195542.8,0.0,0.0,1.329,-0.634,0.0,0.0,0.0,0.0,0.0,0.0,0.0,0.0,0.0,0.0,0.0,0.0,0.0,0.0,0.0,0.0,0.0,0.0,0.0,0.0,0
1704781123451359085,15000,0,,0,0,,0,0,0,0,0,0,36.90480896,118.16617516,25.78,0.0,1.524,0.0,-0.1,-0.58,332.18,195542.9,0.0,0.0,1.346,-0.713,0.0,0.0,0.0,0.0,0.0,0.0,0.0,0.0,0.0,0.0,0.0,0.0,0.0,0.0,0.0,0.0,0.0,0.0,0.0,0.0,0
1704781123551722576,15001,0,,0,0,,0,0,0,0,0,0,36.90481017,118.16617435,25.78,0.0,1.518,0.0,-0.3,-0.68,332.39,195543.0,0.0,0.0,1.351,-0.692,0.0,0.0,0.0,0.0,0.0,0.0,0.0,0.0,0.0,0.0,0.0,0.0,0.0,0.0,0.0,0.0,0.0,0.0,0.0,0.0,0
1704781123651173743,15002,0,,0,0,,0,0,0,0,0,0,36.90481141,118.16617362,25.78,0.0,1.486,0.0,-0.32,-0.64,332.37,195543.1,0.0,0.0,1.338,-0.646,0.0,0.0,0.0,0.0,0.0,0.0,0.0,0.0,0.0,0.0,0.0,0.0,0.0,0.0,0.0,0.0,0.0,0.0,0.0,0.0,0
1704781123751659225,15003,0,,0,0,,0,0,0,0,0,0,36.90481257,118.16617289,25.78,0.0,1.412,0.0,-0.36,-0.58,332.28,195543.2,0.0,0.0,1.259,-0.639,0.0,0.0,0.0,0.0,0.0,0.0,0.0,0.0,0.0,0.0,0.0,0.0,0.0,0.0,0.0,0.0,0.0,0.0,0.0,0.0,0
1704781123851232892,15004,0,,0,0,,0,0,0,0,0,0,36.90481372,118.1661722,25.78,0.0,1.4,0.0,-0.27,-0.67,332.32,195543.3,0.0,0.0,1.246,-0.639,0.0,0.0,0.0,0.0,0.0,0.0,0.0,0.0,0.0,0.0,0.0,0.0,0.0,0.0,0.0,0.0,0.0,0.0,0.0,0.0,0
1704781123951286578,15005,0,,0,0,,0,0,0,0,0,0,36.90481484,118.16617149,25.78,0.0,1.405,0.0,-0.27,-0.63,332.25,195543.4,0.0,0.0,1.265,-0.611,0.0,0.0,0.0,0.0,0.0,0.0,0.0,0.0,0.0,0.0,0.0,0.0,0.0,0.0,0.0,0.0,0.0,0.0,0.0,0.0,0
1704781124051416311,15006,0,,0,0,,0,0,0,0,0,0,36.90481602,118.16617079,25.78,0.0,1.472,0.0,-0.26,-0.64,332.21,195543.5,0.0,0.0,1.315,-0.662,0.0,0.0,0.0,0.0,0.0,0.0,0.0,0.0,0.0,0.0,0.0,0.0,0.0,0.0,0.0,0.0,0.0,0.0,0.0,0.0,0
1704781124151669984,15007,0,,0,0,,0,0,0,0,0,0,36.90481718,118.16617004,25.78,0.0,1.44,0.0,-0.31,-0.65,332.17,195543.6,0.0,0.0,1.288,-0.643,0.0,0.0,0.0,0.0,0.0,0.0,0.0,0.0,0.0,0.0,0.0,0.0,0.0,0.0,0.0,0.0,0.0,0.0,0.0,0.0,0
1704781124250250786,15008,0,,0,0,,0,0,0,0,0,0,36.90481836,118.16616934,25.77,0.0,1.439,0.0,-0.28,-0.6,332.12,195543.7,0.0,0.0,1.288,-0.642,0.0,0.0,0.0,0.0,0.0,0.0,0.0,0.0,0.0,0.0,0.0,0.0,0.0,0.0,0.0,0.0,0.0,0.0,0.0,0.0,0
1704781124351166310,15009,0,,0,0,,0,0,0,0,0,0,36.90481951,118.16616859,25.77,0.0,1.434,0.0,-0.4,-0.69,332.09,195543.8,0.0,0.0,1.286,-0.635,0.0,0.0,0.0,0.0,0.0,0.0,0.0,0.0,0.0,0.0,0.0,0.0,0.0,0.0,0.0,0.0,0.0,0.0,0.0,0.0,0
1704781124451614260,15010,0,,0,0,,0,0,0,0,0,0,36.90482069,118.16616788,25.77,0.0,1.452,0.0,-0.42,-0.74,332.03,195543.9,0.0,0.0,1.294,-0.66,0.0,0.0,0.0,0.0,0.0,0.0,0.0,0.0,0.0,0.0,0.0,0.0,0.0,0.0,0.0,0.0,0.0,0.0,0.0,0.0,0
1704781124551217667,15011,0,,0,0,,0,0,0,0,0,0,36.90482187,118.16616711,25.77,0.0,1.522,0.0,-0.54,-0.8,332.05,195544.0,0.0,0.0,1.35,-0.704,0.0,0.0,0.0,0.0,0.0,0.0,0.0,0.0,0.0,0.0,0.0,0.0,0.0,0.0,0.0,0.0,0.0,0.0,0.0,0.0,0
1704781124651802128,15012,0,,0,0,,0,0,0,0,0,0,36.90482311,118.16616635,25.77,0.0,1.547,0.0,-0.66,-0.81,332.06,195544.1,0.0,0.0,1.387,-0.685,0.0,0.0,0.0,0.0,0.0,0.0,0.0,0.0,0.0,0.0,0.0,0.0,0.0,0.0,0.0,0.0,0.0,0.0,0.0,0.0,0
1704781124751841981,15013,0,,0,0,,0,0,0,0,0,0,36.90482437,118.16616555,25.77,0.0,1.615,0.0,-0.71,-0.77,332.01,195544.2,0.0,0.0,1.444,-0.723,0.0,0.0,0.0,0.0,0.0,0.0,0.0,0.0,0.0,0.0,0.0,0.0,0.0,0.0,0.0,0.0,0.0,0.0,0.0,0.0,0
1704781124850725260,15014,0,,0,0,,0,0,0,0,0,0,36.90482569,118.16616475,25.77,0.0,1.593,0.0,-0.7,-0.79,331.95,195544.3,0.0,0.0,1.421,-0.721,0.0,0.0,0.0,0.0,0.0,0.0,0.0,0.0,0.0,0.0,0.0,0.0,0.0,0.0,0.0,0.0,0.0,0.0,0.0,0.0,0
1704781124951193634,15015,0,,0,0,,0,0,0,0,0,0,36.90482698,118.16616391,25.77,0.0,1.647,0.0,-0.55,-0.83,331.9,195544.4,0.0,0.0,1.469,-0.745,0.0,0.0,0.0,0.0,0.0,0.0,0.0,0.0,0.0,0.0,0.0,0.0,0.0,0.0,0.0,0.0,0.0,0.0,0.0,0.0,0
1704781125051001487,15016,0,,0,0,,0,0,0,0,0,0,36.9048283,118.16616308,25.77,0.0,1.637,0.0,-0.55,-0.9,331.92,195544.5,0.0,0.0,1.454,-0.753,0.0,0.0,0.0,0.0,0.0,0.0,0.0,0.0,0.0,0.0,0.0,0.0,0.0,0.0,0.0,0.0,0.0,0.0,0.0,0.0,0
1704781125151008672,15017,0,,0,0,,0,0,0,0,0,0,36.90482962,118.16616223,25.76,0.0,1.66,0.0,-0.37,-0.84,331.86,195544.6,0.0,0.0,1.494,-0.722,0.0,0.0,0.0,0.0,0.0,0.0,0.0,0.0,0.0,0.0,0.0,0.0,0.0,0.0,0.0,0.0,0.0,0.0,0.0,0.0,0
1704781125250306741,15018,0,,0,0,,0,0,0,0,0,0,36.90483097,118.16616142,25.76,0.0,1.661,0.0,-0.38,-0.76,331.85,195544.7,0.0,0.0,1.485,-0.743,0.0,0.0,0.0,0.0,0.0,0.0,0.0,0.0,0.0,0.0,0.0,0.0,0.0,0.0,0.0,0.0,0.0,0.0,0.0,0.0,0
1704781125350557456,15019,0,,0,0,,0,0,0,0,0,0,36.90483228,118.16616056,25.76,0.0,1.646,0.0,-0.31,-0.82,331.85,195544.8,0.0,0.0,1.461,-0.758,0.0,0.0,0.0,0.0,0.0,0.0,0.0,0.0,0.0,0.0,0.0,0.0,0.0,0.0,0.0,0.0,0.0,0.0,0.0,0.0,0
1704781125450717465,15020,0,,0,0,,0,0,0,0,0,0,36.90483365,118.16615971,25.76,0.0,1.67,0.0,-0.47,-0.78,331.87,195544.9,0.0,0.0,1.49,-0.754,0.0,0.0,0.0,0.0,0.0,0.0,0.0,0.0,0.0,0.0,0.0,0.0,0.0,0.0,0.0,0.0,0.0,0.0,0.0,0.0,0
1704781125551466822,15021,0,,0,0,,0,0,0,0,0,0,36.90483497,118.16615885,25.76,0.0,1.644,0.0,-0.45,-0.83,331.91,195545.0,0.0,0.0,1.456,-0.764,0.0,0.0,0.0,0.0,0.0,0.0,0.0,0.0,0.0,0.0,0.0,0.0,0.0,0.0,0.0,0.0,0.0,0.0,0.0,0.0,0
1704781125650303344,15022,0,,0,0,,0,0,0,0,0,0,36.90483631,118.166158,25.76,0.0,1.664,0.0,-0.53,-0.89,331.99,195545.1,0.0,0.0,1.489,-0.743,0.0,0.0,0.0,0.0,0.0,0.0,0.0,0.0,0.0,0.0,0.0,0.0,0.0,0.0,0.0,0.0,0.0,0.0,0.0,0.0,0
1704781125749983251,15023,0,,0,0,,0,0,0,0,0,0,36.90483763,118.16615717,25.76,0.0,1.629,0.0,-0.51,-0.87,332.0,195545.2,0.0,0.0,1.457,-0.727,0.0,0.0,0.0,0.0,0.0,0.0,0.0,0.0,0.0,0.0,0.0,0.0,0.0,0.0,0.0,0.0,0.0,0.0,0.0,0.0,0
1704781125850303117,15024,0,,0,0,,0,0,0,0,0,0,36.90483896,118.16615635,25.75,0.0,1.63,0.0,-0.54,-0.88,332.04,195545.3,0.0,0.0,1.448,-0.749,0.0,0.0,0.0,0.0,0.0,0.0,0.0,0.0,0.0,0.0,0.0,0.0,0.0,0.0,0.0,0.0,0.0,0.0,0.0,0.0,0
1704781125950652967,15025,0,,0,0,,0,0,0,0,0,0,36.90484026,118.16615552,25.75,0.0,1.628,0.0,-0.5,-0.79,332.17,195545.4,0.0,0.0,1.461,-0.717,0.0,0.0,0.0,0.0,0.0,0.0,0.0,0.0,0.0,0.0,0.0,0.0,0.0,0.0,0.0,0.0,0.0,0.0,0.0,0.0,0
1704781126050803688,15026,0,,0,0,,0,0,0,0,0,0,36.90484159,118.16615473,25.75,0.0,1.627,0.0,-0.52,-0.73,332.35,195545.5,0.0,0.0,1.46,-0.718,0.0,0.0,0.0,0.0,0.0,0.0,0.0,0.0,0.0,0.0,0.0,0.0,0.0,0.0,0.0,0.0,0.0,0.0,0.0,0.0,0
1704781126151192818,15027,0,,0,0,,0,0,0,0,0,0,36.90484289,118.16615389,25.75,0.0,1.64,0.0,-0.56,-0.79,332.62,195545.6,0.0,0.0,1.462,-0.743,0.0,0.0,0.0,0.0,0.0,0.0,0.0,0.0,0.0,0.0,0.0,0.0,0.0,0.0,0.0,0.0,0.0,0.0,0.0,0.0,0
1704781126249838329,15028,0,,0,0,,0,0,0,0,0,0,36.90484421,118.1661531,25.75,0.0,1.608,0.0,-0.42,-0.84,332.84,195545.7,0.0,0.0,1.45,-0.695,0.0,0.0,0.0,0.0,0.0,0.0,0.0,0.0,0.0,0.0,0.0,0.0,0.0,0.0,0.0,0.0,0.0,0.0,0.0,0.0,0
1704781126350524235,15029,0,,0,0,,0,0,0,0,0,0,36.90484552,118.16615229,25.75,0.0,1.648,0.0,-0.54,-0.83,333.14,195545.8,0.0,0.0,1.486,-0.712,0.0,0.0,0.0,0.0,0.0,0.0,0.0,0.0,0.0,0.0,0.0,0.0,0.0,0.0,0.0,0.0,0.0,0.0,0.0,0.0,0
1704781126450338176,15030,0,,0,0,,0,0,0,0,0,0,36.90484686,118.16615151,25.75,0.0,1.641,0.0,-0.51,-0.8,333.5,195545.9,0.0,0.0,1.482,-0.704,0.0,0.0,0.0,0.0,0.0,0.0,0.0,0.0,0.0,0.0,0.0,0.0,0.0,0.0,0.0,0.0,0.0,0.0,0.0,0.0,0
1704781126550527670,15031,0,,0,0,,0,0,0,0,0,0,36.9048482,118.1661507,25.75,0.0,1.651,0.0,-0.75,-0.9,333.89,195546.0,0.0,0.0,1.487,-0.717,0.0,0.0,0.0,0.0,0.0,0.0,0.0,0.0,0.0,0.0,0.0,0.0,0.0,0.0,0.0,0.0,0.0,0.0,0.0,0.0,0
1704781126649581070,15032,0,,0,0,,0,0,0,0,0,0,36.90484954,118.16614997,25.74,0.0,1.613,0.0,-0.46,-0.83,334.22,195546.1,0.0,0.0,1.476,-0.653,0.0,0.0,0.0,0.0,0.0,0.0,0.0,0.0,0.0,0.0,0.0,0.0,0.0,0.0,0.0,0.0,0.0,0.0,0.0,0.0,0
1704781126749856521,15033,0,,0,0,,0,0,0,0,0,0,36.90485089,118.1661492,25.74,0.0,1.628,0.0,-0.8,-0.75,334.6,195546.2,0.0,0.0,1.48,-0.678,0.0,0.0,0.0,0.0,0.0,0.0,0.0,0.0,0.0,0.0,0.0,0.0,0.0,0.0,0.0,0.0,0.0,0.0,0.0,0.0,0
1704781126850185075,15034,0,,0,0,,0,0,0,0,0,0,36.90485222,118.16614847,25.74,0.0,1.619,0.0,-0.62,-0.83,334.81,195546.3,0.0,0.0,1.47,-0.677,0.0,0.0,0.0,0.0,0.0,0.0,0.0,0.0,0.0,0.0,0.0,0.0,0.0,0.0,0.0,0.0,0.0,0.0,0.0,0.0,0
1704781126950175419,15035,0,,0,0,,0,0,0,0,0,0,36.90485353,118.16614772,25.74,0.0,1.544,0.0,-0.92,-0.85,334.96,195546.4,0.0,0.0,1.411,-0.628,0.0,0.0,0.0,0.0,0.0,0.0,0.0,0.0,0.0,0.0,0.0,0.0,0.0,0.0,0.0,0.0,0.0,0.0,0.0,0.0,0
1704781127050397066,15036,0,,0,0,,0,0,0,0,0,0,36.90485475,118.16614708,25.74,0.0,1.396,0.0,-0.7,-0.87,334.95,195546.5,0.0,0.0,1.273,-0.572,0.0,0.0,0.0,0.0,0.0,0.0,0.0,0.0,0.0,0.0,0.0,0.0,0.0,0.0,0.0,0.0,0.0,0.0,0.0,0.0,0
1704781127150766652,15037,0,,0,0,,0,0,0,0,0,0,36.9048559,118.16614643,25.74,0.0,1.399,0.0,-0.79,-0.88,334.97,195546.6,0.0,0.0,1.282,-0.56,0.0,0.0,0.0,0.0,0.0,0.0,0.0,0.0,0.0,0.0,0.0,0.0,0.0,0.0,0.0,0.0,0.0,0.0,0.0,0.0,0
1704781127249622980,15038,0,,0,0,,0,0,0,0,0,0,36.90485704,118.16614585,25.74,0.0,1.344,0.0,-0.7,-0.71,335.04,195546.7,0.0,0.0,1.238,-0.522,0.0,0.0,0.0,0.0,0.0,0.0,0.0,0.0,0.0,0.0,0.0,0.0,0.0,0.0,0.0,0.0,0.0,0.0,0.0,0.0,0
1704781127349632428,15039,0,,0,0,,0,0,0,0,0,0,36.90485817,118.16614522,25.73,0.0,1.444,0.0,-0.54,-0.8,334.99,195546.8,0.0,0.0,1.307,-0.612,0.0,0.0,0.0,0.0,0.0,0.0,0.0,0.0,0.0,0.0,0.0,0.0,0.0,0.0,0.0,0.0,0.0,0.0,0.0,0.0,0
1704781127449923609,15040,0,,0,0,,0,0,0,0,0,0,36.90485939,118.16614455,25.73,0.0,1.476,0.0,-0.75,-0.83,335.06,195546.9,0.0,0.0,1.357,-0.582,0.0,0.0,0.0,0.0,0.0,0.0,0.0,0.0,0.0,0.0,0.0,0.0,0.0,0.0,0.0,0.0,0.0,0.0,0.0,0.0,0
1704781127549980420,15041,0,,0,0,,0,0,0,0,0,0,36.90486064,118.1661439,25.73,0.0,1.567,0.0,-0.52,-0.57,335.0,195547.0,0.0,0.0,1.437,-0.624,0.0,0.0,0.0,0.0,0.0,0.0,0.0,0.0,0.0,0.0,0.0,0.0,0.0,0.0,0.0,0.0,0.0,0.0,0.0,0.0,0
1704781127649466965,15042,0,,0,0,,0,0,0,0,0,0,36.90486199,118.16614312,25.73,0.0,1.605,0.0,-0.95,-0.96,335.0,195547.1,0.0,0.0,1.419,-0.749,0.0,0.0,0.0,0.0,0.0,0.0,0.0,0.0,0.0,0.0,0.0,0.0,0.0,0.0,0.0,0.0,0.0,0.0,0.0,0.0,0
1704781127749402352,15043,0,,0,0,,0,0,0,0,0,0,36.90486328,118.16614237,25.73,0.0,1.623,0.0,-0.49,-0.94,335.11,195547.2,0.0,0.0,1.499,-0.623,0.0,0.0,0.0,0.0,0.0,0.0,0.0,0.0,0.0,0.0,0.0,0.0,0.0,0.0,0.0,0.0,0.0,0.0,0.0,0.0,0
1704781127849622175,15044,0,,0,0,,0,0,0,0,0,0,36.9048647,118.16614167,25.73,0.0,1.678,0.0,-0.89,-0.56,335.09,195547.3,0.0,0.0,1.552,-0.639,0.0,0.0,0.0,0.0,0.0,0.0,0.0,0.0,0.0,0.0,0.0,0.0,0.0,0.0,0.0,0.0,0.0,0.0,0.0,0.0,0
1704781127950220929,15045,0,,0,0,,0,0,0,0,0,0,36.90486606,118.1661409,25.73,0.0,1.648,0.0,-0.79,-0.6,335.17,195547.4,0.0,0.0,1.49,-0.705,0.0,0.0,0.0,0.0,0.0,0.0,0.0,0.0,0.0,0.0,0.0,0.0,0.0,0.0,0.0,0.0,0.0,0.0,0.0,0.0,0
1704781128050045692,15046,0,,0,0,,0,0,0,0,0,0,36.90486747,118.16614015,25.73,0.0,1.67,0.0,-0.87,-0.46,335.15,195547.5,0.0,0.0,1.553,-0.615,0.0,0.0,0.0,0.0,0.0,0.0,0.0,0.0,0.0,0.0,0.0,0.0,0.0,0.0,0.0,0.0,0.0,0.0,0.0,0.0,0
1704781128150352014,15047,0,,0,0,,0,0,0,0,0,0,36.90486884,118.1661394,25.72,0.0,1.649,0.0,-0.89,-0.54,335.22,195547.6,0.0,0.0,1.497,-0.69,0.0,0.0,0.0,0.0,0.0,0.0,0.0,0.0,0.0,0.0,0.0,0.0,0.0,0.0,0.0,0.0,0.0,0.0,0.0,0.0,0
1704781128249420585,15048,0,,0,0,,0,0,0,0,0,0,36.90487022,118.1661386,25.72,0.0,1.673,0.0,-0.96,-0.76,335.31,195547.7,0.0,0.0,1.524,-0.689,0.0,0.0,0.0,0.0,0.0,0.0,0.0,0.0,0.0,0.0,0.0,0.0,0.0,0.0,0.0,0.0,0.0,0.0,0.0,0.0,0
1704781128349520919,15049,0,,0,0,,0,0,0,0,0,0,36.90487158,118.16613786,25.72,0.0,1.646,0.0,-0.95,-0.78,335.29,195547.8,0.0,0.0,1.522,-0.626,0.0,0.0,0.0,0.0,0.0,0.0,0.0,0.0,0.0,0.0,0.0,0.0,0.0,0.0,0.0,0.0,0.0,0.0,0.0,0.0,0
1704781128449247077,15050,0,,0,0,,0,0,0,0,0,0,36.90487297,118.16613716,25.72,0.0,1.649,0.0,-0.95,-0.57,335.37,195547.9,0.0,0.0,1.516,-0.65,0.0,0.0,0.0,0.0,0.0,0.0,0.0,0.0,0.0,0.0,0.0,0.0,0.0,0.0,0.0,0.0,0.0,0.0,0.0,0.0,0
1704781128549785039,15051,0,,0,0,,0,0,0,0,0,0,36.90487431,118.16613641,25.72,0.0,1.633,0.0,-0.93,-0.61,335.39,195548.0,0.0,0.0,1.503,-0.639,0.0,0.0,0.0,0.0,0.0,0.0,0.0,0.0,0.0,0.0,0.0,0.0,0.0,0.0,0.0,0.0,0.0,0.0,0.0,0.0,0
1704781128649125862,15052,0,,0,0,,0,0,0,0,0,0,36.90487569,118.16613572,25.72,0.0,1.604,0.0,-0.89,-0.42,335.3,195548.1,0.0,0.0,1.483,-0.609,0.0,0.0,0.0,0.0,0.0,0.0,0.0,0.0,0.0,0.0,0.0,0.0,0.0,0.0,0.0,0.0,0.0,0.0,0.0,0.0,0
1704781128749317815,15053,0,,0,0,,0,0,0,0,0,0,36.90487702,118.16613497,25.72,0.0,1.633,0.0,-0.94,-0.49,335.35,195548.2,0.0,0.0,1.48,-0.691,0.0,0.0,0.0,0.0,0.0,0.0,0.0,0.0,0.0,0.0,0.0,0.0,0.0,0.0,0.0,0.0,0.0,0.0,0.0,0.0,0
1704781128849657210,15054,0,,0,0,,0,0,0,0,0,0,36.90487835,118.16613423,25.71,0.0,1.517,0.0,-0.96,-0.74,335.4,195548.3,0.0,0.0,1.382,-0.626,0.0,0.0,0.0,0.0,0.0,0.0,0.0,0.0,0.0,0.0,0.0,0.0,0.0,0.0,0.0,0.0,0.0,0.0,0.0,0.0,0
1704781128949521721,15055,0,,0,0,,0,0,0,0,0,0,36.90487955,118.16613357,25.71,0.0,1.418,0.0,-1.04,-0.79,335.42,195548.4,0.0,0.0,1.306,-0.553,0.0,0.0,0.0,0.0,0.0,0.0,0.0,0.0,0.0,0.0,0.0,0.0,0.0,0.0,0.0,0.0,0.0,0.0,0.0,0.0,0
1704781129049636899,15056,0,,0,0,,0,0,0,0,0,0,36.90488071,118.16613298,25.71,0.0,1.315,0.0,-1.01,-0.73,335.64,195548.5,0.0,0.0,1.205,-0.527,0.0,0.0,0.0,0.0,0.0,0.0,0.0,0.0,0.0,0.0,0.0,0.0,0.0,0.0,0.0,0.0,0.0,0.0,0.0,0.0,0
1704781129149901051,15057,0,,0,0,,0,0,0,0,0,0,36.90488179,118.16613241,25.71,0.0,1.293,0.0,-0.95,-0.69,336.08,195548.6,0.0,0.0,1.186,-0.515,0.0,0.0,0.0,0.0,0.0,0.0,0.0,0.0,0.0,0.0,0.0,0.0,0.0,0.0,0.0,0.0,0.0,0.0,0.0,0.0,0
1704781129249302295,15058,0,,0,0,,0,0,0,0,0,0,36.90488289,118.16613187,25.71,0.0,1.271,0.0,-1.08,-0.65,336.47,195548.7,0.0,0.0,1.184,-0.464,0.0,0.0,0.0,0.0,0.0,0.0,0.0,0.0,0.0,0.0,0.0,0.0,0.0,0.0,0.0,0.0,0.0,0.0,0.0,0.0,0
1704781129349293470,15059,0,,0,0,,0,0,0,0,0,0,36.90488392,118.16613134,25.71,0.0,1.262,0.0,-0.74,-0.66,336.8,195548.8,0.0,0.0,1.169,-0.477,0.0,0.0,0.0,0.0,0.0,0.0,0.0,0.0,0.0,0.0,0.0,0.0,0.0,0.0,0.0,0.0,0.0,0.0,0.0,0.0,0
1704781129449420280,15060,0,,0,0,,0,0,0,0,0,0,36.90488504,118.16613079,25.7,0.0,1.324,0.0,-0.89,-0.8,337.25,195548.9,0.0,0.0,1.226,-0.501,0.0,0.0,0.0,0.0,0.0,0.0,0.0,0.0,0.0,0.0,0.0,0.0,0.0,0.0,0.0,0.0,0.0,0.0,0.0,0.0,0
1704781129549601531,15061,0,,0,0,,0,0,0,0,0,0,36.90488615,118.16613024,25.7,0.0,1.332,0.0,-0.84,-0.92,337.85,195549.0,0.0,0.0,1.237,-0.494,0.0,0.0,0.0,0.0,0.0,0.0,0.0,0.0,0.0,0.0,0.0,0.0,0.0,0.0,0.0,0.0,0.0,0.0,0.0,0.0,0
1704781129649078856,15062,0,,0,0,,0,0,0,0,0,0,36.90488725,118.16612969,25.7,0.0,1.273,0.0,-0.46,-1.29,338.45,195549.1,0.0,0.0,1.186,-0.461,0.0,0.0,0.0,0.0,0.0,0.0,0.0,0.0,0.0,0.0,0.0,0.0,0.0,0.0,0.0,0.0,0.0,0.0,0.0,0.0,0
1704781129748988014,15063,0,,0,0,,0,0,0,0,0,0,36.90488842,118.1661292,25.7,0.0,1.425,0.0,-1.1,-0.93,338.84,195549.2,0.0,0.0,1.361,-0.423,0.0,0.0,0.0,0.0,0.0,0.0,0.0,0.0,0.0,0.0,0.0,0.0,0.0,0.0,0.0,0.0,0.0,0.0,0.0,0.0,0
1704781129849170242,15064,0,,0,0,,0,0,0,0,0,0,36.9048896,118.16612874,25.7,0.0,1.307,0.0,-0.98,-0.64,339.1,195549.3,0.0,0.0,1.234,-0.429,0.0,0.0,0.0,0.0,0.0,0.0,0.0,0.0,0.0,0.0,0.0,0.0,0.0,0.0,0.0,0.0,0.0,0.0,0.0,0.0,0
1704781129949268991,15065,0,,0,0,,0,0,0,0,0,0,36.90489072,118.1661282,25.69,0.0,1.363,0.0,-0.84,-0.92,339.47,195549.4,0.0,0.0,1.262,-0.515,0.0,0.0,0.0,0.0,0.0,0.0,0.0,0.0,0.0,0.0,0.0,0.0,0.0,0.0,0.0,0.0,0.0,0.0,0.0,0.0,0
1704781130049429997,15066,0,,0,0,,0,0,0,0,0,0,36.90489189,118.16612769,25.7,0.0,1.314,0.0,-0.94,-0.97,339.78,195549.5,0.0,0.0,1.261,-0.368,0.0,0.0,0.0,0.0,0.0,0.0,0.0,0.0,0.0,0.0,0.0,0.0,0.0,0.0,0.0,0.0,0.0,0.0,0.0,0.0,0
1704781130149686274,15067,0,,0,0,,0,0,0,0,0,0,36.90489303,118.16612724,25.69,0.0,1.384,0.0,-0.88,-0.77,339.92,195549.6,0.0,0.0,1.318,-0.422,0.0,0.0,0.0,0.0,0.0,0.0,0.0,0.0,0.0,0.0,0.0,0.0,0.0,0.0,0.0,0.0,0.0,0.0,0.0,0.0,0
1704781130248720076,15068,0,,0,0,,0,0,0,0,0,0,36.90489421,118.16612672,25.69,0.0,1.343,0.0,-1.07,-1.03,339.91,195549.7,0.0,0.0,1.249,-0.494,0.0,0.0,0.0,0.0,0.0,0.0,0.0,0.0,0.0,0.0,0.0,0.0,0.0,0.0,0.0,0.0,0.0,0.0,0.0,0.0,0
1704781130349056902,15069,0,,0,0,,0,0,0,0,0,0,36.90489536,118.16612622,25.69,0.0,1.361,0.0,-1.15,-1.06,339.83,195549.8,0.0,0.0,1.311,-0.365,0.0,0.0,0.0,0.0,0.0,0.0,0.0,0.0,0.0,0.0,0.0,0.0,0.0,0.0,0.0,0.0,0.0,0.0,0.0,0.0,0
1704781130449256180,15070,0,,0,0,,0,0,0,0,0,0,36.90489656,118.16612576,25.69,0.0,1.384,0.0,-0.99,-0.81,339.75,195549.9,0.0,0.0,1.318,-0.422,0.0,0.0,0.0,0.0,0.0,0.0,0.0,0.0,0.0,0.0,0.0,0.0,0.0,0.0,0.0,0.0,0.0,0.0,0.0,0.0,0
1704781130549213156,15071,0,,0,0,,0,0,0,0,0,0,36.90489772,118.16612523,25.69,0.0,1.343,0.0,-1.16,-0.86,339.81,195550.0,0.0,0.0,1.253,-0.483,0.0,0.0,0.0,0.0,0.0,0.0,0.0,0.0,0.0,0.0,0.0,0.0,0.0,0.0,0.0,0.0,0.0,0.0,0.0,0.0,0
1704781130648335421,15072,0,,0,0,,0,0,0,0,0,0,36.90489889,118.16612469,25.68,0.0,1.353,0.0,-1.02,-1.2,339.78,195550.1,0.0,0.0,1.273,-0.46,0.0,0.0,0.0,0.0,0.0,0.0,0.0,0.0,0.0,0.0,0.0,0.0,0.0,0.0,0.0,0.0,0.0,0.0,0.0,0.0,0
1704781130748404535,15073,0,,0,0,,0,0,0,0,0,0,36.90490004,118.16612421,25.68,0.0,1.336,0.0,-1.2,-1.05,339.72,195550.2,0.0,0.0,1.28,-0.385,0.0,0.0,0.0,0.0,0.0,0.0,0.0,0.0,0.0,0.0,0.0,0.0,0.0,0.0,0.0,0.0,0.0,0.0,0.0,0.0,0
1704781130848854216,15074,0,,0,0,,0,0,0,0,0,0,36.90490115,118.16612371,25.68,0.0,1.231,0.0,-0.59,-1.4,339.83,195550.3,0.0,0.0,1.119,-0.514,0.0,0.0,0.0,0.0,0.0,0.0,0.0,0.0,0.0,0.0,0.0,0.0,0.0,0.0,0.0,0.0,0.0,0.0,0.0,0.0,0
1704781130949011567,15075,0,,0,0,,0,0,0,0,0,0,36.9049022,118.1661232,25.68,0.0,1.319,0.0,-0.18,-1.54,339.94,195550.4,0.0,0.0,1.252,-0.414,0.0,0.0,0.0,0.0,0.0,0.0,0.0,0.0,0.0,0.0,0.0,0.0,0.0,0.0,0.0,0.0,0.0,0.0,0.0,0.0,0
1704781131049079717,15076,0,,0,0,,0,0,0,0,0,0,36.90490342,118.16612279,25.68,0.0,1.368,0.0,-0.98,-1.06,339.6,195550.5,0.0,0.0,1.33,-0.319,0.0,0.0,0.0,0.0,0.0,0.0,0.0,0.0,0.0,0.0,0.0,0.0,0.0,0.0,0.0,0.0,0.0,0.0,0.0,0.0,0
1704781131149453705,15077,0,,0,0,,0,0,0,0,0,0,36.90490455,118.16612237,25.67,0.0,1.329,0.0,-0.5,-0.72,339.78,195550.6,0.0,0.0,1.24,-0.477,0.0,0.0,0.0,0.0,0.0,0.0,0.0,0.0,0.0,0.0,0.0,0.0,0.0,0.0,0.0,0.0,0.0,0.0,0.0,0.0,0
1704781131248657261,15078,0,,0,0,,0,0,0,0,0,0,36.90490572,118.16612181,25.67,0.0,1.338,0.0,-0.58,-1.07,340.35,195550.7,0.0,0.0,1.246,-0.485,0.0,0.0,0.0,0.0,0.0,0.0,0.0,0.0,0.0,0.0,0.0,0.0,0.0,0.0,0.0,0.0,0.0,0.0,0.0,0.0,0
1704781131348575779,15079,0,,0,0,,0,0,0,0,0,0,36.90490685,118.16612134,25.67,0.0,1.325,0.0,-0.3,-1.13,340.9,195550.8,0.0,0.0,1.271,-0.373,0.0,0.0,0.0,0.0,0.0,0.0,0.0,0.0,0.0,0.0,0.0,0.0,0.0,0.0,0.0,0.0,0.0,0.0,0.0,0.0,0
1704781131448857696,15080,0,,0,0,,0,0,0,0,0,0,36.90490804,118.16612088,25.67,0.0,1.352,0.0,-0.39,-1.07,341.43,195550.9,0.0,0.0,1.279,-0.437,0.0,0.0,0.0,0.0,0.0,0.0,0.0,0.0,0.0,0.0,0.0,0.0,0.0,0.0,0.0,0.0,0.0,0.0,0.0,0.0,0
1704781131550578147,15081,0,,0,0,,0,0,0,0,0,0,36.90490918,118.16612033,25.68,0.0,1.386,0.0,-1.06,-1.94,342.08,195551.0,0.0,0.0,1.294,-0.496,0.0,0.0,0.0,0.0,0.0,0.0,0.0,0.0,0.0,0.0,0.0,0.0,0.0,0.0,0.0,0.0,0.0,0.0,0.0,0.0,0
1704781131648335956,15082,0,,0,0,,0,0,0,0,0,0,36.90491037,118.16611989,25.67,0.0,1.238,0.0,-0.65,-1.6,342.63,195551.1,0.0,0.0,1.21,-0.261,0.0,0.0,0.0,0.0,0.0,0.0,0.0,0.0,0.0,0.0,0.0,0.0,0.0,0.0,0.0,0.0,0.0,0.0,0.0,0.0,0
1704781131748523814,15083,0,,0,0,,0,0,0,0,0,0,36.90491153,118.16611957,25.67,0.0,1.419,0.0,-0.39,-1.1,343.22,195551.2,0.0,0.0,1.385,-0.307,0.0,0.0,0.0,0.0,0.0,0.0,0.0,0.0,0.0,0.0,0.0,0.0,0.0,0.0,0.0,0.0,0.0,0.0,0.0,0.0,0
1704781131848751728,15084,0,,0,0,,0,0,0,0,0,0,36.90491273,118.16611919,25.67,0.0,1.273,0.0,-0.57,-1.03,343.68,195551.3,0.0,0.0,1.224,-0.351,0.0,0.0,0.0,0.0,0.0,0.0,0.0,0.0,0.0,0.0,0.0,0.0,0.0,0.0,0.0,0.0,0.0,0.0,0.0,0.0,0
1704781131949000754,15085,0,,0,0,,0,0,0,0,0,0,36.90491387,118.16611874,25.67,0.0,1.381,0.0,-0.46,-1.4,344.13,195551.4,0.0,0.0,1.323,-0.396,0.0,0.0,0.0,0.0,0.0,0.0,0.0,0.0,0.0,0.0,0.0,0.0,0.0,0.0,0.0,0.0,0.0,0.0,0.0,0.0,0
1704781132048467805,15086,0,,0,0,,0,0,0,0,0,0,36.90491506,118.16611836,25.67,0.0,1.309,0.0,-0.72,-1.27,344.68,195551.5,0.0,0.0,1.28,-0.274,0.0,0.0,0.0,0.0,0.0,0.0,0.0,0.0,0.0,0.0,0.0,0.0,0.0,0.0,0.0,0.0,0.0,0.0,0.0,0.0,0
1704781132148434709,15087,0,,0,0,,0,0,0,0,0,0,36.90491625,118.16611806,25.67,0.0,1.378,0.0,-0.67,-0.89,345.05,195551.6,0.0,0.0,1.35,-0.279,0.0,0.0,0.0,0.0,0.0,0.0,0.0,0.0,0.0,0.0,0.0,0.0,0.0,0.0,0.0,0.0,0.0,0.0,0.0,0.0,0
1704781132248562990,15088,0,,0,0,,0,0,0,0,0,0,36.90491743,118.16611771,25.67,0.0,1.339,0.0,-0.77,-0.96,345.53,195551.7,0.0,0.0,1.294,-0.343,0.0,0.0,0.0,0.0,0.0,0.0,0.0,0.0,0.0,0.0,0.0,0.0,0.0,0.0,0.0,0.0,0.0,0.0,0.0,0.0,0
1704781132348232704,15089,0,,0,0,,0,0,0,0,0,0,36.90491861,118.16611735,25.67,0.0,1.385,0.0,-0.73,-0.98,345.87,195551.8,0.0,0.0,1.36,-0.262,0.0,0.0,0.0,0.0,0.0,0.0,0.0,0.0,0.0,0.0,0.0,0.0,0.0,0.0,0.0,0.0,0.0,0.0,0.0,0.0,0
1704781132447848230,15090,0,,0,0,,0,0,0,0,0,0,36.90491986,118.16611702,25.67,0.0,1.374,0.0,-0.99,-0.83,346.21,195551.9,0.0,0.0,1.346,-0.276,0.0,0.0,0.0,0.0,0.0,0.0,0.0,0.0,0.0,0.0,0.0,0.0,0.0,0.0,0.0,0.0,0.0,0.0,0.0,0.0,0
1704781132547697985,15091,0,,0,0,,0,0,0,0,0,0,36.90492104,118.16611671,25.67,0.0,1.347,0.0,-0.76,-0.73,346.65,195552.0,0.0,0.0,1.31,-0.316,0.0,0.0,0.0,0.0,0.0,0.0,0.0,0.0,0.0,0.0,0.0,0.0,0.0,0.0,0.0,0.0,0.0,0.0,0.0,0.0,0
1704781132647804288,15092,0,,0,0,,0,0,0,0,0,0,36.90492229,118.16611633,25.66,0.0,1.368,0.0,-1.24,-0.97,347.19,195552.1,0.0,0.0,1.331,-0.316,0.0,0.0,0.0,0.0,0.0,0.0,0.0,0.0,0.0,0.0,0.0,0.0,0.0,0.0,0.0,0.0,0.0,0.0,0.0,0.0,0
1704781132748016547,15093,0,,0,0,,0,0,0,0,0,0,36.90492346,118.166116,25.66,0.0,1.366,0.0,-0.73,-1.16,347.44,195552.2,0.0,0.0,1.345,-0.241,0.0,0.0,0.0,0.0,0.0,0.0,0.0,0.0,0.0,0.0,0.0,0.0,0.0,0.0,0.0,0.0,0.0,0.0,0.0,0.0,0
1704781132848928835,15094,0,,0,0,,0,0,0,0,0,0,36.90492472,118.16611571,25.66,0.0,1.355,0.0,-1.12,-1.0,347.66,195552.3,0.0,0.0,1.334,-0.241,0.0,0.0,0.0,0.0,0.0,0.0,0.0,0.0,0.0,0.0,0.0,0.0,0.0,0.0,0.0,0.0,0.0,0.0,0.0,0.0,0
1704781132948593482,15095,0,,0,0,,0,0,0,0,0,0,36.90492587,118.1661154,25.66,0.0,1.303,0.0,-0.63,-1.17,347.67,195552.4,0.0,0.0,1.27,-0.291,0.0,0.0,0.0,0.0,0.0,0.0,0.0,0.0,0.0,0.0,0.0,0.0,0.0,0.0,0.0,0.0,0.0,0.0,0.0,0.0,0
1704781133048119844,15096,0,,0,0,,0,0,0,0,0,0,36.90492709,118.16611511,25.65,0.0,1.35,0.0,-0.77,-0.99,347.58,195552.5,0.0,0.0,1.332,-0.219,0.0,0.0,0.0,0.0,0.0,0.0,0.0,0.0,0.0,0.0,0.0,0.0,0.0,0.0,0.0,0.0,0.0,0.0,0.0,0.0,0
1704781133147510580,15097,0,,0,0,,0,0,0,0,0,0,36.90492827,118.16611487,25.65,0.0,1.335,0.0,-0.65,-0.66,347.58,195552.6,0.0,0.0,1.316,-0.224,0.0,0.0,0.0,0.0,0.0,0.0,0.0,0.0,0.0,0.0,0.0,0.0,0.0,0.0,0.0,0.0,0.0,0.0,0.0,0.0,0
1704781133248194737,15098,0,,0,0,,0,0,0,0,0,0,36.90492948,118.16611456,25.65,0.0,1.317,0.0,-0.63,-0.65,347.52,195552.7,0.0,0.0,1.281,-0.306,0.0,0.0,0.0,0.0,0.0,0.0,0.0,0.0,0.0,0.0,0.0,0.0,0.0,0.0,0.0,0.0,0.0,0.0,0.0,0.0,0
1704781133348086302,15099,0,,0,0,,0,0,0,0,0,0,36.90493064,118.16611422,25.65,0.0,1.337,0.0,-0.42,-0.84,347.57,195552.8,0.0,0.0,1.31,-0.267,0.0,0.0,0.0,0.0,0.0,0.0,0.0,0.0,0.0,0.0,0.0,0.0,0.0,0.0,0.0,0.0,0.0,0.0,0.0,0.0,0
1704781133447272333,15100,0,,0,0,,0,0,0,0,0,0,36.90493184,118.16611392,25.65,0.0,1.351,0.0,-0.51,-0.78,347.51,195552.9,0.0,0.0,1.331,-0.235,0.0,0.0,0.0,0.0,0.0,0.0,0.0,0.0,0.0,0.0,0.0,0.0,0.0,0.0,0.0,0.0,0.0,0.0,0.0,0.0,0
1704781133547887210,15101,0,,0,0,,0,0,0,0,0,0,36.90493302,118.16611361,25.65,0.0,1.335,0.0,-0.4,-0.81,347.51,195553.0,0.0,0.0,1.302,-0.293,0.0,0.0,0.0,0.0,0.0,0.0,0.0,0.0,0.0,0.0,0.0,0.0,0.0,0.0,0.0,0.0,0.0,0.0,0.0,0.0,0
1704781133648294263,15102,0,,0,0,,0,0,0,0,0,0,36.90493424,118.16611327,25.65,0.0,1.344,0.0,-0.66,-1.01,347.67,195553.1,0.0,0.0,1.316,-0.27,0.0,0.0,0.0,0.0,0.0,0.0,0.0,0.0,0.0,0.0,0.0,0.0,0.0,0.0,0.0,0.0,0.0,0.0,0.0,0.0,0
1704781133747976455,15103,0,,0,0,,0,0,0,0,0,0,36.90493541,118.16611301,25.64,0.0,1.348,0.0,-0.27,-0.83,347.58,195553.2,0.0,0.0,1.333,-0.205,0.0,0.0,0.0,0.0,0.0,0.0,0.0,0.0,0.0,0.0,0.0,0.0,0.0,0.0,0.0,0.0,0.0,0.0,0.0,0.0,0
1704781133847503509,15104,0,,0,0,,0,0,0,0,0,0,36.90493666,118.16611273,25.64,0.0,1.37,0.0,-0.59,-0.67,347.57,195553.3,0.0,0.0,1.339,-0.288,0.0,0.0,0.0,0.0,0.0,0.0,0.0,0.0,0.0,0.0,0.0,0.0,0.0,0.0,0.0,0.0,0.0,0.0,0.0,0.0,0
1704781133947487115,15105,0,,0,0,,0,0,0,0,0,0,36.90493784,118.1661124,25.64,0.0,1.342,0.0,-0.4,-0.88,347.61,195553.4,0.0,0.0,1.31,-0.291,0.0,0.0,0.0,0.0,0.0,0.0,0.0,0.0,0.0,0.0,0.0,0.0,0.0,0.0,0.0,0.0,0.0,0.0,0.0,0.0,0
1704781134047693330,15106,0,,0,0,,0,0,0,0,0,0,36.90493907,118.16611212,25.64,0.0,1.361,0.0,-0.51,-0.8,347.61,195553.5,0.0,0.0,1.343,-0.219,0.0,0.0,0.0,0.0,0.0,0.0,0.0,0.0,0.0,0.0,0.0,0.0,0.0,0.0,0.0,0.0,0.0,0.0,0.0,0.0,0
1704781134147701543,15107,0,,0,0,,0,0,0,0,0,0,36.90494025,118.16611183,25.64,0.0,1.335,0.0,-0.42,-0.74,347.62,195553.6,0.0,0.0,1.308,-0.267,0.0,0.0,0.0,0.0,0.0,0.0,0.0,0.0,0.0,0.0,0.0,0.0,0.0,0.0,0.0,0.0,0.0,0.0,0.0,0.0,0
1704781134247992840,15108,0,,0,0,,0,0,0,0,0,0,36.90494147,118.16611151,25.64,0.0,1.34,0.0,-0.53,-0.86,347.71,195553.7,0.0,0.0,1.314,-0.264,0.0,0.0,0.0,0.0,0.0,0.0,0.0,0.0,0.0,0.0,0.0,0.0,0.0,0.0,0.0,0.0,0.0,0.0,0.0,0.0,0
1704781134348087041,15109,0,,0,0,,0,0,0,0,0,0,36.90494266,118.16611123,25.64,0.0,1.365,0.0,-0.54,-0.76,347.75,195553.8,0.0,0.0,1.347,-0.221,0.0,0.0,0.0,0.0,0.0,0.0,0.0,0.0,0.0,0.0,0.0,0.0,0.0,0.0,0.0,0.0,0.0,0.0,0.0,0.0,0
1704781134447550473,15110,0,,0,0,,0,0,0,0,0,0,36.90494389,118.16611097,25.64,0.0,1.35,0.0,-0.63,-0.64,347.75,195553.9,0.0,0.0,1.326,-0.253,0.0,0.0,0.0,0.0,0.0,0.0,0.0,0.0,0.0,0.0,0.0,0.0,0.0,0.0,0.0,0.0,0.0,0.0,0.0,0.0,0
1704781134547583015,15111,0,,0,0,,0,0,0,0,0,0,36.90494508,118.16611065,25.63,0.0,1.355,0.0,-0.55,-0.77,347.84,195554.0,0.0,0.0,1.325,-0.287,0.0,0.0,0.0,0.0,0.0,0.0,0.0,0.0,0.0,0.0,0.0,0.0,0.0,0.0,0.0,0.0,0.0,0.0,0.0,0.0,0
1704781134647261798,15112,0,,0,0,,0,0,0,0,0,0,36.90494632,118.16611036,25.63,0.0,1.373,0.0,-0.68,-0.74,347.91,195554.1,0.0,0.0,1.354,-0.228,0.0,0.0,0.0,0.0,0.0,0.0,0.0,0.0,0.0,0.0,0.0,0.0,0.0,0.0,0.0,0.0,0.0,0.0,0.0,0.0,0
1704781134747834167,15113,0,,0,0,,0,0,0,0,0,0,36.90494752,118.16611009,25.63,0.0,1.348,0.0,-0.75,-0.66,347.9,195554.2,0.0,0.0,1.323,-0.26,0.0,0.0,0.0,0.0,0.0,0.0,0.0,0.0,0.0,0.0,0.0,0.0,0.0,0.0,0.0,0.0,0.0,0.0,0.0,0.0,0
1704781134847019389,15114,0,,0,0,,0,0,0,0,0,0,36.90494875,118.16610976,25.63,0.0,1.365,0.0,-0.76,-0.87,347.96,195554.3,0.0,0.0,1.335,-0.283,0.0,0.0,0.0,0.0,0.0,0.0,0.0,0.0,0.0,0.0,0.0,0.0,0.0,0.0,0.0,0.0,0.0,0.0,0.0,0.0,0
1704781134947015452,15115,0,,0,0,,0,0,0,0,0,0,36.90494995,118.16610948,25.63,0.0,1.358,0.0,-0.81,-0.78,348.0,195554.4,0.0,0.0,1.342,-0.204,0.0,0.0,0.0,0.0,0.0,0.0,0.0,0.0,0.0,0.0,0.0,0.0,0.0,0.0,0.0,0.0,0.0,0.0,0.0,0.0,0
1704781135046885272,15116,0,,0,0,,0,0,0,0,0,0,36.90495117,118.16610921,25.62,0.0,1.356,0.0,-0.64,-0.76,348.05,195554.5,0.0,0.0,1.33,-0.268,0.0,0.0,0.0,0.0,0.0,0.0,0.0,0.0,0.0,0.0,0.0,0.0,0.0,0.0,0.0,0.0,0.0,0.0,0.0,0.0,0
1704781135147663627,15117,0,,0,0,,0,0,0,0,0,0,36.90495237,118.16610889,25.62,0.0,1.355,0.0,-0.8,-0.92,348.17,195554.6,0.0,0.0,1.33,-0.257,0.0,0.0,0.0,0.0,0.0,0.0,0.0,0.0,0.0,0.0,0.0,0.0,0.0,0.0,0.0,0.0,0.0,0.0,0.0,0.0,0
1704781135247926693,15118,0,,0,0,,0,0,0,0,0,0,36.90495358,118.16610863,25.62,0.0,1.355,0.0,-0.66,-0.85,348.2,195554.7,0.0,0.0,1.338,-0.213,0.0,0.0,0.0,0.0,0.0,0.0,0.0,0.0,0.0,0.0,0.0,0.0,0.0,0.0,0.0,0.0,0.0,0.0,0.0,0.0,0
1704781135347930821,15119,0,,0,0,,0,0,0,0,0,0,36.90495477,118.16610836,25.62,0.0,1.319,0.0,-0.65,-0.77,348.28,195554.8,0.0,0.0,1.297,-0.242,0.0,0.0,0.0,0.0,0.0,0.0,0.0,0.0,0.0,0.0,0.0,0.0,0.0,0.0,0.0,0.0,0.0,0.0,0.0,0.0,0
1704781135446997139,15120,0,,0,0,,0,0,0,0,0,0,36.90495597,118.16610807,25.62,0.0,1.358,0.0,-0.57,-0.94,348.43,195554.9,0.0,0.0,1.334,-0.256,0.0,0.0,0.0,0.0,0.0,0.0,0.0,0.0,0.0,0.0,0.0,0.0,0.0,0.0,0.0,0.0,0.0,0.0,0.0,0.0,0
1704781135547059887,15121,0,,0,0,,0,0,0,0,0,0,36.90495717,118.16610781,25.61,0.0,1.348,0.0,-0.62,-0.74,348.45,195555.0,0.0,0.0,1.335,-0.182,0.0,0.0,0.0,0.0,0.0,0.0,0.0,0.0,0.0,0.0,0.0,0.0,0.0,0.0,0.0,0.0,0.0,0.0,0.0,0.0,0
1704781135647323696,15122,0,,0,0,,0,0,0,0,0,0,36.90495839,118.16610756,25.61,0.0,1.367,0.0,-0.65,-0.74,348.47,195555.1,0.0,0.0,1.341,-0.266,0.0,0.0,0.0,0.0,0.0,0.0,0.0,0.0,0.0,0.0,0.0,0.0,0.0,0.0,0.0,0.0,0.0,0.0,0.0,0.0,0
1704781135747368026,15123,0,,0,0,,0,0,0,0,0,0,36.90495957,118.16610725,25.61,0.0,1.332,0.0,-0.59,-0.93,348.54,195555.2,0.0,0.0,1.311,-0.239,0.0,0.0,0.0,0.0,0.0,0.0,0.0,0.0,0.0,0.0,0.0,0.0,0.0,0.0,0.0,0.0,0.0,0.0,0.0,0.0,0
1704781135846808797,15124,0,,0,0,,0,0,0,0,0,0,36.90496078,118.16610698,25.61,0.0,1.358,0.0,-0.54,-0.9,348.62,195555.3,0.0,0.0,1.343,-0.199,0.0,0.0,0.0,0.0,0.0,0.0,0.0,0.0,0.0,0.0,0.0,0.0,0.0,0.0,0.0,0.0,0.0,0.0,0.0,0.0,0
1704781135946834569,15125,0,,0,0,,0,0,0,0,0,0,36.90496198,118.16610672,25.61,0.0,1.336,0.0,-0.58,-0.87,348.67,195555.4,0.0,0.0,1.313,-0.247,0.0,0.0,0.0,0.0,0.0,0.0,0.0,0.0,0.0,0.0,0.0,0.0,0.0,0.0,0.0,0.0,0.0,0.0,0.0,0.0,0
1704781136047019022,15126,0,,0,0,,0,0,0,0,0,0,36.90496318,118.16610644,25.61,0.0,1.354,0.0,-0.53,-1.01,348.73,195555.5,0.0,0.0,1.328,-0.265,0.0,0.0,0.0,0.0,0.0,0.0,0.0,0.0,0.0,0.0,0.0,0.0,0.0,0.0,0.0,0.0,0.0,0.0,0.0,0.0,0
1704781136147294039,15127,0,,0,0,,0,0,0,0,0,0,36.90496438,118.16610617,25.6,0.0,1.358,0.0,-0.49,-0.93,348.75,195555.6,0.0,0.0,1.343,-0.205,0.0,0.0,0.0,0.0,0.0,0.0,0.0,0.0,0.0,0.0,0.0,0.0,0.0,0.0,0.0,0.0,0.0,0.0,0.0,0.0,0
1704781136247431107,15128,0,,0,0,,0,0,0,0,0,0,36.9049656,118.16610591,25.6,0.0,1.352,0.0,-0.47,-0.99,348.78,195555.7,0.0,0.0,1.328,-0.253,0.0,0.0,0.0,0.0,0.0,0.0,0.0,0.0,0.0,0.0,0.0,0.0,0.0,0.0,0.0,0.0,0.0,0.0,0.0,0.0,0
1704781136347632569,15129,0,,0,0,,0,0,0,0,0,0,36.90496679,118.16610564,25.6,0.0,1.334,0.0,-0.41,-1.01,348.81,195555.8,0.0,0.0,1.315,-0.225,0.0,0.0,0.0,0.0,0.0,0.0,0.0,0.0,0.0,0.0,0.0,0.0,0.0,0.0,0.0,0.0,0.0,0.0,0.0,0.0,0
1704781136446847938,15130,0,,0,0,,0,0,0,0,0,0,36.90496797,118.16610538,25.6,0.0,1.315,0.0,-0.31,-1.11,348.83,195555.9,0.0,0.0,1.292,-0.244,0.0,0.0,0.0,0.0,0.0,0.0,0.0,0.0,0.0,0.0,0.0,0.0,0.0,0.0,0.0,0.0,0.0,0.0,0.0,0.0,0
1704781136546907373,15131,0,,0,0,,0,0,0,0,0,0,36.90496915,118.16610511,25.6,0.0,1.323,0.0,-0.26,-1.12,348.85,195556.0,0.0,0.0,1.303,-0.234,0.0,0.0,0.0,0.0,0.0,0.0,0.0,0.0,0.0,0.0,0.0,0.0,0.0,0.0,0.0,0.0,0.0,0.0,0.0,0.0,0
1704781136647101962,15132,0,,0,0,,0,0,0,0,0,0,36.90497034,118.16610489,25.6,0.0,1.332,0.0,-0.22,-0.88,348.91,195556.1,0.0,0.0,1.318,-0.188,0.0,0.0,0.0,0.0,0.0,0.0,0.0,0.0,0.0,0.0,0.0,0.0,0.0,0.0,0.0,0.0,0.0,0.0,0.0,0.0,0
1704781136747319126,15133,0,,0,0,,0,0,0,0,0,0,36.90497151,118.16610467,25.6,0.0,1.348,0.0,-0.06,-0.7,348.88,195556.2,0.0,0.0,1.325,-0.245,0.0,0.0,0.0,0.0,0.0,0.0,0.0,0.0,0.0,0.0,0.0,0.0,0.0,0.0,0.0,0.0,0.0,0.0,0.0,0.0,0
1704781136846772691,15134,0,,0,0,,0,0,0,0,0,0,36.90497276,118.16610436,25.59,0.0,1.404,0.0,-0.82,-1.02,349.24,195556.3,0.0,0.0,1.367,-0.321,0.0,0.0,0.0,0.0,0.0,0.0,0.0,0.0,0.0,0.0,0.0,0.0,0.0,0.0,0.0,0.0,0.0,0.0,0.0,0.0,0
1704781136946505256,15135,0,,0,0,,0,0,0,0,0,0,36.90497396,118.16610407,25.59,0.0,1.355,0.0,-0.61,-1.14,349.6,195556.4,0.0,0.0,1.34,-0.201,0.0,0.0,0.0,0.0,0.0,0.0,0.0,0.0,0.0,0.0,0.0,0.0,0.0,0.0,0.0,0.0,0.0,0.0,0.0,0.0,0
1704781137046666695,15136,0,,0,0,,0,0,0,0,0,0,36.90497521,118.16610383,25.59,0.0,1.375,0.0,-0.78,-1.05,349.87,195556.5,0.0,0.0,1.358,-0.22,0.0,0.0,0.0,0.0,0.0,0.0,0.0,0.0,0.0,0.0,0.0,0.0,0.0,0.0,0.0,0.0,0.0,0.0,0.0,0.0,0
1704781137146906231,15137,0,,0,0,,0,0,0,0,0,0,36.90497641,118.16610355,25.59,0.0,1.32,0.0,-0.79,-1.33,350.27,195556.6,0.0,0.0,1.297,-0.245,0.0,0.0,0.0,0.0,0.0,0.0,0.0,0.0,0.0,0.0,0.0,0.0,0.0,0.0,0.0,0.0,0.0,0.0,0.0,0.0,0
1704781137247141074,15138,0,,0,0,,0,0,0,0,0,0,36.90497765,118.16610334,25.59,0.0,1.431,0.0,-0.69,-1.34,350.49,195556.7,0.0,0.0,1.421,-0.17,0.0,0.0,0.0,0.0,0.0,0.0,0.0,0.0,0.0,0.0,0.0,0.0,0.0,0.0,0.0,0.0,0.0,0.0,0.0,0.0,0
1704781137347280396,15139,0,,0,0,,0,0,0,0,0,0,36.90497889,118.16610318,25.6,0.0,1.294,0.0,-1.16,-0.69,350.78,195556.8,0.0,0.0,1.291,-0.091,0.0,0.0,0.0,0.0,0.0,0.0,0.0,0.0,0.0,0.0,0.0,0.0,0.0,0.0,0.0,0.0,0.0,0.0,0.0,0.0,0
1704781137446652567,15140,0,,0,0,,0,0,0,0,0,0,36.90498009,118.16610301,25.58,0.0,1.334,0.0,-0.24,-0.66,350.98,195556.9,0.0,0.0,1.315,-0.222,0.0,0.0,0.0,0.0,0.0,0.0,0.0,0.0,0.0,0.0,0.0,0.0,0.0,0.0,0.0,0.0,0.0,0.0,0.0,0.0,0
1704781137546468978,15141,0,,0,0,,0,0,0,0,0,0,36.9049813,118.16610273,25.59,0.0,1.37,0.0,-0.57,-1.04,351.18,195557.0,0.0,0.0,1.35,-0.232,0.0,0.0,0.0,0.0,0.0,0.0,0.0,0.0,0.0,0.0,0.0,0.0,0.0,0.0,0.0,0.0,0.0,0.0,0.0,0.0,0
1704781137647072131,15142,0,,0,0,,0,0,0,0,0,0,36.90498252,118.16610256,25.58,0.0,1.339,0.0,-0.32,-0.92,351.29,195557.1,0.0,0.0,1.336,-0.095,0.0,0.0,0.0,0.0,0.0,0.0,0.0,0.0,0.0,0.0,0.0,0.0,0.0,0.0,0.0,0.0,0.0,0.0,0.0,0.0,0
1704781137746970642,15143,0,,0,0,,0,0,0,0,0,0,36.90498374,118.16610238,25.58,0.0,1.377,0.0,-0.55,-0.8,351.37,195557.2,0.0,0.0,1.365,-0.177,0.0,0.0,0.0,0.0,0.0,0.0,0.0,0.0,0.0,0.0,0.0,0.0,0.0,0.0,0.0,0.0,0.0,0.0,0.0,0.0,0
1704781137846089551,15144,0,,0,0,,0,0,0,0,0,0,36.90498497,118.16610217,25.58,0.0,1.349,0.0,-0.51,-1.01,351.44,195557.3,0.0,0.0,1.337,-0.178,0.0,0.0,0.0,0.0,0.0,0.0,0.0,0.0,0.0,0.0,0.0,0.0,0.0,0.0,0.0,0.0,0.0,0.0,0.0,0.0,0
1704781137946300964,15145,0,,0,0,,0,0,0,0,0,0,36.90498617,118.166102,25.58,0.0,1.314,0.0,-0.38,-0.74,351.35,195557.4,0.0,0.0,1.311,-0.079,0.0,0.0,0.0,0.0,0.0,0.0,0.0,0.0,0.0,0.0,0.0,0.0,0.0,0.0,0.0,0.0,0.0,0.0,0.0,0.0,0
1704781138046501238,15146,0,,0,0,,0,0,0,0,0,0,36.90498738,118.1661019,25.59,0.0,1.324,0.0,-0.37,-0.23,350.89,195557.5,0.0,0.0,1.312,-0.175,0.0,0.0,0.0,0.0,0.0,0.0,0.0,0.0,0.0,0.0,0.0,0.0,0.0,0.0,0.0,0.0,0.0,0.0,0.0,0.0,0
1704781138146563164,15147,0,,0,0,,0,0,0,0,0,0,36.90498859,118.16610158,25.58,0.0,1.377,0.0,-0.83,-0.99,350.87,195557.6,0.0,0.0,1.339,-0.32,0.0,0.0,0.0,0.0,0.0,0.0,0.0,0.0,0.0,0.0,0.0,0.0,0.0,0.0,0.0,0.0,0.0,0.0,0.0,0.0,0
1704781138246751863,15148,0,,0,0,,0,0,0,0,0,0,36.90498982,118.16610133,25.58,0.0,1.348,0.0,-0.52,-1.17,351.11,195557.7,0.0,0.0,1.341,-0.134,0.0,0.0,0.0,0.0,0.0,0.0,0.0,0.0,0.0,0.0,0.0,0.0,0.0,0.0,0.0,0.0,0.0,0.0,0.0,0.0,0
1704781138346962148,15149,0,,0,0,,0,0,0,0,0,0,36.90499103,118.16610118,25.58,0.0,1.345,0.0,-0.47,-0.87,351.04,195557.8,0.0,0.0,1.339,-0.128,0.0,0.0,0.0,0.0,0.0,0.0,0.0,0.0,0.0,0.0,0.0,0.0,0.0,0.0,0.0,0.0,0.0,0.0,0.0,0.0,0
1704781138446471137,15150,0,,0,0,,0,0,0,0,0,0,36.90499227,118.166101,25.58,0.0,1.374,0.0,-0.37,-0.81,350.94,195557.9,0.0,0.0,1.356,-0.221,0.0,0.0,0.0,0.0,0.0,0.0,0.0,0.0,0.0,0.0,0.0,0.0,0.0,0.0,0.0,0.0,0.0,0.0,0.0,0.0,0
1704781138546446431,15151,0,,0,0,,0,0,0,0,0,0,36.90499349,118.16610075,25.58,0.0,1.35,0.0,-0.46,-1.0,351.12,195558.0,0.0,0.0,1.335,-0.201,0.0,0.0,0.0,0.0,0.0,0.0,0.0,0.0,0.0,0.0,0.0,0.0,0.0,0.0,0.0,0.0,0.0,0.0,0.0,0.0,0
1704781138646709438,15152,0,,0,0,,0,0,0,0,0,0,36.9049947,118.1661006,25.58,0.0,1.317,0.0,-0.51,-0.58,351.32,195558.1,0.0,0.0,1.311,-0.128,0.0,0.0,0.0,0.0,0.0,0.0,0.0,0.0,0.0,0.0,0.0,0.0,0.0,0.0,0.0,0.0,0.0,0.0,0.0,0.0,0
1704781138746631823,15153,0,,0,0,,0,0,0,0,0,0,36.90499585,118.16610039,25.58,0.0,1.293,0.0,-0.22,-0.62,351.95,195558.2,0.0,0.0,1.27,-0.239,0.0,0.0,0.0,0.0,0.0,0.0,0.0,0.0,0.0,0.0,0.0,0.0,0.0,0.0,0.0,0.0,0.0,0.0,0.0,0.0,0
1704781138846289248,15154,0,,0,0,,0,0,0,0,0,0,36.90499707,118.16610015,25.58,0.0,1.379,0.0,-0.26,-0.91,352.37,195558.3,0.0,0.0,1.371,-0.15,0.0,0.0,0.0,0.0,0.0,0.0,0.0,0.0,0.0,0.0,0.0,0.0,0.0,0.0,0.0,0.0,0.0,0.0,0.0,0.0,0
1704781138945974188,15155,0,,0,0,,0,0,0,0,0,0,36.90499829,118.16610002,25.58,0.0,1.335,0.0,-0.33,-0.74,352.75,195558.4,0.0,0.0,1.332,-0.097,0.0,0.0,0.0,0.0,0.0,0.0,0.0,0.0,0.0,0.0,0.0,0.0,0.0,0.0,0.0,0.0,0.0,0.0,0.0,0.0,0
1704781139046170660,15156,0,,0,0,,0,0,0,0,0,0,36.90499952,118.16609986,25.58,0.0,1.375,0.0,-0.48,-0.84,353.24,195558.5,0.0,0.0,1.367,-0.148,0.0,0.0,0.0,0.0,0.0,0.0,0.0,0.0,0.0,0.0,0.0,0.0,0.0,0.0,0.0,0.0,0.0,0.0,0.0,0.0,0
1704781139146394750,15157,0,,0,0,,0,0,0,0,0,0,36.9050007,118.16609971,25.58,0.0,1.297,0.0,0.02,-0.87,353.77,195558.6,0.0,0.0,1.289,-0.141,0.0,0.0,0.0,0.0,0.0,0.0,0.0,0.0,0.0,0.0,0.0,0.0,0.0,0.0,0.0,0.0,0.0,0.0,0.0,0.0,0
1704781139246753561,15158,0,,0,0,,0,0,0,0,0,0,36.90500193,118.16609956,25.58,0.0,1.367,0.0,-0.27,-0.99,354.37,195558.7,0.0,0.0,1.361,-0.129,0.0,0.0,0.0,0.0,0.0,0.0,0.0,0.0,0.0,0.0,0.0,0.0,0.0,0.0,0.0,0.0,0.0,0.0,0.0,0.0,0
1704781139346793641,15159,0,,0,0,,0,0,0,0,0,0,36.90500313,118.16609944,25.58,0.0,1.36,0.0,-0.14,-1.07,354.71,195558.8,0.0,0.0,1.357,-0.082,0.0,0.0,0.0,0.0,0.0,0.0,0.0,0.0,0.0,0.0,0.0,0.0,0.0,0.0,0.0,0.0,0.0,0.0,0.0,0.0,0
1704781139445859922,15160,0,,0,0,,0,0,0,0,0,0,36.9050044,118.16609937,25.58,0.0,1.355,0.0,-0.42,-0.72,355.11,195558.9,0.0,0.0,1.354,-0.046,0.0,0.0,0.0,0.0,0.0,0.0,0.0,0.0,0.0,0.0,0.0,0.0,0.0,0.0,0.0,0.0,0.0,0.0,0.0,0.0,0
1704781139546033076,15161,0,,0,0,,0,0,0,0,0,0,36.90500561,118.16609928,25.58,0.0,1.374,0.0,-0.03,-0.73,355.39,195559.0,0.0,0.0,1.37,-0.109,0.0,0.0,0.0,0.0,0.0,0.0,0.0,0.0,0.0,0.0,0.0,0.0,0.0,0.0,0.0,0.0,0.0,0.0,0.0,0.0,0
1704781139646295712,15162,0,,0,0,,0,0,0,0,0,0,36.90500687,118.16609918,25.58,0.0,1.352,0.0,-0.41,-0.77,355.54,195559.1,0.0,0.0,1.35,-0.083,0.0,0.0,0.0,0.0,0.0,0.0,0.0,0.0,0.0,0.0,0.0,0.0,0.0,0.0,0.0,0.0,0.0,0.0,0.0,0.0,0
1704781139746322466,15163,0,,0,0,,0,0,0,0,0,0,36.90500808,118.16609905,25.58,0.0,1.359,0.0,-0.29,-1.02,355.89,195559.2,0.0,0.0,1.355,-0.103,0.0,0.0,0.0,0.0,0.0,0.0,0.0,0.0,0.0,0.0,0.0,0.0,0.0,0.0,0.0,0.0,0.0,0.0,0.0,0.0,0
1704781139845647214,15164,0,,0,0,,0,0,0,0,0,0,36.90500932,118.16609897,25.58,0.0,1.34,0.0,-0.36,-0.88,355.94,195559.3,0.0,0.0,1.34,-0.039,0.0,0.0,0.0,0.0,0.0,0.0,0.0,0.0,0.0,0.0,0.0,0.0,0.0,0.0,0.0,0.0,0.0,0.0,0.0,0.0,0
1704781139945743943,15165,0,,0,0,,0,0,0,0,0,0,36.90501054,118.1660989,25.58,0.0,1.35,0.0,-0.36,-0.82,355.96,195559.4,0.0,0.0,1.347,-0.094,0.0,0.0,0.0,0.0,0.0,0.0,0.0,0.0,0.0,0.0,0.0,0.0,0.0,0.0,0.0,0.0,0.0,0.0,0.0,0.0,0
1704781140046226103,15166,0,,0,0,,0,0,0,0,0,0,36.90501177,118.16609881,25.57,0.0,1.352,0.0,-0.31,-0.86,356.02,195559.5,0.0,0.0,1.349,-0.077,0.0,0.0,0.0,0.0,0.0,0.0,0.0,0.0,0.0,0.0,0.0,0.0,0.0,0.0,0.0,0.0,0.0,0.0,0.0,0.0,0
1704781140146014112,15167,0,,0,0,,0,0,0,0,0,0,36.90501298,118.16609875,25.58,0.0,1.35,0.0,-0.17,-0.72,356.05,195559.6,0.0,0.0,1.35,-0.041,0.0,0.0,0.0,0.0,0.0,0.0,0.0,0.0,0.0,0.0,0.0,0.0,0.0,0.0,0.0,0.0,0.0,0.0,0.0,0.0,0
1704781140246817568,15168,0,,0,0,,0,0,0,0,0,0,36.90501421,118.16609866,25.57,0.0,1.345,0.0,-0.11,-0.76,356.11,195559.7,0.0,0.0,1.341,-0.092,0.0,0.0,0.0,0.0,0.0,0.0,0.0,0.0,0.0,0.0,0.0,0.0,0.0,0.0,0.0,0.0,0.0,0.0,0.0,0.0,0
1704781140346442403,15169,0,,0,0,,0,0,0,0,0,0,36.90501543,118.16609857,25.57,0.0,1.361,0.0,-0.22,-0.81,356.25,195559.8,0.0,0.0,1.359,-0.072,0.0,0.0,0.0,0.0,0.0,0.0,0.0,0.0,0.0,0.0,0.0,0.0,0.0,0.0,0.0,0.0,0.0,0.0,0.0,0.0,0
1704781140445427801,15170,0,,0,0,,0,0,0,0,0,0,36.90501667,118.1660985,25.57,0.0,1.358,0.0,-0.06,-0.8,356.43,195559.9,0.0,0.0,1.357,-0.052,0.0,0.0,0.0,0.0,0.0,0.0,0.0,0.0,0.0,0.0,0.0,0.0,0.0,0.0,0.0,0.0,0.0,0.0,0.0,0.0,0
1704781140545565705,15171,0,,0,0,,0,0,0,0,0,0,36.90501789,118.16609843,25.57,0.0,1.352,0.0,-0.13,-0.73,356.54,195560.0,0.0,0.0,1.352,-0.033,0.0,0.0,0.0,0.0,0.0,0.0,0.0,0.0,0.0,0.0,0.0,0.0,0.0,0.0,0.0,0.0,0.0,0.0,0.0,0.0,0
1704781140645874644,15172,0,,0,0,,0,0,0,0,0,0,36.90501913,118.16609837,25.57,0.0,1.369,0.0,-0.11,-0.81,356.67,195560.1,0.0,0.0,1.367,-0.059,0.0,0.0,0.0,0.0,0.0,0.0,0.0,0.0,0.0,0.0,0.0,0.0,0.0,0.0,0.0,0.0,0.0,0.0,0.0,0.0,0
1704781140745989318,15173,0,,0,0,,0,0,0,0,0,0,36.90502036,118.16609829,25.57,0.0,1.376,0.0,-0.19,-0.86,356.99,195560.2,0.0,0.0,1.376,-0.031,0.0,0.0,0.0,0.0,0.0,0.0,0.0,0.0,0.0,0.0,0.0,0.0,0.0,0.0,0.0,0.0,0.0,0.0,0.0,0.0,0
1704781140845390405,15174,0,,0,0,,0,0,0,0,0,0,36.90502159,118.16609825,25.57,0.0,1.346,0.0,-0.18,-0.83,357.18,195560.3,0.0,0.0,1.345,-0.031,0.0,0.0,0.0,0.0,0.0,0.0,0.0,0.0,0.0,0.0,0.0,0.0,0.0,0.0,0.0,0.0,0.0,0.0,0.0,0.0,0
1704781140945225132,15175,0,,0,0,,0,0,0,0,0,0,36.90502282,118.16609821,25.57,0.0,1.364,0.0,-0.23,-0.66,357.23,195560.4,0.0,0.0,1.364,-0.026,0.0,0.0,0.0,0.0,0.0,0.0,0.0,0.0,0.0,0.0,0.0,0.0,0.0,0.0,0.0,0.0,0.0,0.0,0.0,0.0,0
1704781141046022544,15176,0,,0,0,,0,0,0,0,0,0,36.90502406,118.16609815,25.57,0.0,1.374,0.0,-0.21,-0.82,357.35,195560.5,0.0,0.0,1.372,-0.079,0.0,0.0,0.0,0.0,0.0,0.0,0.0,0.0,0.0,0.0,0.0,0.0,0.0,0.0,0.0,0.0,0.0,0.0,0.0,0.0,0
1704781141145450601,15177,0,,0,0,,0,0,0,0,0,0,36.9050253,118.1660981,25.57,0.0,1.38,0.0,-0.3,-0.8,357.46,195560.6,0.0,0.0,1.38,-0.022,0.0,0.0,0.0,0.0,0.0,0.0,0.0,0.0,0.0,0.0,0.0,0.0,0.0,0.0,0.0,0.0,0.0,0.0,0.0,0.0,0
