%time,field.header.seq,field.header.stamp,field.header.frame_id,field.status.header.seq,field.status.header.stamp,field.status.header.frame_id,field.status.satellites_used,field.status.satellites_visible,field.status.status,field.status.motion_source,field.status.orientation_source,field.status.position_source,field.latitude,field.longitude,field.altitude,field.track,field.speed,field.climb,field.pitch,field.roll,field.dip,field.time,field.gdop,field.pdop,field.hdop,field.vdop,field.tdop,field.err,field.err_horz,field.err_vert,field.err_track,field.err_speed,field.err_climb,field.err_time,field.err_pitch,field.err_roll,field.err_dip,field.position_covariance0,field.position_covariance1,field.position_covariance2,field.position_covariance3,field.position_covariance4,field.position_covariance5,field.position_covariance6,field.position_covariance7,field.position_covariance8,field.position_covariance_type
1704779910031972383,2862,0,,0,0,,0,0,0,0,0,0,36.90411263,118.16645613,25.43,0.0,0.004,0.0,-0.16,0.24,92.05,194329.1,0.0,0.0,-0.002,0.004,0.0,0.0,0.0,0.0,0.0,0.0,0.0,0.0,0.0,0.0,0.0,0.0,0.0,0.0,0.0,0.0,0.0,0.0,0.0,0.0,0
1704779910131643098,2863,0,,0,0,,0,0,0,0,0,0,36.90411263,118.16645613,25.43,0.0,0.004,0.0,-0.16,0.23,92.05,194329.2,0.0,0.0,-0.002,0.004,0.0,0.0,0.0,0.0,0.0,0.0,0.0,0.0,0.0,0.0,0.0,0.0,0.0,0.0,0.0,0.0,0.0,0.0,0.0,0.0,0
1704779910231230402,2864,0,,0,0,,0,0,0,0,0,0,36.90411264,118.16645614,25.43,0.0,0.005,0.0,-0.16,0.24,92.05,194329.3,0.0,0.0,-0.002,0.004,0.0,0.0,0.0,0.0,0.0,0.0,0.0,0.0,0.0,0.0,0.0,0.0,0.0,0.0,0.0,0.0,0.0,0.0,0.0,0.0,0
1704779910331866975,2865,0,,0,0,,0,0,0,0,0,0,36.90411264,118.16645615,25.43,0.0,0.004,0.0,-0.16,0.24,92.05,194329.4,0.0,0.0,-0.001,0.004,0.0,0.0,0.0,0.0,0.0,0.0,0.0,0.0,0.0,0.0,0.0,0.0,0.0,0.0,0.0,0.0,0.0,0.0,0.0,0.0,0
1704779910431940219,2866,0,,0,0,,0,0,0,0,0,0,36.90411265,118.16645615,25.43,0.0,0.005,0.0,-0.15,0.24,92.05,194329.5,0.0,0.0,-0.001,0.005,0.0,0.0,0.0,0.0,0.0,0.0,0.0,0.0,0.0,0.0,0.0,0.0,0.0,0.0,0.0,0.0,0.0,0.0,0.0,0.0,0
1704779910531389169,2867,0,,0,0,,0,0,0,0,0,0,36.90411265,118.16645616,25.43,0.0,0.004,0.0,-0.16,0.24,92.05,194329.6,0.0,0.0,-0.001,0.004,0.0,0.0,0.0,0.0,0.0,0.0,0.0,0.0,0.0,0.0,0.0,0.0,0.0,0.0,0.0,0.0,0.0,0.0,0.0,0.0,0
1704779910631050797,2868,0,,0,0,,0,0,0,0,0,0,36.90411266,118.16645615,25.44,0.0,0.004,0.0,-0.15,0.24,92.05,194329.7,0.0,0.0,-0.002,0.004,0.0,0.0,0.0,0.0,0.0,0.0,0.0,0.0,0.0,0.0,0.0,0.0,0.0,0.0,0.0,0.0,0.0,0.0,0.0,0.0,0
1704779910730888855,2869,0,,0,0,,0,0,0,0,0,0,36.90411266,118.16645616,25.44,0.0,0.005,0.0,-0.15,0.24,92.05,194329.8,0.0,0.0,-0.001,0.005,0.0,0.0,0.0,0.0,0.0,0.0,0.0,0.0,0.0,0.0,0.0,0.0,0.0,0.0,0.0,0.0,0.0,0.0,0.0,0.0,0
1704779910831391747,2870,0,,0,0,,0,0,0,0,0,0,36.90411266,118.16645614,25.44,0.0,0.004,0.0,-0.15,0.24,92.05,194329.9,0.0,0.0,-0.002,0.003,0.0,0.0,0.0,0.0,0.0,0.0,0.0,0.0,0.0,0.0,0.0,0.0,0.0,0.0,0.0,0.0,0.0,0.0,0.0,0.0,0
1704779910932692471,2871,0,,0,0,,0,0,0,0,0,0,36.90411266,118.16645615,25.44,0.0,0.005,0.0,-0.15,0.24,92.05,194330.0,0.0,0.0,-0.001,0.004,0.0,0.0,0.0,0.0,0.0,0.0,0.0,0.0,0.0,0.0,0.0,0.0,0.0,0.0,0.0,0.0,0.0,0.0,0.0,0.0,0
1704779911031263270,2872,0,,0,0,,0,0,0,0,0,0,36.90411266,118.16645614,25.44,0.0,0.003,0.0,-0.15,0.23,92.05,194330.1,0.0,0.0,-0.002,0.002,0.0,0.0,0.0,0.0,0.0,0.0,0.0,0.0,0.0,0.0,0.0,0.0,0.0,0.0,0.0,0.0,0.0,0.0,0.0,0.0,0
1704779911130657630,2873,0,,0,0,,0,0,0,0,0,0,36.90411266,118.16645614,25.44,0.0,0.004,0.0,-0.15,0.23,92.05,194330.2,0.0,0.0,-0.002,0.004,0.0,0.0,0.0,0.0,0.0,0.0,0.0,0.0,0.0,0.0,0.0,0.0,0.0,0.0,0.0,0.0,0.0,0.0,0.0,0.0,0
1704779911231564072,2874,0,,0,0,,0,0,0,0,0,0,36.90411266,118.16645613,25.44,0.0,0.002,0.0,-0.15,0.23,92.05,194330.3,0.0,0.0,-0.002,0.001,0.0,0.0,0.0,0.0,0.0,0.0,0.0,0.0,0.0,0.0,0.0,0.0,0.0,0.0,0.0,0.0,0.0,0.0,0.0,0.0,0
1704779911331807834,2875,0,,0,0,,0,0,0,0,0,0,36.90411266,118.16645614,25.44,0.0,0.004,0.0,-0.15,0.22,92.05,194330.4,0.0,0.0,-0.001,0.004,0.0,0.0,0.0,0.0,0.0,0.0,0.0,0.0,0.0,0.0,0.0,0.0,0.0,0.0,0.0,0.0,0.0,0.0,0.0,0.0,0
1704779911430986304,2876,0,,0,0,,0,0,0,0,0,0,36.90411266,118.16645613,25.44,0.0,0.006,0.0,-0.15,0.23,92.05,194330.5,0.0,0.0,-0.005,0.003,0.0,0.0,0.0,0.0,0.0,0.0,0.0,0.0,0.0,0.0,0.0,0.0,0.0,0.0,0.0,0.0,0.0,0.0,0.0,0.0,0
1704779911530383195,2877,0,,0,0,,0,0,0,0,0,0,36.90411265,118.16645614,25.44,0.0,0.003,0.0,-0.15,0.24,92.05,194330.6,0.0,0.0,-0.002,0.002,0.0,0.0,0.0,0.0,0.0,0.0,0.0,0.0,0.0,0.0,0.0,0.0,0.0,0.0,0.0,0.0,0.0,0.0,0.0,0.0,0
1704779911631108326,2878,0,,0,0,,0,0,0,0,0,0,36.90411266,118.16645613,25.44,0.0,0.003,0.0,-0.15,0.24,92.05,194330.7,0.0,0.0,-0.002,0.002,0.0,0.0,0.0,0.0,0.0,0.0,0.0,0.0,0.0,0.0,0.0,0.0,0.0,0.0,0.0,0.0,0.0,0.0,0.0,0.0,0
1704779911730726930,2879,0,,0,0,,0,0,0,0,0,0,36.90411265,118.16645613,25.44,0.0,0.004,0.0,-0.15,0.24,92.05,194330.8,0.0,0.0,-0.004,0.002,0.0,0.0,0.0,0.0,0.0,0.0,0.0,0.0,0.0,0.0,0.0,0.0,0.0,0.0,0.0,0.0,0.0,0.0,0.0,0.0,0
1704779911831133967,2880,0,,0,0,,0,0,0,0,0,0,36.90411266,118.16645612,25.44,0.0,0.002,0.0,-0.15,0.24,92.05,194330.9,0.0,0.0,-0.001,0.002,0.0,0.0,0.0,0.0,0.0,0.0,0.0,0.0,0.0,0.0,0.0,0.0,0.0,0.0,0.0,0.0,0.0,0.0,0.0,0.0,0
1704779911930015421,2881,0,,0,0,,0,0,0,0,0,0,36.90411266,118.16645612,25.44,0.0,0.004,0.0,-0.15,0.24,92.05,194331.0,0.0,0.0,-0.004,0.001,0.0,0.0,0.0,0.0,0.0,0.0,0.0,0.0,0.0,0.0,0.0,0.0,0.0,0.0,0.0,0.0,0.0,0.0,0.0,0.0,0
1704779912031234443,2882,0,,0,0,,0,0,0,0,0,0,36.90411265,118.16645611,25.44,0.0,0.003,0.0,-0.15,0.24,92.05,194331.1,0.0,0.0,-0.003,0.001,0.0,0.0,0.0,0.0,0.0,0.0,0.0,0.0,0.0,0.0,0.0,0.0,0.0,0.0,0.0,0.0,0.0,0.0,0.0,0.0,0
1704779912131223018,2883,0,,0,0,,0,0,0,0,0,0,36.90411265,118.16645611,25.44,0.0,0.003,0.0,-0.15,0.24,92.05,194331.2,0.0,0.0,-0.003,0.001,0.0,0.0,0.0,0.0,0.0,0.0,0.0,0.0,0.0,0.0,0.0,0.0,0.0,0.0,0.0,0.0,0.0,0.0,0.0,0.0,0
1704779912232841293,2884,0,,0,0,,0,0,0,0,0,0,36.90411265,118.16645611,25.44,0.0,0.004,0.0,-0.15,0.24,92.05,194331.3,0.0,0.0,-0.004,0.001,0.0,0.0,0.0,0.0,0.0,0.0,0.0,0.0,0.0,0.0,0.0,0.0,0.0,0.0,0.0,0.0,0.0,0.0,0.0,0.0,0
1704779912331308895,2885,0,,0,0,,0,0,0,0,0,0,36.90411265,118.16645611,25.44,0.0,0.003,0.0,-0.15,0.24,92.05,194331.4,0.0,0.0,-0.003,0.0,0.0,0.0,0.0,0.0,0.0,0.0,0.0,0.0,0.0,0.0,0.0,0.0,0.0,0.0,0.0,0.0,0.0,0.0,0.0,0.0,0
1704779912431213450,2886,0,,0,0,,0,0,0,0,0,0,36.90411265,118.1664561,25.44,0.0,0.004,0.0,-0.15,0.24,92.05,194331.5,0.0,0.0,-0.004,0.001,0.0,0.0,0.0,0.0,0.0,0.0,0.0,0.0,0.0,0.0,0.0,0.0,0.0,0.0,0.0,0.0,0.0,0.0,0.0,0.0,0
1704779912530912412,2887,0,,0,0,,0,0,0,0,0,0,36.90411265,118.1664561,25.44,0.0,0.003,0.0,-0.15,0.24,92.04,194331.6,0.0,0.0,-0.003,0.0,0.0,0.0,0.0,0.0,0.0,0.0,0.0,0.0,0.0,0.0,0.0,0.0,0.0,0.0,0.0,0.0,0.0,0.0,0.0,0.0,0
1704779912631500187,2888,0,,0,0,,0,0,0,0,0,0,36.90411265,118.16645611,25.43,0.0,0.003,0.0,-0.15,0.24,92.04,194331.7,0.0,0.0,-0.003,0.001,0.0,0.0,0.0,0.0,0.0,0.0,0.0,0.0,0.0,0.0,0.0,0.0,0.0,0.0,0.0,0.0,0.0,0.0,0.0,0.0,0
1704779912730946870,2889,0,,0,0,,0,0,0,0,0,0,36.90411265,118.16645611,25.43,0.0,0.003,0.0,-0.15,0.24,92.04,194331.8,0.0,0.0,-0.003,0.0,0.0,0.0,0.0,0.0,0.0,0.0,0.0,0.0,0.0,0.0,0.0,0.0,0.0,0.0,0.0,0.0,0.0,0.0,0.0,0.0,0
1704779912830693451,2890,0,,0,0,,0,0,0,0,0,0,36.90411265,118.16645611,25.43,0.0,0.003,0.0,-0.15,0.24,92.04,194331.9,0.0,0.0,-0.003,0.0,0.0,0.0,0.0,0.0,0.0,0.0,0.0,0.0,0.0,0.0,0.0,0.0,0.0,0.0,0.0,0.0,0.0,0.0,0.0,0.0,0
1704779912930867141,2891,0,,0,0,,0,0,0,0,0,0,36.90411265,118.16645611,25.43,0.0,0.004,0.0,-0.15,0.24,92.04,194332.0,0.0,0.0,-0.004,0.0,0.0,0.0,0.0,0.0,0.0,0.0,0.0,0.0,0.0,0.0,0.0,0.0,0.0,0.0,0.0,0.0,0.0,0.0,0.0,0.0,0
1704779913031105165,2892,0,,0,0,,0,0,0,0,0,0,36.90411266,118.16645611,25.43,0.0,0.003,0.0,-0.15,0.24,92.04,194332.1,0.0,0.0,-0.003,0.0,0.0,0.0,0.0,0.0,0.0,0.0,0.0,0.0,0.0,0.0,0.0,0.0,0.0,0.0,0.0,0.0,0.0,0.0,0.0,0.0,0
1704779913132567956,2893,0,,0,0,,0,0,0,0,0,0,36.90411266,118.16645611,25.43,0.0,0.003,0.0,-0.15,0.24,92.04,194332.2,0.0,0.0,-0.003,0.0,0.0,0.0,0.0,0.0,0.0,0.0,0.0,0.0,0.0,0.0,0.0,0.0,0.0,0.0,0.0,0.0,0.0,0.0,0.0,0.0,0
1704779913231390368,2894,0,,0,0,,0,0,0,0,0,0,36.90411266,118.1664561,25.43,0.0,0.002,0.0,-0.14,0.24,92.04,194332.3,0.0,0.0,-0.002,-0.0,0.0,0.0,0.0,0.0,0.0,0.0,0.0,0.0,0.0,0.0,0.0,0.0,0.0,0.0,0.0,0.0,0.0,0.0,0.0,0.0,0
1704779913331573385,2895,0,,0,0,,0,0,0,0,0,0,36.90411266,118.1664561,25.43,0.0,0.003,0.0,-0.14,0.24,92.04,194332.4,0.0,0.0,-0.003,-0.0,0.0,0.0,0.0,0.0,0.0,0.0,0.0,0.0,0.0,0.0,0.0,0.0,0.0,0.0,0.0,0.0,0.0,0.0,0.0,0.0,0
1704779913430614632,2896,0,,0,0,,0,0,0,0,0,0,36.90411267,118.1664561,25.43,0.0,0.003,0.0,-0.14,0.24,92.04,194332.5,0.0,0.0,-0.003,-0.0,0.0,0.0,0.0,0.0,0.0,0.0,0.0,0.0,0.0,0.0,0.0,0.0,0.0,0.0,0.0,0.0,0.0,0.0,0.0,0.0,0
1704779913530393078,2897,0,,0,0,,0,0,0,0,0,0,36.90411267,118.1664561,25.43,0.0,0.002,0.0,-0.14,0.24,92.04,194332.6,0.0,0.0,-0.002,-0.001,0.0,0.0,0.0,0.0,0.0,0.0,0.0,0.0,0.0,0.0,0.0,0.0,0.0,0.0,0.0,0.0,0.0,0.0,0.0,0.0,0
1704779913631975142,2898,0,,0,0,,0,0,0,0,0,0,36.90411267,118.1664561,25.43,0.0,0.002,0.0,-0.14,0.24,92.05,194332.7,0.0,0.0,-0.002,-0.001,0.0,0.0,0.0,0.0,0.0,0.0,0.0,0.0,0.0,0.0,0.0,0.0,0.0,0.0,0.0,0.0,0.0,0.0,0.0,0.0,0
1704779913730911775,2899,0,,0,0,,0,0,0,0,0,0,36.90411267,118.1664561,25.43,0.0,0.003,0.0,-0.14,0.24,92.05,194332.8,0.0,0.0,-0.003,-0.001,0.0,0.0,0.0,0.0,0.0,0.0,0.0,0.0,0.0,0.0,0.0,0.0,0.0,0.0,0.0,0.0,0.0,0.0,0.0,0.0,0
1704779913830612505,2900,0,,0,0,,0,0,0,0,0,0,36.90411268,118.16645609,25.43,0.0,0.003,0.0,-0.14,0.24,92.05,194332.9,0.0,0.0,-0.002,-0.001,0.0,0.0,0.0,0.0,0.0,0.0,0.0,0.0,0.0,0.0,0.0,0.0,0.0,0.0,0.0,0.0,0.0,0.0,0.0,0.0,0
1704779913929967831,2901,0,,0,0,,0,0,0,0,0,0,36.90411268,118.16645609,25.43,0.0,0.002,0.0,-0.14,0.24,92.05,194333.0,0.0,0.0,-0.002,-0.001,0.0,0.0,0.0,0.0,0.0,0.0,0.0,0.0,0.0,0.0,0.0,0.0,0.0,0.0,0.0,0.0,0.0,0.0,0.0,0.0,0
1704779914031066661,2902,0,,0,0,,0,0,0,0,0,0,36.90411268,118.16645608,25.43,0.0,0.002,0.0,-0.14,0.24,92.05,194333.1,0.0,0.0,-0.002,-0.001,0.0,0.0,0.0,0.0,0.0,0.0,0.0,0.0,0.0,0.0,0.0,0.0,0.0,0.0,0.0,0.0,0.0,0.0,0.0,0.0,0
1704779914131240862,2903,0,,0,0,,0,0,0,0,0,0,36.90411268,118.16645608,25.43,0.0,0.002,0.0,-0.14,0.24,92.05,194333.2,0.0,0.0,-0.002,-0.001,0.0,0.0,0.0,0.0,0.0,0.0,0.0,0.0,0.0,0.0,0.0,0.0,0.0,0.0,0.0,0.0,0.0,0.0,0.0,0.0,0
1704779914230288178,2904,0,,0,0,,0,0,0,0,0,0,36.90411269,118.16645608,25.43,0.0,0.002,0.0,-0.14,0.23,92.05,194333.3,0.0,0.0,-0.002,-0.002,0.0,0.0,0.0,0.0,0.0,0.0,0.0,0.0,0.0,0.0,0.0,0.0,0.0,0.0,0.0,0.0,0.0,0.0,0.0,0.0,0
1704779914331131316,2905,0,,0,0,,0,0,0,0,0,0,36.90411269,118.16645608,25.43,0.0,0.002,0.0,-0.14,0.23,92.05,194333.4,0.0,0.0,-0.002,-0.002,0.0,0.0,0.0,0.0,0.0,0.0,0.0,0.0,0.0,0.0,0.0,0.0,0.0,0.0,0.0,0.0,0.0,0.0,0.0,0.0,0
1704779914430749206,2906,0,,0,0,,0,0,0,0,0,0,36.90411269,118.16645607,25.43,0.0,0.002,0.0,-0.14,0.23,92.05,194333.5,0.0,0.0,-0.002,-0.002,0.0,0.0,0.0,0.0,0.0,0.0,0.0,0.0,0.0,0.0,0.0,0.0,0.0,0.0,0.0,0.0,0.0,0.0,0.0,0.0,0
1704779914529953030,2907,0,,0,0,,0,0,0,0,0,0,36.90411269,118.16645607,25.43,0.0,0.002,0.0,-0.14,0.23,92.05,194333.6,0.0,0.0,-0.001,-0.002,0.0,0.0,0.0,0.0,0.0,0.0,0.0,0.0,0.0,0.0,0.0,0.0,0.0,0.0,0.0,0.0,0.0,0.0,0.0,0.0,0
1704779914630613993,2908,0,,0,0,,0,0,0,0,0,0,36.9041127,118.16645607,25.43,0.0,0.002,0.0,-0.14,0.24,92.05,194333.7,0.0,0.0,-0.002,-0.002,0.0,0.0,0.0,0.0,0.0,0.0,0.0,0.0,0.0,0.0,0.0,0.0,0.0,0.0,0.0,0.0,0.0,0.0,0.0,0.0,0
1704779914730519420,2909,0,,0,0,,0,0,0,0,0,0,36.9041127,118.16645607,25.43,0.0,0.002,0.0,-0.14,0.24,92.05,194333.8,0.0,0.0,-0.001,-0.002,0.0,0.0,0.0,0.0,0.0,0.0,0.0,0.0,0.0,0.0,0.0,0.0,0.0,0.0,0.0,0.0,0.0,0.0,0.0,0.0,0
1704779914830065574,2910,0,,0,0,,0,0,0,0,0,0,36.90411271,118.16645606,25.43,0.0,0.003,0.0,-0.14,0.23,92.05,194333.9,0.0,0.0,-0.001,-0.003,0.0,0.0,0.0,0.0,0.0,0.0,0.0,0.0,0.0,0.0,0.0,0.0,0.0,0.0,0.0,0.0,0.0,0.0,0.0,0.0,0
1704779914929539189,2911,0,,0,0,,0,0,0,0,0,0,36.90411271,118.16645605,25.43,0.0,0.003,0.0,-0.14,0.23,92.05,194334.0,0.0,0.0,-0.001,-0.003,0.0,0.0,0.0,0.0,0.0,0.0,0.0,0.0,0.0,0.0,0.0,0.0,0.0,0.0,0.0,0.0,0.0,0.0,0.0,0.0,0
1704779915030540620,2912,0,,0,0,,0,0,0,0,0,0,36.90411271,118.16645606,25.43,0.0,0.003,0.0,-0.14,0.23,92.04,194334.1,0.0,0.0,-0.001,-0.002,0.0,0.0,0.0,0.0,0.0,0.0,0.0,0.0,0.0,0.0,0.0,0.0,0.0,0.0,0.0,0.0,0.0,0.0,0.0,0.0,0
1704779915129791830,2913,0,,0,0,,0,0,0,0,0,0,36.90411271,118.16645605,25.43,0.0,0.003,0.0,-0.14,0.23,92.04,194334.2,0.0,0.0,-0.001,-0.003,0.0,0.0,0.0,0.0,0.0,0.0,0.0,0.0,0.0,0.0,0.0,0.0,0.0,0.0,0.0,0.0,0.0,0.0,0.0,0.0,0
1704779915230819208,2914,0,,0,0,,0,0,0,0,0,0,36.90411272,118.16645605,25.43,0.0,0.002,0.0,-0.14,0.23,92.04,194334.3,0.0,0.0,-0.0,-0.002,0.0,0.0,0.0,0.0,0.0,0.0,0.0,0.0,0.0,0.0,0.0,0.0,0.0,0.0,0.0,0.0,0.0,0.0,0.0,0.0,0
1704779915330754087,2915,0,,0,0,,0,0,0,0,0,0,36.90411272,118.16645605,25.43,0.0,0.002,0.0,-0.14,0.23,92.04,194334.4,0.0,0.0,-0.0,-0.002,0.0,0.0,0.0,0.0,0.0,0.0,0.0,0.0,0.0,0.0,0.0,0.0,0.0,0.0,0.0,0.0,0.0,0.0,0.0,0.0,0
1704779915430037686,2916,0,,0,0,,0,0,0,0,0,0,36.90411274,118.16645605,25.43,0.0,0.003,0.0,-0.15,0.23,92.04,194334.5,0.0,0.0,0.0,-0.003,0.0,0.0,0.0,0.0,0.0,0.0,0.0,0.0,0.0,0.0,0.0,0.0,0.0,0.0,0.0,0.0,0.0,0.0,0.0,0.0,0
1704779915529583962,2917,0,,0,0,,0,0,0,0,0,0,36.90411274,118.16645605,25.43,0.0,0.003,0.0,-0.15,0.23,92.04,194334.6,0.0,0.0,0.0,-0.003,0.0,0.0,0.0,0.0,0.0,0.0,0.0,0.0,0.0,0.0,0.0,0.0,0.0,0.0,0.0,0.0,0.0,0.0,0.0,0.0,0
1704779915630422715,2918,0,,0,0,,0,0,0,0,0,0,36.90411275,118.16645605,25.43,0.0,0.003,0.0,-0.15,0.23,92.04,194334.7,0.0,0.0,0.001,-0.003,0.0,0.0,0.0,0.0,0.0,0.0,0.0,0.0,0.0,0.0,0.0,0.0,0.0,0.0,0.0,0.0,0.0,0.0,0.0,0.0,0
1704779915729926655,2919,0,,0,0,,0,0,0,0,0,0,36.90411275,118.16645604,25.43,0.0,0.003,0.0,-0.15,0.23,92.05,194334.8,0.0,0.0,0.001,-0.003,0.0,0.0,0.0,0.0,0.0,0.0,0.0,0.0,0.0,0.0,0.0,0.0,0.0,0.0,0.0,0.0,0.0,0.0,0.0,0.0,0
1704779915829808721,2920,0,,0,0,,0,0,0,0,0,0,36.90411277,118.16645604,25.43,0.0,0.003,0.0,-0.15,0.23,92.05,194334.9,0.0,0.0,0.002,-0.003,0.0,0.0,0.0,0.0,0.0,0.0,0.0,0.0,0.0,0.0,0.0,0.0,0.0,0.0,0.0,0.0,0.0,0.0,0.0,0.0,0
1704779915929673964,2921,0,,0,0,,0,0,0,0,0,0,36.90411277,118.16645604,25.43,0.0,0.003,0.0,-0.15,0.23,92.05,194335.0,0.0,0.0,0.001,-0.003,0.0,0.0,0.0,0.0,0.0,0.0,0.0,0.0,0.0,0.0,0.0,0.0,0.0,0.0,0.0,0.0,0.0,0.0,0.0,0.0,0
1704779916029886457,2922,0,,0,0,,0,0,0,0,0,0,36.90411279,118.16645603,25.43,0.0,0.003,0.0,-0.15,0.23,92.05,194335.1,0.0,0.0,0.002,-0.003,0.0,0.0,0.0,0.0,0.0,0.0,0.0,0.0,0.0,0.0,0.0,0.0,0.0,0.0,0.0,0.0,0.0,0.0,0.0,0.0,0
1704779916129904477,2923,0,,0,0,,0,0,0,0,0,0,36.90411279,118.16645603,25.43,0.0,0.003,0.0,-0.15,0.23,92.05,194335.2,0.0,0.0,0.002,-0.003,0.0,0.0,0.0,0.0,0.0,0.0,0.0,0.0,0.0,0.0,0.0,0.0,0.0,0.0,0.0,0.0,0.0,0.0,0.0,0.0,0
1704779916230600620,2924,0,,0,0,,0,0,0,0,0,0,36.90411279,118.16645603,25.43,0.0,0.003,0.0,-0.15,0.23,92.05,194335.3,0.0,0.0,0.002,-0.003,0.0,0.0,0.0,0.0,0.0,0.0,0.0,0.0,0.0,0.0,0.0,0.0,0.0,0.0,0.0,0.0,0.0,0.0,0.0,0.0,0
1704779916329827685,2925,0,,0,0,,0,0,0,0,0,0,36.90411279,118.16645603,25.43,0.0,0.003,0.0,-0.15,0.23,92.05,194335.4,0.0,0.0,0.002,-0.003,0.0,0.0,0.0,0.0,0.0,0.0,0.0,0.0,0.0,0.0,0.0,0.0,0.0,0.0,0.0,0.0,0.0,0.0,0.0,0.0,0
1704779916429748963,2926,0,,0,0,,0,0,0,0,0,0,36.9041128,118.16645602,25.43,0.0,0.003,0.0,-0.15,0.23,92.05,194335.5,0.0,0.0,0.002,-0.003,0.0,0.0,0.0,0.0,0.0,0.0,0.0,0.0,0.0,0.0,0.0,0.0,0.0,0.0,0.0,0.0,0.0,0.0,0.0,0.0,0
1704779916529538883,2927,0,,0,0,,0,0,0,0,0,0,36.9041128,118.16645602,25.43,0.0,0.004,0.0,-0.15,0.23,92.05,194335.6,0.0,0.0,0.002,-0.003,0.0,0.0,0.0,0.0,0.0,0.0,0.0,0.0,0.0,0.0,0.0,0.0,0.0,0.0,0.0,0.0,0.0,0.0,0.0,0.0,0
1704779916630091923,2928,0,,0,0,,0,0,0,0,0,0,36.90411281,118.16645601,25.43,0.0,0.004,0.0,-0.14,0.23,92.05,194335.7,0.0,0.0,0.002,-0.003,0.0,0.0,0.0,0.0,0.0,0.0,0.0,0.0,0.0,0.0,0.0,0.0,0.0,0.0,0.0,0.0,0.0,0.0,0.0,0.0,0
1704779916729536208,2929,0,,0,0,,0,0,0,0,0,0,36.90411281,118.16645601,25.43,0.0,0.004,0.0,-0.14,0.23,92.05,194335.8,0.0,0.0,0.002,-0.003,0.0,0.0,0.0,0.0,0.0,0.0,0.0,0.0,0.0,0.0,0.0,0.0,0.0,0.0,0.0,0.0,0.0,0.0,0.0,0.0,0
1704779916829517213,2930,0,,0,0,,0,0,0,0,0,0,36.90411282,118.16645601,25.43,0.0,0.005,0.0,-0.14,0.23,92.05,194335.9,0.0,0.0,0.003,-0.004,0.0,0.0,0.0,0.0,0.0,0.0,0.0,0.0,0.0,0.0,0.0,0.0,0.0,0.0,0.0,0.0,0.0,0.0,0.0,0.0,0
1704779916929025634,2931,0,,0,0,,0,0,0,0,0,0,36.90411282,118.166456,25.43,0.0,0.004,0.0,-0.14,0.23,92.05,194336.0,0.0,0.0,0.002,-0.003,0.0,0.0,0.0,0.0,0.0,0.0,0.0,0.0,0.0,0.0,0.0,0.0,0.0,0.0,0.0,0.0,0.0,0.0,0.0,0.0,0
1704779917029460907,2932,0,,0,0,,0,0,0,0,0,0,36.90411282,118.166456,25.43,0.0,0.004,0.0,-0.14,0.24,92.05,194336.1,0.0,0.0,0.002,-0.003,0.0,0.0,0.0,0.0,0.0,0.0,0.0,0.0,0.0,0.0,0.0,0.0,0.0,0.0,0.0,0.0,0.0,0.0,0.0,0.0,0
1704779917129406176,2933,0,,0,0,,0,0,0,0,0,0,36.90411282,118.166456,25.43,0.0,0.004,0.0,-0.14,0.23,92.05,194336.2,0.0,0.0,0.002,-0.003,0.0,0.0,0.0,0.0,0.0,0.0,0.0,0.0,0.0,0.0,0.0,0.0,0.0,0.0,0.0,0.0,0.0,0.0,0.0,0.0,0
1704779917229920677,2934,0,,0,0,,0,0,0,0,0,0,36.90411281,118.16645601,25.43,0.0,0.003,0.0,-0.14,0.23,92.05,194336.3,0.0,0.0,0.002,-0.003,0.0,0.0,0.0,0.0,0.0,0.0,0.0,0.0,0.0,0.0,0.0,0.0,0.0,0.0,0.0,0.0,0.0,0.0,0.0,0.0,0
1704779917329662874,2935,0,,0,0,,0,0,0,0,0,0,36.90411281,118.16645601,25.43,0.0,0.003,0.0,-0.14,0.23,92.05,194336.4,0.0,0.0,0.001,-0.003,0.0,0.0,0.0,0.0,0.0,0.0,0.0,0.0,0.0,0.0,0.0,0.0,0.0,0.0,0.0,0.0,0.0,0.0,0.0,0.0,0
1704779917428710714,2936,0,,0,0,,0,0,0,0,0,0,36.9041128,118.16645601,25.43,0.0,0.003,0.0,-0.14,0.23,92.05,194336.5,0.0,0.0,0.001,-0.003,0.0,0.0,0.0,0.0,0.0,0.0,0.0,0.0,0.0,0.0,0.0,0.0,0.0,0.0,0.0,0.0,0.0,0.0,0.0,0.0,0
1704779917529172105,2937,0,,0,0,,0,0,0,0,0,0,36.9041128,118.16645601,25.43,0.0,0.003,0.0,-0.14,0.23,92.05,194336.6,0.0,0.0,0.001,-0.003,0.0,0.0,0.0,0.0,0.0,0.0,0.0,0.0,0.0,0.0,0.0,0.0,0.0,0.0,0.0,0.0,0.0,0.0,0.0,0.0,0
1704779917629230063,2938,0,,0,0,,0,0,0,0,0,0,36.9041128,118.16645601,25.43,0.0,0.003,0.0,-0.15,0.23,92.05,194336.7,0.0,0.0,0.001,-0.003,0.0,0.0,0.0,0.0,0.0,0.0,0.0,0.0,0.0,0.0,0.0,0.0,0.0,0.0,0.0,0.0,0.0,0.0,0.0,0.0,0
1704779917729708639,2939,0,,0,0,,0,0,0,0,0,0,36.9041128,118.166456,25.43,0.0,0.003,0.0,-0.14,0.23,92.05,194336.8,0.0,0.0,0.001,-0.003,0.0,0.0,0.0,0.0,0.0,0.0,0.0,0.0,0.0,0.0,0.0,0.0,0.0,0.0,0.0,0.0,0.0,0.0,0.0,0.0,0
1704779917829092915,2940,0,,0,0,,0,0,0,0,0,0,36.90411279,118.16645601,25.43,0.0,0.003,0.0,-0.14,0.23,92.05,194336.9,0.0,0.0,0.001,-0.002,0.0,0.0,0.0,0.0,0.0,0.0,0.0,0.0,0.0,0.0,0.0,0.0,0.0,0.0,0.0,0.0,0.0,0.0,0.0,0.0,0
1704779917928862969,2941,0,,0,0,,0,0,0,0,0,0,36.90411279,118.16645601,25.43,0.0,0.003,0.0,-0.14,0.23,92.05,194337.0,0.0,0.0,0.001,-0.003,0.0,0.0,0.0,0.0,0.0,0.0,0.0,0.0,0.0,0.0,0.0,0.0,0.0,0.0,0.0,0.0,0.0,0.0,0.0,0.0,0
1704779918029659920,2942,0,,0,0,,0,0,0,0,0,0,36.90411278,118.16645602,25.43,0.0,0.002,0.0,-0.15,0.23,92.05,194337.1,0.0,0.0,0.0,-0.002,0.0,0.0,0.0,0.0,0.0,0.0,0.0,0.0,0.0,0.0,0.0,0.0,0.0,0.0,0.0,0.0,0.0,0.0,0.0,0.0,0
1704779918128880201,2943,0,,0,0,,0,0,0,0,0,0,36.90411278,118.16645601,25.43,0.0,0.002,0.0,-0.15,0.23,92.05,194337.2,0.0,0.0,0.0,-0.002,0.0,0.0,0.0,0.0,0.0,0.0,0.0,0.0,0.0,0.0,0.0,0.0,0.0,0.0,0.0,0.0,0.0,0.0,0.0,0.0,0
1704779918229695089,2944,0,,0,0,,0,0,0,0,0,0,36.90411278,118.16645603,25.43,0.0,0.015,0.0,-0.13,0.23,92.05,194337.3,0.0,0.0,-0.0,0.015,0.0,0.0,0.0,0.0,0.0,0.0,0.0,0.0,0.0,0.0,0.0,0.0,0.0,0.0,0.0,0.0,0.0,0.0,0.0,0.0,0
1704779918329497130,2945,0,,0,0,,0,0,0,0,0,0,36.90411278,118.16645607,25.43,0.0,0.058,0.0,-0.11,0.23,92.05,194337.4,0.0,0.0,-0.002,0.058,0.0,0.0,0.0,0.0,0.0,0.0,0.0,0.0,0.0,0.0,0.0,0.0,0.0,0.0,0.0,0.0,0.0,0.0,0.0,0.0,0
1704779918428286511,2946,0,,0,0,,0,0,0,0,0,0,36.90411276,118.16645617,25.43,0.0,0.108,0.0,-0.11,0.23,92.05,194337.5,0.0,0.0,-0.006,0.108,0.0,0.0,0.0,0.0,0.0,0.0,0.0,0.0,0.0,0.0,0.0,0.0,0.0,0.0,0.0,0.0,0.0,0.0,0.0,0.0,0
1704779918528939579,2947,0,,0,0,,0,0,0,0,0,0,36.90411276,118.16645632,25.43,0.0,0.16,0.0,-0.08,0.24,92.04,194337.6,0.0,0.0,-0.009,0.159,0.0,0.0,0.0,0.0,0.0,0.0,0.0,0.0,0.0,0.0,0.0,0.0,0.0,0.0,0.0,0.0,0.0,0.0,0.0,0.0,0
1704779918629205698,2948,0,,0,0,,0,0,0,0,0,0,36.90411273,118.16645657,25.43,0.0,0.215,0.0,-0.1,0.24,92.04,194337.7,0.0,0.0,-0.008,0.215,0.0,0.0,0.0,0.0,0.0,0.0,0.0,0.0,0.0,0.0,0.0,0.0,0.0,0.0,0.0,0.0,0.0,0.0,0.0,0.0,0
1704779918728865609,2949,0,,0,0,,0,0,0,0,0,0,36.90411272,118.16645684,25.43,0.0,0.26,0.0,-0.11,0.24,92.03,194337.8,0.0,0.0,-0.013,0.26,0.0,0.0,0.0,0.0,0.0,0.0,0.0,0.0,0.0,0.0,0.0,0.0,0.0,0.0,0.0,0.0,0.0,0.0,0.0,0.0,0
1704779918828519997,2950,0,,0,0,,0,0,0,0,0,0,36.9041127,118.16645717,25.43,0.0,0.287,0.0,-0.14,0.26,92.04,194337.9,0.0,0.0,-0.015,0.287,0.0,0.0,0.0,0.0,0.0,0.0,0.0,0.0,0.0,0.0,0.0,0.0,0.0,0.0,0.0,0.0,0.0,0.0,0.0,0.0,0
1704779918928849871,2951,0,,0,0,,0,0,0,0,0,0,36.90411269,118.16645751,25.43,0.0,0.309,0.0,-0.18,0.25,92.03,194338.0,0.0,0.0,-0.01,0.308,0.0,0.0,0.0,0.0,0.0,0.0,0.0,0.0,0.0,0.0,0.0,0.0,0.0,0.0,0.0,0.0,0.0,0.0,0.0,0.0,0
1704779919028265044,2952,0,,0,0,,0,0,0,0,0,0,36.90411269,118.16645786,25.43,0.0,0.307,0.0,-0.2,0.25,92.03,194338.1,0.0,0.0,-0.016,0.306,0.0,0.0,0.0,0.0,0.0,0.0,0.0,0.0,0.0,0.0,0.0,0.0,0.0,0.0,0.0,0.0,0.0,0.0,0.0,0.0,0
1704779919129107365,2953,0,,0,0,,0,0,0,0,0,0,36.90411267,118.16645821,25.43,0.0,0.313,0.0,-0.23,0.25,92.01,194338.2,0.0,0.0,-0.013,0.313,0.0,0.0,0.0,0.0,0.0,0.0,0.0,0.0,0.0,0.0,0.0,0.0,0.0,0.0,0.0,0.0,0.0,0.0,0.0,0.0,0
1704779919229480515,2954,0,,0,0,,0,0,0,0,0,0,36.90411266,118.16645857,25.43,0.0,0.306,0.0,-0.22,0.23,92.01,194338.3,0.0,0.0,-0.009,0.306,0.0,0.0,0.0,0.0,0.0,0.0,0.0,0.0,0.0,0.0,0.0,0.0,0.0,0.0,0.0,0.0,0.0,0.0,0.0,0.0,0
1704779919329358111,2955,0,,0,0,,0,0,0,0,0,0,36.90411265,118.16645892,25.43,0.0,0.326,0.0,-0.22,0.23,92.01,194338.4,0.0,0.0,-0.015,0.326,0.0,0.0,0.0,0.0,0.0,0.0,0.0,0.0,0.0,0.0,0.0,0.0,0.0,0.0,0.0,0.0,0.0,0.0,0.0,0.0,0
1704779919428371617,2956,0,,0,0,,0,0,0,0,0,0,36.90411264,118.16645931,25.43,0.0,0.348,0.0,-0.21,0.22,92.01,194338.5,0.0,0.0,-0.011,0.348,0.0,0.0,0.0,0.0,0.0,0.0,0.0,0.0,0.0,0.0,0.0,0.0,0.0,0.0,0.0,0.0,0.0,0.0,0.0,0.0,0
1704779919528566787,2957,0,,0,0,,0,0,0,0,0,0,36.90411263,118.16645972,25.43,0.0,0.389,0.0,-0.22,0.18,92.0,194338.6,0.0,0.0,-0.009,0.389,0.0,0.0,0.0,0.0,0.0,0.0,0.0,0.0,0.0,0.0,0.0,0.0,0.0,0.0,0.0,0.0,0.0,0.0,0.0,0.0,0
1704779919628773319,2958,0,,0,0,,0,0,0,0,0,0,36.9041126,118.16646019,25.43,0.0,0.432,0.0,-0.2,0.16,92.0,194338.7,0.0,0.0,-0.021,0.431,0.0,0.0,0.0,0.0,0.0,0.0,0.0,0.0,0.0,0.0,0.0,0.0,0.0,0.0,0.0,0.0,0.0,0.0,0.0,0.0,0
1704779919728469536,2959,0,,0,0,,0,0,0,0,0,0,36.90411259,118.1664607,25.43,0.0,0.474,0.0,-0.22,0.17,91.98,194338.8,0.0,0.0,-0.023,0.474,0.0,0.0,0.0,0.0,0.0,0.0,0.0,0.0,0.0,0.0,0.0,0.0,0.0,0.0,0.0,0.0,0.0,0.0,0.0,0.0,0
1704779919828420396,2960,0,,0,0,,0,0,0,0,0,0,36.90411256,118.16646127,25.43,0.0,0.524,0.0,-0.21,0.16,91.97,194338.9,0.0,0.0,-0.023,0.524,0.0,0.0,0.0,0.0,0.0,0.0,0.0,0.0,0.0,0.0,0.0,0.0,0.0,0.0,0.0,0.0,0.0,0.0,0.0,0.0,0
1704779919928323757,2961,0,,0,0,,0,0,0,0,0,0,36.90411254,118.16646189,25.43,0.0,0.571,0.0,-0.22,0.17,91.97,194339.0,0.0,0.0,-0.026,0.571,0.0,0.0,0.0,0.0,0.0,0.0,0.0,0.0,0.0,0.0,0.0,0.0,0.0,0.0,0.0,0.0,0.0,0.0,0.0,0.0,0
1704779920028087919,2962,0,,0,0,,0,0,0,0,0,0,36.90411251,118.16646257,25.43,0.0,0.629,0.0,-0.2,0.18,91.95,194339.1,0.0,0.0,-0.028,0.628,0.0,0.0,0.0,0.0,0.0,0.0,0.0,0.0,0.0,0.0,0.0,0.0,0.0,0.0,0.0,0.0,0.0,0.0,0.0,0.0,0
1704779920128789060,2963,0,,0,0,,0,0,0,0,0,0,36.90411249,118.1664633,25.43,0.0,0.681,0.0,-0.22,0.2,91.95,194339.2,0.0,0.0,-0.031,0.681,0.0,0.0,0.0,0.0,0.0,0.0,0.0,0.0,0.0,0.0,0.0,0.0,0.0,0.0,0.0,0.0,0.0,0.0,0.0,0.0,0
1704779920228043853,2964,0,,0,0,,0,0,0,0,0,0,36.90411246,118.16646411,25.43,0.0,0.734,0.0,-0.22,0.24,91.95,194339.3,0.0,0.0,-0.04,0.733,0.0,0.0,0.0,0.0,0.0,0.0,0.0,0.0,0.0,0.0,0.0,0.0,0.0,0.0,0.0,0.0,0.0,0.0,0.0,0.0,0
1704779920327590837,2965,0,,0,0,,0,0,0,0,0,0,36.90411243,118.16646496,25.43,0.0,0.782,0.0,-0.22,0.27,91.94,194339.4,0.0,0.0,-0.034,0.782,0.0,0.0,0.0,0.0,0.0,0.0,0.0,0.0,0.0,0.0,0.0,0.0,0.0,0.0,0.0,0.0,0.0,0.0,0.0,0.0,0
1704779920428355480,2966,0,,0,0,,0,0,0,0,0,0,36.9041124,118.16646587,25.43,0.0,0.829,0.0,-0.21,0.28,91.93,194339.5,0.0,0.0,-0.036,0.829,0.0,0.0,0.0,0.0,0.0,0.0,0.0,0.0,0.0,0.0,0.0,0.0,0.0,0.0,0.0,0.0,0.0,0.0,0.0,0.0,0
1704779920528251844,2967,0,,0,0,,0,0,0,0,0,0,36.90411236,118.16646682,25.43,0.0,0.859,0.0,-0.2,0.3,91.92,194339.6,0.0,0.0,-0.038,0.858,0.0,0.0,0.0,0.0,0.0,0.0,0.0,0.0,0.0,0.0,0.0,0.0,0.0,0.0,0.0,0.0,0.0,0.0,0.0,0.0,0
1704779920628116433,2968,0,,0,0,,0,0,0,0,0,0,36.90411233,118.1664678,25.43,0.0,0.878,0.0,-0.18,0.31,91.91,194339.7,0.0,0.0,-0.036,0.877,0.0,0.0,0.0,0.0,0.0,0.0,0.0,0.0,0.0,0.0,0.0,0.0,0.0,0.0,0.0,0.0,0.0,0.0,0.0,0.0,0
1704779920728610835,2969,0,,0,0,,0,0,0,0,0,0,36.90411229,118.16646879,25.43,0.0,0.883,0.0,-0.17,0.33,91.9,194339.8,0.0,0.0,-0.039,0.882,0.0,0.0,0.0,0.0,0.0,0.0,0.0,0.0,0.0,0.0,0.0,0.0,0.0,0.0,0.0,0.0,0.0,0.0,0.0,0.0,0
1704779920827761017,2970,0,,0,0,,0,0,0,0,0,0,36.90411226,118.1664698,25.43,0.0,0.884,0.0,-0.16,0.33,91.92,194339.9,0.0,0.0,-0.028,0.883,0.0,0.0,0.0,0.0,0.0,0.0,0.0,0.0,0.0,0.0,0.0,0.0,0.0,0.0,0.0,0.0,0.0,0.0,0.0,0.0,0
1704779920927787925,2971,0,,0,0,,0,0,0,0,0,0,36.90411224,118.16647078,25.43,0.0,0.875,0.0,-0.19,0.26,91.93,194340.0,0.0,0.0,-0.027,0.875,0.0,0.0,0.0,0.0,0.0,0.0,0.0,0.0,0.0,0.0,0.0,0.0,0.0,0.0,0.0,0.0,0.0,0.0,0.0,0.0,0
1704779921028904746,2972,0,,0,0,,0,0,0,0,0,0,36.90411221,118.16647177,25.43,0.0,0.866,0.0,-0.21,0.25,91.93,194340.1,0.0,0.0,-0.038,0.866,0.0,0.0,0.0,0.0,0.0,0.0,0.0,0.0,0.0,0.0,0.0,0.0,0.0,0.0,0.0,0.0,0.0,0.0,0.0,0.0,0
1704779921128486676,2973,0,,0,0,,0,0,0,0,0,0,36.90411218,118.16647274,25.43,0.0,0.855,0.0,-0.24,0.25,91.95,194340.2,0.0,0.0,-0.03,0.855,0.0,0.0,0.0,0.0,0.0,0.0,0.0,0.0,0.0,0.0,0.0,0.0,0.0,0.0,0.0,0.0,0.0,0.0,0.0,0.0,0
1704779921227109616,2974,0,,0,0,,0,0,0,0,0,0,36.90411215,118.16647369,25.43,0.0,0.845,0.0,-0.28,0.22,91.94,194340.3,0.0,0.0,-0.033,0.845,0.0,0.0,0.0,0.0,0.0,0.0,0.0,0.0,0.0,0.0,0.0,0.0,0.0,0.0,0.0,0.0,0.0,0.0,0.0,0.0,0
1704779921328453873,2975,0,,0,0,,0,0,0,0,0,0,36.90411212,118.16647463,25.43,0.0,0.836,0.0,-0.33,0.22,91.93,194340.4,0.0,0.0,-0.034,0.835,0.0,0.0,0.0,0.0,0.0,0.0,0.0,0.0,0.0,0.0,0.0,0.0,0.0,0.0,0.0,0.0,0.0,0.0,0.0,0.0,0
1704779921427822050,2976,0,,0,0,,0,0,0,0,0,0,36.9041121,118.16647557,25.43,0.0,0.825,0.0,-0.37,0.16,91.92,194340.5,0.0,0.0,-0.014,0.825,0.0,0.0,0.0,0.0,0.0,0.0,0.0,0.0,0.0,0.0,0.0,0.0,0.0,0.0,0.0,0.0,0.0,0.0,0.0,0.0,0
1704779921527890431,2977,0,,0,0,,0,0,0,0,0,0,36.90411209,118.16647648,25.43,0.0,0.8,0.0,-0.32,0.05,91.9,194340.6,0.0,0.0,-0.024,0.8,0.0,0.0,0.0,0.0,0.0,0.0,0.0,0.0,0.0,0.0,0.0,0.0,0.0,0.0,0.0,0.0,0.0,0.0,0.0,0.0,0
1704779921628097684,2978,0,,0,0,,0,0,0,0,0,0,36.90411205,118.16647737,25.43,0.0,0.796,0.0,-0.22,0.09,91.87,194340.7,0.0,0.0,-0.05,0.794,0.0,0.0,0.0,0.0,0.0,0.0,0.0,0.0,0.0,0.0,0.0,0.0,0.0,0.0,0.0,0.0,0.0,0.0,0.0,0.0,0
1704779921727952655,2979,0,,0,0,,0,0,0,0,0,0,36.90411202,118.16647826,25.43,0.0,0.795,0.0,-0.22,0.16,91.87,194340.8,0.0,0.0,-0.031,0.794,0.0,0.0,0.0,0.0,0.0,0.0,0.0,0.0,0.0,0.0,0.0,0.0,0.0,0.0,0.0,0.0,0.0,0.0,0.0,0.0,0
1704779921828044800,2980,0,,0,0,,0,0,0,0,0,0,36.90411199,118.16647915,25.43,0.0,0.8,0.0,-0.2,0.13,91.85,194340.9,0.0,0.0,-0.026,0.8,0.0,0.0,0.0,0.0,0.0,0.0,0.0,0.0,0.0,0.0,0.0,0.0,0.0,0.0,0.0,0.0,0.0,0.0,0.0,0.0,0
1704779921928921640,2981,0,,0,0,,0,0,0,0,0,0,36.90411197,118.16648005,25.43,0.0,0.809,0.0,-0.22,0.14,91.83,194341.0,0.0,0.0,-0.038,0.808,0.0,0.0,0.0,0.0,0.0,0.0,0.0,0.0,0.0,0.0,0.0,0.0,0.0,0.0,0.0,0.0,0.0,0.0,0.0,0.0,0
1704779922026967983,2982,0,,0,0,,0,0,0,0,0,0,36.90411194,118.16648096,25.43,0.0,0.823,0.0,-0.21,0.14,91.82,194341.1,0.0,0.0,-0.025,0.823,0.0,0.0,0.0,0.0,0.0,0.0,0.0,0.0,0.0,0.0,0.0,0.0,0.0,0.0,0.0,0.0,0.0,0.0,0.0,0.0,0
1704779922127655835,2983,0,,0,0,,0,0,0,0,0,0,36.90411192,118.16648189,25.43,0.0,0.84,0.0,-0.2,0.09,91.8,194341.2,0.0,0.0,-0.027,0.84,0.0,0.0,0.0,0.0,0.0,0.0,0.0,0.0,0.0,0.0,0.0,0.0,0.0,0.0,0.0,0.0,0.0,0.0,0.0,0.0,0
1704779922227649940,2984,0,,0,0,,0,0,0,0,0,0,36.90411188,118.16648285,25.43,0.0,0.877,0.0,-0.11,0.12,91.77,194341.3,0.0,0.0,-0.048,0.875,0.0,0.0,0.0,0.0,0.0,0.0,0.0,0.0,0.0,0.0,0.0,0.0,0.0,0.0,0.0,0.0,0.0,0.0,0.0,0.0,0
1704779922327852624,2985,0,,0,0,,0,0,0,0,0,0,36.90411184,118.16648386,25.43,0.0,0.917,0.0,-0.07,0.19,91.76,194341.4,0.0,0.0,-0.035,0.917,0.0,0.0,0.0,0.0,0.0,0.0,0.0,0.0,0.0,0.0,0.0,0.0,0.0,0.0,0.0,0.0,0.0,0.0,0.0,0.0,0
1704779922428002644,2986,0,,0,0,,0,0,0,0,0,0,36.90411182,118.16648492,25.43,0.0,0.968,0.0,0.01,0.11,91.75,194341.5,0.0,0.0,-0.017,0.968,0.0,0.0,0.0,0.0,0.0,0.0,0.0,0.0,0.0,0.0,0.0,0.0,0.0,0.0,0.0,0.0,0.0,0.0,0.0,0.0,0
1704779922528013663,2987,0,,0,0,,0,0,0,0,0,0,36.9041118,118.16648603,25.43,0.0,1.018,0.0,0.07,0.02,91.74,194341.6,0.0,0.0,-0.031,1.017,0.0,0.0,0.0,0.0,0.0,0.0,0.0,0.0,0.0,0.0,0.0,0.0,0.0,0.0,0.0,0.0,0.0,0.0,0.0,0.0,0
1704779922627214155,2988,0,,0,0,,0,0,0,0,0,0,36.90411177,118.16648722,25.43,0.0,1.071,0.0,-0.04,0.02,91.75,194341.7,0.0,0.0,-0.044,1.07,0.0,0.0,0.0,0.0,0.0,0.0,0.0,0.0,0.0,0.0,0.0,0.0,0.0,0.0,0.0,0.0,0.0,0.0,0.0,0.0,0
1704779922727473157,2989,0,,0,0,,0,0,0,0,0,0,36.90411174,118.16648843,25.43,0.0,1.091,0.0,-0.04,0.02,91.74,194341.8,0.0,0.0,-0.037,1.091,0.0,0.0,0.0,0.0,0.0,0.0,0.0,0.0,0.0,0.0,0.0,0.0,0.0,0.0,0.0,0.0,0.0,0.0,0.0,0.0,0
1704779922827562231,2990,0,,0,0,,0,0,0,0,0,0,36.90411172,118.16648967,25.43,0.0,1.115,0.0,0.04,-0.04,91.75,194341.9,0.0,0.0,-0.027,1.115,0.0,0.0,0.0,0.0,0.0,0.0,0.0,0.0,0.0,0.0,0.0,0.0,0.0,0.0,0.0,0.0,0.0,0.0,0.0,0.0,0
1704779922927259616,2991,0,,0,0,,0,0,0,0,0,0,36.90411169,118.16649093,25.43,0.0,1.128,0.0,0.1,-0.05,91.73,194342.0,0.0,0.0,-0.048,1.127,0.0,0.0,0.0,0.0,0.0,0.0,0.0,0.0,0.0,0.0,0.0,0.0,0.0,0.0,0.0,0.0,0.0,0.0,0.0,0.0,0
1704779923026613149,2992,0,,0,0,,0,0,0,0,0,0,36.90411166,118.16649221,25.43,0.0,1.139,0.0,0.05,-0.03,91.73,194342.1,0.0,0.0,-0.042,1.139,0.0,0.0,0.0,0.0,0.0,0.0,0.0,0.0,0.0,0.0,0.0,0.0,0.0,0.0,0.0,0.0,0.0,0.0,0.0,0.0,0
1704779923127542350,2993,0,,0,0,,0,0,0,0,0,0,36.90411163,118.16649349,25.43,0.0,1.135,0.0,-0.03,-0.05,91.74,194342.2,0.0,0.0,-0.032,1.135,0.0,0.0,0.0,0.0,0.0,0.0,0.0,0.0,0.0,0.0,0.0,0.0,0.0,0.0,0.0,0.0,0.0,0.0,0.0,0.0,0
1704779923227365627,2994,0,,0,0,,0,0,0,0,0,0,36.9041116,118.16649477,25.43,0.0,1.13,0.0,-0.1,-0.05,91.72,194342.3,0.0,0.0,-0.048,1.129,0.0,0.0,0.0,0.0,0.0,0.0,0.0,0.0,0.0,0.0,0.0,0.0,0.0,0.0,0.0,0.0,0.0,0.0,0.0,0.0,0
1704779923327586012,2995,0,,0,0,,0,0,0,0,0,0,36.90411156,118.16649604,25.43,0.0,1.132,0.0,-0.28,-0.03,91.71,194342.4,0.0,0.0,-0.035,1.131,0.0,0.0,0.0,0.0,0.0,0.0,0.0,0.0,0.0,0.0,0.0,0.0,0.0,0.0,0.0,0.0,0.0,0.0,0.0,0.0,0
1704779923428126024,2996,0,,0,0,,0,0,0,0,0,0,36.90411153,118.1664973,25.43,0.0,1.107,0.0,-0.38,-0.08,91.69,194342.5,0.0,0.0,-0.03,1.106,0.0,0.0,0.0,0.0,0.0,0.0,0.0,0.0,0.0,0.0,0.0,0.0,0.0,0.0,0.0,0.0,0.0,0.0,0.0,0.0,0
1704779923527407297,2997,0,,0,0,,0,0,0,0,0,0,36.9041115,118.16649854,25.44,0.0,1.105,0.0,-0.42,-0.05,91.69,194342.6,0.0,0.0,-0.048,1.104,0.0,0.0,0.0,0.0,0.0,0.0,0.0,0.0,0.0,0.0,0.0,0.0,0.0,0.0,0.0,0.0,0.0,0.0,0.0,0.0,0
1704779923627378804,2998,0,,0,0,,0,0,0,0,0,0,36.90411147,118.16649978,25.44,0.0,1.097,0.0,-0.52,-0.03,91.68,194342.7,0.0,0.0,-0.034,1.096,0.0,0.0,0.0,0.0,0.0,0.0,0.0,0.0,0.0,0.0,0.0,0.0,0.0,0.0,0.0,0.0,0.0,0.0,0.0,0.0,0
1704779923727149359,2999,0,,0,0,,0,0,0,0,0,0,36.90411144,118.166501,25.44,0.0,1.083,0.0,-0.5,-0.08,91.66,194342.8,0.0,0.0,-0.027,1.082,0.0,0.0,0.0,0.0,0.0,0.0,0.0,0.0,0.0,0.0,0.0,0.0,0.0,0.0,0.0,0.0,0.0,0.0,0.0,0.0,0
1704779923827372972,3000,0,,0,0,,0,0,0,0,0,0,36.90411141,118.16650222,25.44,0.0,1.085,0.0,-0.39,-0.08,91.64,194342.9,0.0,0.0,-0.049,1.084,0.0,0.0,0.0,0.0,0.0,0.0,0.0,0.0,0.0,0.0,0.0,0.0,0.0,0.0,0.0,0.0,0.0,0.0,0.0,0.0,0
1704779923927123255,3001,0,,0,0,,0,0,0,0,0,0,36.90411137,118.16650345,25.44,0.0,1.1,0.0,-0.27,-0.01,91.62,194343.0,0.0,0.0,-0.047,1.099,0.0,0.0,0.0,0.0,0.0,0.0,0.0,0.0,0.0,0.0,0.0,0.0,0.0,0.0,0.0,0.0,0.0,0.0,0.0,0.0,0
1704779924026667202,3002,0,,0,0,,0,0,0,0,0,0,36.90411134,118.1665047,25.43,0.0,1.136,0.0,-0.18,-0.02,91.62,194343.1,0.0,0.0,-0.03,1.136,0.0,0.0,0.0,0.0,0.0,0.0,0.0,0.0,0.0,0.0,0.0,0.0,0.0,0.0,0.0,0.0,0.0,0.0,0.0,0.0,0
1704779924126929602,3003,0,,0,0,,0,0,0,0,0,0,36.90411132,118.16650599,25.43,0.0,1.172,0.0,0.0,-0.06,91.61,194343.2,0.0,0.0,-0.04,1.171,0.0,0.0,0.0,0.0,0.0,0.0,0.0,0.0,0.0,0.0,0.0,0.0,0.0,0.0,0.0,0.0,0.0,0.0,0.0,0.0,0
1704779924227181899,3004,0,,0,0,,0,0,0,0,0,0,36.90411129,118.16650735,25.43,0.0,1.225,0.0,0.13,-0.12,91.61,194343.3,0.0,0.0,-0.033,1.225,0.0,0.0,0.0,0.0,0.0,0.0,0.0,0.0,0.0,0.0,0.0,0.0,0.0,0.0,0.0,0.0,0.0,0.0,0.0,0.0,0
1704779924327101589,3005,0,,0,0,,0,0,0,0,0,0,36.90411125,118.16650875,25.43,0.0,1.272,0.0,0.16,-0.11,91.58,194343.4,0.0,0.0,-0.052,1.271,0.0,0.0,0.0,0.0,0.0,0.0,0.0,0.0,0.0,0.0,0.0,0.0,0.0,0.0,0.0,0.0,0.0,0.0,0.0,0.0,0
1704779924427463572,3006,0,,0,0,,0,0,0,0,0,0,36.90411121,118.16651022,25.43,0.0,1.325,0.0,0.24,-0.1,91.57,194343.5,0.0,0.0,-0.036,1.324,0.0,0.0,0.0,0.0,0.0,0.0,0.0,0.0,0.0,0.0,0.0,0.0,0.0,0.0,0.0,0.0,0.0,0.0,0.0,0.0,0
1704779924527175082,3007,0,,0,0,,0,0,0,0,0,0,36.90411118,118.16651173,25.43,0.0,1.36,0.0,0.16,-0.16,91.57,194343.6,0.0,0.0,-0.039,1.359,0.0,0.0,0.0,0.0,0.0,0.0,0.0,0.0,0.0,0.0,0.0,0.0,0.0,0.0,0.0,0.0,0.0,0.0,0.0,0.0,0
1704779924627029170,3008,0,,0,0,,0,0,0,0,0,0,36.90411113,118.16651328,25.43,0.0,1.383,0.0,0.12,-0.07,91.56,194343.7,0.0,0.0,-0.074,1.381,0.0,0.0,0.0,0.0,0.0,0.0,0.0,0.0,0.0,0.0,0.0,0.0,0.0,0.0,0.0,0.0,0.0,0.0,0.0,0.0,0
1704779924726739547,3009,0,,0,0,,0,0,0,0,0,0,36.90411108,118.16651484,25.44,0.0,1.385,0.0,0.06,0.06,91.58,194343.8,0.0,0.0,-0.049,1.384,0.0,0.0,0.0,0.0,0.0,0.0,0.0,0.0,0.0,0.0,0.0,0.0,0.0,0.0,0.0,0.0,0.0,0.0,0.0,0.0,0
1704779924826493489,3010,0,,0,0,,0,0,0,0,0,0,36.90411104,118.1665164,25.44,0.0,1.395,0.0,0.08,0.04,91.59,194343.9,0.0,0.0,-0.035,1.395,0.0,0.0,0.0,0.0,0.0,0.0,0.0,0.0,0.0,0.0,0.0,0.0,0.0,0.0,0.0,0.0,0.0,0.0,0.0,0.0,0
1704779924927260674,3011,0,,0,0,,0,0,0,0,0,0,36.904111,118.16651797,25.44,0.0,1.386,0.0,0.0,0.01,91.61,194344.0,0.0,0.0,-0.05,1.385,0.0,0.0,0.0,0.0,0.0,0.0,0.0,0.0,0.0,0.0,0.0,0.0,0.0,0.0,0.0,0.0,0.0,0.0,0.0,0.0,0
1704779925027022296,3012,0,,0,0,,0,0,0,0,0,0,36.90411096,118.16651954,25.44,0.0,1.388,0.0,0.06,-0.02,91.7,194344.1,0.0,0.0,-0.052,1.387,0.0,0.0,0.0,0.0,0.0,0.0,0.0,0.0,0.0,0.0,0.0,0.0,0.0,0.0,0.0,0.0,0.0,0.0,0.0,0.0,0
1704779925126399134,3013,0,,0,0,,0,0,0,0,0,0,36.90411092,118.16652109,25.44,0.0,1.37,0.0,0.07,0.0,92.05,194344.2,0.0,0.0,-0.058,1.369,0.0,0.0,0.0,0.0,0.0,0.0,0.0,0.0,0.0,0.0,0.0,0.0,0.0,0.0,0.0,0.0,0.0,0.0,0.0,0.0,0
1704779925226723949,3014,0,,0,0,,0,0,0,0,0,0,36.90411085,118.16652264,25.44,0.0,1.37,0.0,0.13,0.04,92.46,194344.3,0.0,0.0,-0.074,1.368,0.0,0.0,0.0,0.0,0.0,0.0,0.0,0.0,0.0,0.0,0.0,0.0,0.0,0.0,0.0,0.0,0.0,0.0,0.0,0.0,0
1704779925326922731,3015,0,,0,0,,0,0,0,0,0,0,36.90411079,118.16652417,25.44,0.0,1.363,0.0,0.2,0.06,92.83,194344.4,0.0,0.0,-0.08,1.36,0.0,0.0,0.0,0.0,0.0,0.0,0.0,0.0,0.0,0.0,0.0,0.0,0.0,0.0,0.0,0.0,0.0,0.0,0.0,0.0,0
1704779925427205086,3016,0,,0,0,,0,0,0,0,0,0,36.90411071,118.16652571,25.44,0.0,1.355,0.0,0.14,0.11,93.22,194344.5,0.0,0.0,-0.083,1.353,0.0,0.0,0.0,0.0,0.0,0.0,0.0,0.0,0.0,0.0,0.0,0.0,0.0,0.0,0.0,0.0,0.0,0.0,0.0,0.0,0
1704779925527284942,3017,0,,0,0,,0,0,0,0,0,0,36.90411064,118.16652722,25.44,0.0,1.348,0.0,0.23,0.09,93.45,194344.6,0.0,0.0,-0.079,1.345,0.0,0.0,0.0,0.0,0.0,0.0,0.0,0.0,0.0,0.0,0.0,0.0,0.0,0.0,0.0,0.0,0.0,0.0,0.0,0.0,0
1704779925626374607,3018,0,,0,0,,0,0,0,0,0,0,36.90411057,118.16652875,25.44,0.0,1.347,0.0,0.18,0.03,93.48,194344.7,0.0,0.0,-0.091,1.344,0.0,0.0,0.0,0.0,0.0,0.0,0.0,0.0,0.0,0.0,0.0,0.0,0.0,0.0,0.0,0.0,0.0,0.0,0.0,0.0,0
1704779925726606429,3019,0,,0,0,,0,0,0,0,0,0,36.90411049,118.16653022,25.44,0.0,1.295,0.0,0.13,0.1,93.57,194344.8,0.0,0.0,-0.096,1.291,0.0,0.0,0.0,0.0,0.0,0.0,0.0,0.0,0.0,0.0,0.0,0.0,0.0,0.0,0.0,0.0,0.0,0.0,0.0,0.0,0
1704779925826994458,3020,0,,0,0,,0,0,0,0,0,0,36.90411041,118.16653163,25.45,0.0,1.177,0.0,-0.06,0.15,93.62,194344.9,0.0,0.0,-0.084,1.174,0.0,0.0,0.0,0.0,0.0,0.0,0.0,0.0,0.0,0.0,0.0,0.0,0.0,0.0,0.0,0.0,0.0,0.0,0.0,0.0,0
1704779925926911796,3021,0,,0,0,,0,0,0,0,0,0,36.90411034,118.16653287,25.45,0.0,1.058,0.0,0.11,0.14,93.61,194345.0,0.0,0.0,-0.076,1.055,0.0,0.0,0.0,0.0,0.0,0.0,0.0,0.0,0.0,0.0,0.0,0.0,0.0,0.0,0.0,0.0,0.0,0.0,0.0,0.0,0
1704779926026252211,3022,0,,0,0,,0,0,0,0,0,0,36.90411028,118.16653404,25.45,0.0,1.027,0.0,0.04,0.19,93.66,194345.1,0.0,0.0,-0.077,1.024,0.0,0.0,0.0,0.0,0.0,0.0,0.0,0.0,0.0,0.0,0.0,0.0,0.0,0.0,0.0,0.0,0.0,0.0,0.0,0.0,0
1704779926126229899,3023,0,,0,0,,0,0,0,0,0,0,36.90411021,118.16653516,25.45,0.0,0.995,0.0,0.07,0.19,93.67,194345.2,0.0,0.0,-0.066,0.992,0.0,0.0,0.0,0.0,0.0,0.0,0.0,0.0,0.0,0.0,0.0,0.0,0.0,0.0,0.0,0.0,0.0,0.0,0.0,0.0,0
1704779926226034016,3024,0,,0,0,,0,0,0,0,0,0,36.90411016,118.1665363,25.45,0.0,1.021,0.0,0.05,0.15,93.69,194345.3,0.0,0.0,-0.066,1.019,0.0,0.0,0.0,0.0,0.0,0.0,0.0,0.0,0.0,0.0,0.0,0.0,0.0,0.0,0.0,0.0,0.0,0.0,0.0,0.0,0
1704779926326650970,3025,0,,0,0,,0,0,0,0,0,0,36.9041101,118.16653745,25.45,0.0,1.036,0.0,0.05,0.15,93.73,194345.4,0.0,0.0,-0.08,1.033,0.0,0.0,0.0,0.0,0.0,0.0,0.0,0.0,0.0,0.0,0.0,0.0,0.0,0.0,0.0,0.0,0.0,0.0,0.0,0.0,0
1704779926426792664,3026,0,,0,0,,0,0,0,0,0,0,36.90411004,118.16653863,25.45,0.0,1.06,0.0,0.01,0.16,93.75,194345.5,0.0,0.0,-0.072,1.058,0.0,0.0,0.0,0.0,0.0,0.0,0.0,0.0,0.0,0.0,0.0,0.0,0.0,0.0,0.0,0.0,0.0,0.0,0.0,0.0,0
1704779926526677032,3027,0,,0,0,,0,0,0,0,0,0,36.90410997,118.16653983,25.45,0.0,1.086,0.0,0.04,0.11,93.79,194345.6,0.0,0.0,-0.069,1.084,0.0,0.0,0.0,0.0,0.0,0.0,0.0,0.0,0.0,0.0,0.0,0.0,0.0,0.0,0.0,0.0,0.0,0.0,0.0,0.0,0
1704779926626704950,3028,0,,0,0,,0,0,0,0,0,0,36.90410991,118.16654108,25.45,0.0,1.137,0.0,0.02,0.08,93.82,194345.7,0.0,0.0,-0.083,1.134,0.0,0.0,0.0,0.0,0.0,0.0,0.0,0.0,0.0,0.0,0.0,0.0,0.0,0.0,0.0,0.0,0.0,0.0,0.0,0.0,0
1704779926726313262,3029,0,,0,0,,0,0,0,0,0,0,36.90410984,118.16654238,25.45,0.0,1.186,0.0,-0.1,0.12,93.84,194345.8,0.0,0.0,-0.1,1.182,0.0,0.0,0.0,0.0,0.0,0.0,0.0,0.0,0.0,0.0,0.0,0.0,0.0,0.0,0.0,0.0,0.0,0.0,0.0,0.0,0
1704779926826553364,3030,0,,0,0,,0,0,0,0,0,0,36.90410976,118.16654375,25.45,0.0,1.229,0.0,-0.11,0.14,93.85,194345.9,0.0,0.0,-0.082,1.226,0.0,0.0,0.0,0.0,0.0,0.0,0.0,0.0,0.0,0.0,0.0,0.0,0.0,0.0,0.0,0.0,0.0,0.0,0.0,0.0,0
1704779926926198122,3031,0,,0,0,,0,0,0,0,0,0,36.90410969,118.16654516,25.45,0.0,1.289,0.0,-0.13,0.08,93.88,194346.0,0.0,0.0,-0.089,1.286,0.0,0.0,0.0,0.0,0.0,0.0,0.0,0.0,0.0,0.0,0.0,0.0,0.0,0.0,0.0,0.0,0.0,0.0,0.0,0.0,0
1704779927026056369,3032,0,,0,0,,0,0,0,0,0,0,36.9041096,118.16654665,25.45,0.0,1.332,0.0,-0.2,0.15,93.9,194346.1,0.0,0.0,-0.122,1.326,0.0,0.0,0.0,0.0,0.0,0.0,0.0,0.0,0.0,0.0,0.0,0.0,0.0,0.0,0.0,0.0,0.0,0.0,0.0,0.0,0
1704779927125888107,3033,0,,0,0,,0,0,0,0,0,0,36.9041095,118.16654817,25.45,0.0,1.372,0.0,-0.28,0.24,93.94,194346.2,0.0,0.0,-0.102,1.368,0.0,0.0,0.0,0.0,0.0,0.0,0.0,0.0,0.0,0.0,0.0,0.0,0.0,0.0,0.0,0.0,0.0,0.0,0.0,0.0,0
1704779927226067861,3034,0,,0,0,,0,0,0,0,0,0,36.90410942,118.16654974,25.45,0.0,1.385,0.0,-0.27,0.19,93.98,194346.3,0.0,0.0,-0.093,1.382,0.0,0.0,0.0,0.0,0.0,0.0,0.0,0.0,0.0,0.0,0.0,0.0,0.0,0.0,0.0,0.0,0.0,0.0,0.0,0.0,0
1704779927325901157,3035,0,,0,0,,0,0,0,0,0,0,36.90410933,118.16655129,25.45,0.0,1.397,0.0,-0.28,0.21,94.0,194346.4,0.0,0.0,-0.119,1.392,0.0,0.0,0.0,0.0,0.0,0.0,0.0,0.0,0.0,0.0,0.0,0.0,0.0,0.0,0.0,0.0,0.0,0.0,0.0,0.0,0
1704779927426665582,3036,0,,0,0,,0,0,0,0,0,0,36.90410923,118.16655288,25.45,0.0,1.392,0.0,-0.17,0.3,94.03,194346.5,0.0,0.0,-0.116,1.387,0.0,0.0,0.0,0.0,0.0,0.0,0.0,0.0,0.0,0.0,0.0,0.0,0.0,0.0,0.0,0.0,0.0,0.0,0.0,0.0,0
1704779927526216946,3037,0,,0,0,,0,0,0,0,0,0,36.90410914,118.16655444,25.45,0.0,1.393,0.0,-0.18,0.31,94.08,194346.6,0.0,0.0,-0.1,1.39,0.0,0.0,0.0,0.0,0.0,0.0,0.0,0.0,0.0,0.0,0.0,0.0,0.0,0.0,0.0,0.0,0.0,0.0,0.0,0.0,0
1704779927626143814,3038,0,,0,0,,0,0,0,0,0,0,36.90410905,118.16655602,25.45,0.0,1.379,0.0,-0.08,0.27,94.13,194346.7,0.0,0.0,-0.104,1.375,0.0,0.0,0.0,0.0,0.0,0.0,0.0,0.0,0.0,0.0,0.0,0.0,0.0,0.0,0.0,0.0,0.0,0.0,0.0,0.0,0
1704779927726109760,3039,0,,0,0,,0,0,0,0,0,0,36.90410896,118.16655755,25.45,0.0,1.368,0.0,-0.04,0.27,94.16,194346.8,0.0,0.0,-0.11,1.363,0.0,0.0,0.0,0.0,0.0,0.0,0.0,0.0,0.0,0.0,0.0,0.0,0.0,0.0,0.0,0.0,0.0,0.0,0.0,0.0,0
1704779927827026889,3040,0,,0,0,,0,0,0,0,0,0,36.90410886,118.1665591,25.45,0.0,1.363,0.0,-0.01,0.3,94.19,194346.9,0.0,0.0,-0.109,1.358,0.0,0.0,0.0,0.0,0.0,0.0,0.0,0.0,0.0,0.0,0.0,0.0,0.0,0.0,0.0,0.0,0.0,0.0,0.0,0.0,0
1704779927926404090,3041,0,,0,0,,0,0,0,0,0,0,36.90410877,118.16656062,25.45,0.0,1.353,0.0,-0.04,0.3,94.18,194347.0,0.0,0.0,-0.098,1.35,0.0,0.0,0.0,0.0,0.0,0.0,0.0,0.0,0.0,0.0,0.0,0.0,0.0,0.0,0.0,0.0,0.0,0.0,0.0,0.0,0
1704779928025498479,3042,0,,0,0,,0,0,0,0,0,0,36.90410868,118.16656216,25.45,0.0,1.352,0.0,-0.03,0.25,94.01,194347.1,0.0,0.0,-0.104,1.347,0.0,0.0,0.0,0.0,0.0,0.0,0.0,0.0,0.0,0.0,0.0,0.0,0.0,0.0,0.0,0.0,0.0,0.0,0.0,0.0,0
1704779928125679590,3043,0,,0,0,,0,0,0,0,0,0,36.90410859,118.16656366,25.45,0.0,1.338,0.0,-0.05,0.34,93.8,194347.2,0.0,0.0,-0.114,1.333,0.0,0.0,0.0,0.0,0.0,0.0,0.0,0.0,0.0,0.0,0.0,0.0,0.0,0.0,0.0,0.0,0.0,0.0,0.0,0.0,0
1704779928225884258,3044,0,,0,0,,0,0,0,0,0,0,36.9041085,118.16656518,25.46,0.0,1.342,0.0,-0.04,0.39,93.61,194347.3,0.0,0.0,-0.087,1.339,0.0,0.0,0.0,0.0,0.0,0.0,0.0,0.0,0.0,0.0,0.0,0.0,0.0,0.0,0.0,0.0,0.0,0.0,0.0,0.0,0
1704779928326079760,3045,0,,0,0,,0,0,0,0,0,0,36.90410843,118.16656668,25.46,0.0,1.336,0.0,-0.05,0.34,93.38,194347.4,0.0,0.0,-0.083,1.334,0.0,0.0,0.0,0.0,0.0,0.0,0.0,0.0,0.0,0.0,0.0,0.0,0.0,0.0,0.0,0.0,0.0,0.0,0.0,0.0,0
1704779928426226926,3046,0,,0,0,,0,0,0,0,0,0,36.90410836,118.16656821,25.46,0.0,1.344,0.0,-0.05,0.37,93.21,194347.5,0.0,0.0,-0.097,1.34,0.0,0.0,0.0,0.0,0.0,0.0,0.0,0.0,0.0,0.0,0.0,0.0,0.0,0.0,0.0,0.0,0.0,0.0,0.0,0.0,0
1704779928526401797,3047,0,,0,0,,0,0,0,0,0,0,36.90410828,118.1665697,25.46,0.0,1.336,0.0,-0.02,0.45,93.16,194347.6,0.0,0.0,-0.086,1.333,0.0,0.0,0.0,0.0,0.0,0.0,0.0,0.0,0.0,0.0,0.0,0.0,0.0,0.0,0.0,0.0,0.0,0.0,0.0,0.0,0
1704779928625176009,3048,0,,0,0,,0,0,0,0,0,0,36.90410821,118.16657124,25.46,0.0,1.346,0.0,-0.01,0.41,93.09,194347.7,0.0,0.0,-0.065,1.345,0.0,0.0,0.0,0.0,0.0,0.0,0.0,0.0,0.0,0.0,0.0,0.0,0.0,0.0,0.0,0.0,0.0,0.0,0.0,0.0,0
1704779928725625243,3049,0,,0,0,,0,0,0,0,0,0,36.90410815,118.16657274,25.46,0.0,1.348,0.0,0.02,0.33,93.07,194347.8,0.0,0.0,-0.073,1.346,0.0,0.0,0.0,0.0,0.0,0.0,0.0,0.0,0.0,0.0,0.0,0.0,0.0,0.0,0.0,0.0,0.0,0.0,0.0,0.0,0
1704779928825648388,3050,0,,0,0,,0,0,0,0,0,0,36.90410808,118.16657428,25.46,0.0,1.351,0.0,-0.03,0.37,93.04,194347.9,0.0,0.0,-0.093,1.348,0.0,0.0,0.0,0.0,0.0,0.0,0.0,0.0,0.0,0.0,0.0,0.0,0.0,0.0,0.0,0.0,0.0,0.0,0.0,0.0,0
1704779928925834865,3051,0,,0,0,,0,0,0,0,0,0,36.904108,118.1665758,25.46,0.0,1.351,0.0,-0.07,0.43,93.01,194348.0,0.0,0.0,-0.077,1.349,0.0,0.0,0.0,0.0,0.0,0.0,0.0,0.0,0.0,0.0,0.0,0.0,0.0,0.0,0.0,0.0,0.0,0.0,0.0,0.0,0
1704779929025207963,3052,0,,0,0,,0,0,0,0,0,0,36.90410794,118.16657734,25.46,0.0,1.343,0.0,-0.06,0.4,92.99,194348.1,0.0,0.0,-0.063,1.342,0.0,0.0,0.0,0.0,0.0,0.0,0.0,0.0,0.0,0.0,0.0,0.0,0.0,0.0,0.0,0.0,0.0,0.0,0.0,0.0,0
1704779929125424674,3053,0,,0,0,,0,0,0,0,0,0,36.90410788,118.16657885,25.46,0.0,1.347,0.0,-0.11,0.32,92.95,194348.2,0.0,0.0,-0.075,1.345,0.0,0.0,0.0,0.0,0.0,0.0,0.0,0.0,0.0,0.0,0.0,0.0,0.0,0.0,0.0,0.0,0.0,0.0,0.0,0.0,0
1704779929225245155,3054,0,,0,0,,0,0,0,0,0,0,36.90410781,118.16658037,25.46,0.0,1.338,0.0,-0.13,0.4,92.96,194348.3,0.0,0.0,-0.093,1.335,0.0,0.0,0.0,0.0,0.0,0.0,0.0,0.0,0.0,0.0,0.0,0.0,0.0,0.0,0.0,0.0,0.0,0.0,0.0,0.0,0
1704779929325565002,3055,0,,0,0,,0,0,0,0,0,0,36.90410774,118.16658187,25.46,0.0,1.337,0.0,-0.15,0.45,92.95,194348.4,0.0,0.0,-0.073,1.335,0.0,0.0,0.0,0.0,0.0,0.0,0.0,0.0,0.0,0.0,0.0,0.0,0.0,0.0,0.0,0.0,0.0,0.0,0.0,0.0,0
1704779929424854626,3056,0,,0,0,,0,0,0,0,0,0,36.90410768,118.16658342,25.46,0.0,1.34,0.0,-0.12,0.43,92.95,194348.5,0.0,0.0,-0.078,1.338,0.0,0.0,0.0,0.0,0.0,0.0,0.0,0.0,0.0,0.0,0.0,0.0,0.0,0.0,0.0,0.0,0.0,0.0,0.0,0.0,0
1704779929524512094,3057,0,,0,0,,0,0,0,0,0,0,36.9041076,118.16658491,25.46,0.0,1.338,0.0,-0.08,0.49,92.93,194348.6,0.0,0.0,-0.088,1.335,0.0,0.0,0.0,0.0,0.0,0.0,0.0,0.0,0.0,0.0,0.0,0.0,0.0,0.0,0.0,0.0,0.0,0.0,0.0,0.0,0
1704779929625513244,3058,0,,0,0,,0,0,0,0,0,0,36.90410754,118.16658645,25.46,0.0,1.343,0.0,-0.04,0.49,92.9,194348.7,0.0,0.0,-0.071,1.341,0.0,0.0,0.0,0.0,0.0,0.0,0.0,0.0,0.0,0.0,0.0,0.0,0.0,0.0,0.0,0.0,0.0,0.0,0.0,0.0,0
1704779929725250166,3059,0,,0,0,,0,0,0,0,0,0,36.90410748,118.16658796,25.46,0.0,1.345,0.0,-0.05,0.46,92.92,194348.8,0.0,0.0,-0.069,1.343,0.0,0.0,0.0,0.0,0.0,0.0,0.0,0.0,0.0,0.0,0.0,0.0,0.0,0.0,0.0,0.0,0.0,0.0,0.0,0.0,0
1704779929825728915,3060,0,,0,0,,0,0,0,0,0,0,36.90410741,118.16658951,25.46,0.0,1.354,0.0,-0.08,0.43,92.94,194348.9,0.0,0.0,-0.078,1.352,0.0,0.0,0.0,0.0,0.0,0.0,0.0,0.0,0.0,0.0,0.0,0.0,0.0,0.0,0.0,0.0,0.0,0.0,0.0,0.0,0
1704779929925375585,3061,0,,0,0,,0,0,0,0,0,0,36.90410734,118.16659103,25.46,0.0,1.348,0.0,-0.12,0.46,92.93,194349.0,0.0,0.0,-0.09,1.345,0.0,0.0,0.0,0.0,0.0,0.0,0.0,0.0,0.0,0.0,0.0,0.0,0.0,0.0,0.0,0.0,0.0,0.0,0.0,0.0,0
1704779930025176388,3062,0,,0,0,,0,0,0,0,0,0,36.90410726,118.16659257,25.46,0.0,1.35,0.0,-0.15,0.53,92.93,194349.1,0.0,0.0,-0.077,1.348,0.0,0.0,0.0,0.0,0.0,0.0,0.0,0.0,0.0,0.0,0.0,0.0,0.0,0.0,0.0,0.0,0.0,0.0,0.0,0.0,0
1704779930125068849,3063,0,,0,0,,0,0,0,0,0,0,36.90410721,118.16659408,25.46,0.0,1.34,0.0,-0.11,0.43,92.92,194349.2,0.0,0.0,-0.052,1.339,0.0,0.0,0.0,0.0,0.0,0.0,0.0,0.0,0.0,0.0,0.0,0.0,0.0,0.0,0.0,0.0,0.0,0.0,0.0,0.0,0
1704779930225297185,3064,0,,0,0,,0,0,0,0,0,0,36.90410715,118.16659562,25.46,0.0,1.347,0.0,-0.18,0.33,92.91,194349.3,0.0,0.0,-0.071,1.346,0.0,0.0,0.0,0.0,0.0,0.0,0.0,0.0,0.0,0.0,0.0,0.0,0.0,0.0,0.0,0.0,0.0,0.0,0.0,0.0,0
1704779930325079031,3065,0,,0,0,,0,0,0,0,0,0,36.90410708,118.16659712,25.46,0.0,1.331,0.0,-0.19,0.4,92.89,194349.4,0.0,0.0,-0.095,1.327,0.0,0.0,0.0,0.0,0.0,0.0,0.0,0.0,0.0,0.0,0.0,0.0,0.0,0.0,0.0,0.0,0.0,0.0,0.0,0.0,0
1704779930424956999,3066,0,,0,0,,0,0,0,0,0,0,36.90410701,118.16659864,25.46,0.0,1.328,0.0,-0.12,0.43,92.88,194349.5,0.0,0.0,-0.063,1.326,0.0,0.0,0.0,0.0,0.0,0.0,0.0,0.0,0.0,0.0,0.0,0.0,0.0,0.0,0.0,0.0,0.0,0.0,0.0,0.0,0
1704779930524751064,3067,0,,0,0,,0,0,0,0,0,0,36.90410695,118.16660012,25.46,0.0,1.324,0.0,0.01,0.38,92.89,194349.6,0.0,0.0,-0.072,1.322,0.0,0.0,0.0,0.0,0.0,0.0,0.0,0.0,0.0,0.0,0.0,0.0,0.0,0.0,0.0,0.0,0.0,0.0,0.0,0.0,0
1704779930624593184,3068,0,,0,0,,0,0,0,0,0,0,36.90410688,118.16660166,25.46,0.0,1.342,0.0,0.0,0.47,92.86,194349.7,0.0,0.0,-0.096,1.338,0.0,0.0,0.0,0.0,0.0,0.0,0.0,0.0,0.0,0.0,0.0,0.0,0.0,0.0,0.0,0.0,0.0,0.0,0.0,0.0,0
1704779930725241458,3069,0,,0,0,,0,0,0,0,0,0,36.90410681,118.16660316,25.47,0.0,1.337,0.0,0.03,0.53,92.84,194349.8,0.0,0.0,-0.067,1.335,0.0,0.0,0.0,0.0,0.0,0.0,0.0,0.0,0.0,0.0,0.0,0.0,0.0,0.0,0.0,0.0,0.0,0.0,0.0,0.0,0
1704779930825331563,3070,0,,0,0,,0,0,0,0,0,0,36.90410675,118.16660469,25.47,0.0,1.338,0.0,0.05,0.48,92.85,194349.9,0.0,0.0,-0.065,1.336,0.0,0.0,0.0,0.0,0.0,0.0,0.0,0.0,0.0,0.0,0.0,0.0,0.0,0.0,0.0,0.0,0.0,0.0,0.0,0.0,0
1704779930925127269,3071,0,,0,0,,0,0,0,0,0,0,36.90410669,118.16660619,25.47,0.0,1.343,0.0,0.12,0.48,92.88,194350.0,0.0,0.0,-0.079,1.34,0.0,0.0,0.0,0.0,0.0,0.0,0.0,0.0,0.0,0.0,0.0,0.0,0.0,0.0,0.0,0.0,0.0,0.0,0.0,0.0,0
1704779931024516608,3072,0,,0,0,,0,0,0,0,0,0,36.90410661,118.16660773,25.47,0.0,1.344,0.0,0.08,0.48,92.88,194350.1,0.0,0.0,-0.069,1.342,0.0,0.0,0.0,0.0,0.0,0.0,0.0,0.0,0.0,0.0,0.0,0.0,0.0,0.0,0.0,0.0,0.0,0.0,0.0,0.0,0
1704779931124391495,3073,0,,0,0,,0,0,0,0,0,0,36.90410655,118.16660924,25.47,0.0,1.341,0.0,0.08,0.46,92.9,194350.2,0.0,0.0,-0.069,1.34,0.0,0.0,0.0,0.0,0.0,0.0,0.0,0.0,0.0,0.0,0.0,0.0,0.0,0.0,0.0,0.0,0.0,0.0,0.0,0.0,0
1704779931225299959,3074,0,,0,0,,0,0,0,0,0,0,36.90410648,118.16661078,25.47,0.0,1.339,0.0,0.05,0.47,92.91,194350.3,0.0,0.0,-0.076,1.337,0.0,0.0,0.0,0.0,0.0,0.0,0.0,0.0,0.0,0.0,0.0,0.0,0.0,0.0,0.0,0.0,0.0,0.0,0.0,0.0,0
1704779931324980976,3075,0,,0,0,,0,0,0,0,0,0,36.90410642,118.16661228,25.47,0.0,1.34,0.0,0.09,0.42,92.91,194350.4,0.0,0.0,-0.064,1.339,0.0,0.0,0.0,0.0,0.0,0.0,0.0,0.0,0.0,0.0,0.0,0.0,0.0,0.0,0.0,0.0,0.0,0.0,0.0,0.0,0
1704779931423905302,3076,0,,0,0,,0,0,0,0,0,0,36.90410635,118.16661381,25.47,0.0,1.341,0.0,0.04,0.45,92.9,194350.5,0.0,0.0,-0.09,1.338,0.0,0.0,0.0,0.0,0.0,0.0,0.0,0.0,0.0,0.0,0.0,0.0,0.0,0.0,0.0,0.0,0.0,0.0,0.0,0.0,0
1704779931524748206,3077,0,,0,0,,0,0,0,0,0,0,36.90410628,118.16661532,25.47,0.0,1.344,0.0,-0.03,0.54,92.9,194350.6,0.0,0.0,-0.084,1.341,0.0,0.0,0.0,0.0,0.0,0.0,0.0,0.0,0.0,0.0,0.0,0.0,0.0,0.0,0.0,0.0,0.0,0.0,0.0,0.0,0
1704779931624765615,3078,0,,0,0,,0,0,0,0,0,0,36.90410622,118.16661686,25.47,0.0,1.343,0.0,-0.04,0.53,92.89,194350.7,0.0,0.0,-0.068,1.342,0.0,0.0,0.0,0.0,0.0,0.0,0.0,0.0,0.0,0.0,0.0,0.0,0.0,0.0,0.0,0.0,0.0,0.0,0.0,0.0,0
1704779931724392088,3079,0,,0,0,,0,0,0,0,0,0,36.90410615,118.16661836,25.47,0.0,1.345,0.0,-0.05,0.55,92.87,194350.8,0.0,0.0,-0.09,1.342,0.0,0.0,0.0,0.0,0.0,0.0,0.0,0.0,0.0,0.0,0.0,0.0,0.0,0.0,0.0,0.0,0.0,0.0,0.0,0.0,0
1704779931825390502,3080,0,,0,0,,0,0,0,0,0,0,36.90410608,118.16661991,25.47,0.0,1.347,0.0,-0.1,0.63,92.84,194350.9,0.0,0.0,-0.081,1.344,0.0,0.0,0.0,0.0,0.0,0.0,0.0,0.0,0.0,0.0,0.0,0.0,0.0,0.0,0.0,0.0,0.0,0.0,0.0,0.0,0
1704779931925246206,3081,0,,0,0,,0,0,0,0,0,0,36.90410602,118.16662142,25.48,0.0,1.351,0.0,-0.1,0.62,92.84,194351.0,0.0,0.0,-0.064,1.35,0.0,0.0,0.0,0.0,0.0,0.0,0.0,0.0,0.0,0.0,0.0,0.0,0.0,0.0,0.0,0.0,0.0,0.0,0.0,0.0,0
1704779932024380266,3082,0,,0,0,,0,0,0,0,0,0,36.90410596,118.16662297,25.48,0.0,1.349,0.0,-0.13,0.6,92.86,194351.1,0.0,0.0,-0.072,1.347,0.0,0.0,0.0,0.0,0.0,0.0,0.0,0.0,0.0,0.0,0.0,0.0,0.0,0.0,0.0,0.0,0.0,0.0,0.0,0.0,0
1704779932124481523,3083,0,,0,0,,0,0,0,0,0,0,36.9041059,118.16662448,25.48,0.0,1.357,0.0,-0.16,0.59,92.86,194351.2,0.0,0.0,-0.068,1.356,0.0,0.0,0.0,0.0,0.0,0.0,0.0,0.0,0.0,0.0,0.0,0.0,0.0,0.0,0.0,0.0,0.0,0.0,0.0,0.0,0
1704779932224153782,3084,0,,0,0,,0,0,0,0,0,0,36.90410584,118.16662604,25.48,0.0,1.358,0.0,-0.21,0.54,92.86,194351.3,0.0,0.0,-0.065,1.356,0.0,0.0,0.0,0.0,0.0,0.0,0.0,0.0,0.0,0.0,0.0,0.0,0.0,0.0,0.0,0.0,0.0,0.0,0.0,0.0,0
1704779932325122632,3085,0,,0,0,,0,0,0,0,0,0,36.90410578,118.16662755,25.48,0.0,1.349,0.0,-0.22,0.49,92.84,194351.4,0.0,0.0,-0.07,1.347,0.0,0.0,0.0,0.0,0.0,0.0,0.0,0.0,0.0,0.0,0.0,0.0,0.0,0.0,0.0,0.0,0.0,0.0,0.0,0.0,0
1704779932423956047,3086,0,,0,0,,0,0,0,0,0,0,36.90410572,118.1666291,25.48,0.0,1.347,0.0,-0.22,0.46,92.82,194351.5,0.0,0.0,-0.07,1.345,0.0,0.0,0.0,0.0,0.0,0.0,0.0,0.0,0.0,0.0,0.0,0.0,0.0,0.0,0.0,0.0,0.0,0.0,0.0,0.0,0
1704779932523782602,3087,0,,0,0,,0,0,0,0,0,0,36.90410565,118.1666306,25.48,0.0,1.333,0.0,-0.24,0.49,92.8,194351.6,0.0,0.0,-0.08,1.331,0.0,0.0,0.0,0.0,0.0,0.0,0.0,0.0,0.0,0.0,0.0,0.0,0.0,0.0,0.0,0.0,0.0,0.0,0.0,0.0,0
1704779932624615146,3088,0,,0,0,,0,0,0,0,0,0,36.90410559,118.16663212,25.48,0.0,1.333,0.0,-0.19,0.54,92.77,194351.7,0.0,0.0,-0.074,1.331,0.0,0.0,0.0,0.0,0.0,0.0,0.0,0.0,0.0,0.0,0.0,0.0,0.0,0.0,0.0,0.0,0.0,0.0,0.0,0.0,0
1704779932724496662,3089,0,,0,0,,0,0,0,0,0,0,36.90410553,118.16663362,25.48,0.0,1.331,0.0,-0.17,0.53,92.74,194351.8,0.0,0.0,-0.067,1.329,0.0,0.0,0.0,0.0,0.0,0.0,0.0,0.0,0.0,0.0,0.0,0.0,0.0,0.0,0.0,0.0,0.0,0.0,0.0,0.0,0
1704779932824705084,3090,0,,0,0,,0,0,0,0,0,0,36.90410546,118.16663513,25.48,0.0,1.335,0.0,-0.08,0.52,92.71,194351.9,0.0,0.0,-0.073,1.333,0.0,0.0,0.0,0.0,0.0,0.0,0.0,0.0,0.0,0.0,0.0,0.0,0.0,0.0,0.0,0.0,0.0,0.0,0.0,0.0,0
1704779932926633169,3091,0,,0,0,,0,0,0,0,0,0,36.9041054,118.16663663,25.48,0.0,1.339,0.0,-0.05,0.52,92.69,194352.0,0.0,0.0,-0.067,1.337,0.0,0.0,0.0,0.0,0.0,0.0,0.0,0.0,0.0,0.0,0.0,0.0,0.0,0.0,0.0,0.0,0.0,0.0,0.0,0.0,0
1704779933023933528,3092,0,,0,0,,0,0,0,0,0,0,36.90410534,118.16663817,25.48,0.0,1.34,0.0,-0.01,0.5,92.66,194352.1,0.0,0.0,-0.071,1.338,0.0,0.0,0.0,0.0,0.0,0.0,0.0,0.0,0.0,0.0,0.0,0.0,0.0,0.0,0.0,0.0,0.0,0.0,0.0,0.0,0
1704779933124734937,3093,0,,0,0,,0,0,0,0,0,0,36.90410528,118.16663967,25.48,0.0,1.345,0.0,-0.02,0.49,92.66,194352.2,0.0,0.0,-0.066,1.344,0.0,0.0,0.0,0.0,0.0,0.0,0.0,0.0,0.0,0.0,0.0,0.0,0.0,0.0,0.0,0.0,0.0,0.0,0.0,0.0,0
1704779933223790834,3094,0,,0,0,,0,0,0,0,0,0,36.90410522,118.16664121,25.48,0.0,1.347,0.0,-0.04,0.46,92.66,194352.3,0.0,0.0,-0.063,1.345,0.0,0.0,0.0,0.0,0.0,0.0,0.0,0.0,0.0,0.0,0.0,0.0,0.0,0.0,0.0,0.0,0.0,0.0,0.0,0.0,0
1704779933323525579,3095,0,,0,0,,0,0,0,0,0,0,36.90410517,118.16664271,25.48,0.0,1.345,0.0,-0.06,0.41,92.65,194352.4,0.0,0.0,-0.065,1.343,0.0,0.0,0.0,0.0,0.0,0.0,0.0,0.0,0.0,0.0,0.0,0.0,0.0,0.0,0.0,0.0,0.0,0.0,0.0,0.0,0
1704779933423740733,3096,0,,0,0,,0,0,0,0,0,0,36.90410511,118.16664425,25.48,0.0,1.344,0.0,-0.07,0.4,92.63,194352.5,0.0,0.0,-0.065,1.342,0.0,0.0,0.0,0.0,0.0,0.0,0.0,0.0,0.0,0.0,0.0,0.0,0.0,0.0,0.0,0.0,0.0,0.0,0.0,0.0,0
1704779933523832089,3097,0,,0,0,,0,0,0,0,0,0,36.90410506,118.16664575,25.48,0.0,1.334,0.0,-0.02,0.34,92.61,194352.6,0.0,0.0,-0.06,1.332,0.0,0.0,0.0,0.0,0.0,0.0,0.0,0.0,0.0,0.0,0.0,0.0,0.0,0.0,0.0,0.0,0.0,0.0,0.0,0.0,0
1704779933624527686,3098,0,,0,0,,0,0,0,0,0,0,36.904105,118.16664727,25.48,0.0,1.334,0.0,-0.01,0.37,92.58,194352.7,0.0,0.0,-0.081,1.332,0.0,0.0,0.0,0.0,0.0,0.0,0.0,0.0,0.0,0.0,0.0,0.0,0.0,0.0,0.0,0.0,0.0,0.0,0.0,0.0,0
1704779933724328189,3099,0,,0,0,,0,0,0,0,0,0,36.90410493,118.16664876,25.48,0.0,1.334,0.0,-0.0,0.44,92.56,194352.8,0.0,0.0,-0.064,1.333,0.0,0.0,0.0,0.0,0.0,0.0,0.0,0.0,0.0,0.0,0.0,0.0,0.0,0.0,0.0,0.0,0.0,0.0,0.0,0.0,0
1704779933823835185,3100,0,,0,0,,0,0,0,0,0,0,36.90410488,118.16665029,25.48,0.0,1.332,0.0,0.01,0.4,92.56,194352.9,0.0,0.0,-0.058,1.33,0.0,0.0,0.0,0.0,0.0,0.0,0.0,0.0,0.0,0.0,0.0,0.0,0.0,0.0,0.0,0.0,0.0,0.0,0.0,0.0,0
1704779933923806229,3101,0,,0,0,,0,0,0,0,0,0,36.90410482,118.16665178,25.48,0.0,1.343,0.0,0.05,0.43,92.53,194353.0,0.0,0.0,-0.077,1.34,0.0,0.0,0.0,0.0,0.0,0.0,0.0,0.0,0.0,0.0,0.0,0.0,0.0,0.0,0.0,0.0,0.0,0.0,0.0,0.0,0
1704779934023940992,3102,0,,0,0,,0,0,0,0,0,0,36.90410477,118.16665332,25.49,0.0,1.345,0.0,0.04,0.46,92.51,194353.1,0.0,0.0,-0.061,1.344,0.0,0.0,0.0,0.0,0.0,0.0,0.0,0.0,0.0,0.0,0.0,0.0,0.0,0.0,0.0,0.0,0.0,0.0,0.0,0.0,0
1704779934123655785,3103,0,,0,0,,0,0,0,0,0,0,36.90410472,118.16665483,25.49,0.0,1.346,0.0,0.06,0.39,92.5,194353.2,0.0,0.0,-0.054,1.344,0.0,0.0,0.0,0.0,0.0,0.0,0.0,0.0,0.0,0.0,0.0,0.0,0.0,0.0,0.0,0.0,0.0,0.0,0.0,0.0,0
1704779934223539011,3104,0,,0,0,,0,0,0,0,0,0,36.90410466,118.16665637,25.49,0.0,1.35,0.0,0.04,0.39,92.49,194353.3,0.0,0.0,-0.074,1.348,0.0,0.0,0.0,0.0,0.0,0.0,0.0,0.0,0.0,0.0,0.0,0.0,0.0,0.0,0.0,0.0,0.0,0.0,0.0,0.0,0
1704779934323174867,3105,0,,0,0,,0,0,0,0,0,0,36.9041046,118.16665788,25.49,0.0,1.349,0.0,0.01,0.43,92.49,194353.4,0.0,0.0,-0.066,1.347,0.0,0.0,0.0,0.0,0.0,0.0,0.0,0.0,0.0,0.0,0.0,0.0,0.0,0.0,0.0,0.0,0.0,0.0,0.0,0.0,0
1704779934423935579,3106,0,,0,0,,0,0,0,0,0,0,36.90410455,118.16665943,25.49,0.0,1.349,0.0,0.02,0.38,92.49,194353.5,0.0,0.0,-0.05,1.348,0.0,0.0,0.0,0.0,0.0,0.0,0.0,0.0,0.0,0.0,0.0,0.0,0.0,0.0,0.0,0.0,0.0,0.0,0.0,0.0,0
1704779934523160932,3107,0,,0,0,,0,0,0,0,0,0,36.9041045,118.16666094,25.49,0.0,1.343,0.0,0.01,0.35,92.47,194353.6,0.0,0.0,-0.07,1.341,0.0,0.0,0.0,0.0,0.0,0.0,0.0,0.0,0.0,0.0,0.0,0.0,0.0,0.0,0.0,0.0,0.0,0.0,0.0,0.0,0
1704779934624380594,3108,0,,0,0,,0,0,0,0,0,0,36.90410445,118.16666248,25.49,0.0,1.346,0.0,0.01,0.36,92.45,194353.7,0.0,0.0,-0.066,1.344,0.0,0.0,0.0,0.0,0.0,0.0,0.0,0.0,0.0,0.0,0.0,0.0,0.0,0.0,0.0,0.0,0.0,0.0,0.0,0.0,0
1704779934724174369,3109,0,,0,0,,0,0,0,0,0,0,36.90410439,118.16666399,25.49,0.0,1.347,0.0,-0.02,0.35,92.43,194353.8,0.0,0.0,-0.058,1.346,0.0,0.0,0.0,0.0,0.0,0.0,0.0,0.0,0.0,0.0,0.0,0.0,0.0,0.0,0.0,0.0,0.0,0.0,0.0,0.0,0
1704779934823155619,3110,0,,0,0,,0,0,0,0,0,0,36.90410434,118.16666552,25.49,0.0,1.344,0.0,-0.05,0.34,92.41,194353.9,0.0,0.0,-0.063,1.343,0.0,0.0,0.0,0.0,0.0,0.0,0.0,0.0,0.0,0.0,0.0,0.0,0.0,0.0,0.0,0.0,0.0,0.0,0.0,0.0,0
1704779934923354671,3111,0,,0,0,,0,0,0,0,0,0,36.90410428,118.16666703,25.49,0.0,1.339,0.0,-0.06,0.39,92.41,194354.0,0.0,0.0,-0.072,1.337,0.0,0.0,0.0,0.0,0.0,0.0,0.0,0.0,0.0,0.0,0.0,0.0,0.0,0.0,0.0,0.0,0.0,0.0,0.0,0.0,0
1704779935023149454,3112,0,,0,0,,0,0,0,0,0,0,36.90410422,118.16666857,25.49,0.0,1.35,0.0,-0.06,0.43,92.38,194354.1,0.0,0.0,-0.066,1.348,0.0,0.0,0.0,0.0,0.0,0.0,0.0,0.0,0.0,0.0,0.0,0.0,0.0,0.0,0.0,0.0,0.0,0.0,0.0,0.0,0
1704779935123818652,3113,0,,0,0,,0,0,0,0,0,0,36.90410417,118.16667008,25.49,0.0,1.35,0.0,-0.08,0.41,92.37,194354.2,0.0,0.0,-0.054,1.349,0.0,0.0,0.0,0.0,0.0,0.0,0.0,0.0,0.0,0.0,0.0,0.0,0.0,0.0,0.0,0.0,0.0,0.0,0.0,0.0,0
1704779935222896807,3114,0,,0,0,,0,0,0,0,0,0,36.90410411,118.16667162,25.49,0.0,1.351,0.0,-0.11,0.4,92.35,194354.3,0.0,0.0,-0.07,1.349,0.0,0.0,0.0,0.0,0.0,0.0,0.0,0.0,0.0,0.0,0.0,0.0,0.0,0.0,0.0,0.0,0.0,0.0,0.0,0.0,0
1704779935322566578,3115,0,,0,0,,0,0,0,0,0,0,36.90410406,118.16667313,25.49,0.0,1.354,0.0,-0.09,0.42,92.34,194354.4,0.0,0.0,-0.061,1.353,0.0,0.0,0.0,0.0,0.0,0.0,0.0,0.0,0.0,0.0,0.0,0.0,0.0,0.0,0.0,0.0,0.0,0.0,0.0,0.0,0
1704779935423614762,3116,0,,0,0,,0,0,0,0,0,0,36.90410401,118.16667468,25.49,0.0,1.36,0.0,-0.13,0.37,92.34,194354.5,0.0,0.0,-0.052,1.359,0.0,0.0,0.0,0.0,0.0,0.0,0.0,0.0,0.0,0.0,0.0,0.0,0.0,0.0,0.0,0.0,0.0,0.0,0.0,0.0,0
1704779935523462129,3117,0,,0,0,,0,0,0,0,0,0,36.90410396,118.1666762,25.49,0.0,1.354,0.0,-0.12,0.34,92.33,194354.6,0.0,0.0,-0.067,1.352,0.0,0.0,0.0,0.0,0.0,0.0,0.0,0.0,0.0,0.0,0.0,0.0,0.0,0.0,0.0,0.0,0.0,0.0,0.0,0.0,0
1704779935623885980,3118,0,,0,0,,0,0,0,0,0,0,36.90410389,118.16667774,25.5,0.0,1.348,0.0,-0.16,0.41,92.32,194354.7,0.0,0.0,-0.072,1.346,0.0,0.0,0.0,0.0,0.0,0.0,0.0,0.0,0.0,0.0,0.0,0.0,0.0,0.0,0.0,0.0,0.0,0.0,0.0,0.0,0
1704779935723602597,3119,0,,0,0,,0,0,0,0,0,0,36.90410384,118.16667925,25.5,0.0,1.341,0.0,-0.1,0.37,92.3,194354.8,0.0,0.0,-0.047,1.34,0.0,0.0,0.0,0.0,0.0,0.0,0.0,0.0,0.0,0.0,0.0,0.0,0.0,0.0,0.0,0.0,0.0,0.0,0.0,0.0,0
1704779935822793784,3120,0,,0,0,,0,0,0,0,0,0,36.90410379,118.16668077,25.5,0.0,1.339,0.0,-0.11,0.32,92.27,194354.9,0.0,0.0,-0.063,1.337,0.0,0.0,0.0,0.0,0.0,0.0,0.0,0.0,0.0,0.0,0.0,0.0,0.0,0.0,0.0,0.0,0.0,0.0,0.0,0.0,0
1704779935922604521,3121,0,,0,0,,0,0,0,0,0,0,36.90410374,118.16668227,25.5,0.0,1.339,0.0,-0.08,0.37,92.26,194355.0,0.0,0.0,-0.072,1.337,0.0,0.0,0.0,0.0,0.0,0.0,0.0,0.0,0.0,0.0,0.0,0.0,0.0,0.0,0.0,0.0,0.0,0.0,0.0,0.0,0
1704779936023663867,3122,0,,0,0,,0,0,0,0,0,0,36.90410369,118.1666838,25.5,0.0,1.338,0.0,-0.1,0.37,92.24,194355.1,0.0,0.0,-0.05,1.337,0.0,0.0,0.0,0.0,0.0,0.0,0.0,0.0,0.0,0.0,0.0,0.0,0.0,0.0,0.0,0.0,0.0,0.0,0.0,0.0,0
1704779936123547714,3123,0,,0,0,,0,0,0,0,0,0,36.90410364,118.16668529,25.5,0.0,1.338,0.0,0.0,0.33,92.22,194355.2,0.0,0.0,-0.065,1.337,0.0,0.0,0.0,0.0,0.0,0.0,0.0,0.0,0.0,0.0,0.0,0.0,0.0,0.0,0.0,0.0,0.0,0.0,0.0,0.0,0
1704779936222326638,3124,0,,0,0,,0,0,0,0,0,0,36.90410358,118.16668682,25.5,0.0,1.345,0.0,-0.0,0.42,92.19,194355.3,0.0,0.0,-0.078,1.343,0.0,0.0,0.0,0.0,0.0,0.0,0.0,0.0,0.0,0.0,0.0,0.0,0.0,0.0,0.0,0.0,0.0,0.0,0.0,0.0,0
1704779936323105150,3125,0,,0,0,,0,0,0,0,0,0,36.90410353,118.16668833,25.5,0.0,1.345,0.0,0.02,0.45,92.18,194355.4,0.0,0.0,-0.05,1.344,0.0,0.0,0.0,0.0,0.0,0.0,0.0,0.0,0.0,0.0,0.0,0.0,0.0,0.0,0.0,0.0,0.0,0.0,0.0,0.0,0
1704779936422902149,3126,0,,0,0,,0,0,0,0,0,0,36.90410348,118.16668987,25.5,0.0,1.371,0.0,0.07,0.36,92.17,194355.5,0.0,0.0,-0.049,1.37,0.0,0.0,0.0,0.0,0.0,0.0,0.0,0.0,0.0,0.0,0.0,0.0,0.0,0.0,0.0,0.0,0.0,0.0,0.0,0.0,0
1704779936522537590,3127,0,,0,0,,0,0,0,0,0,0,36.90410343,118.16669143,25.5,0.0,1.404,0.0,0.06,0.35,92.17,194355.6,0.0,0.0,-0.067,1.402,0.0,0.0,0.0,0.0,0.0,0.0,0.0,0.0,0.0,0.0,0.0,0.0,0.0,0.0,0.0,0.0,0.0,0.0,0.0,0.0,0
1704779936623933459,3128,0,,0,0,,0,0,0,0,0,0,36.90410338,118.16669304,25.5,0.0,1.417,0.0,0.04,0.36,92.16,194355.7,0.0,0.0,-0.063,1.415,0.0,0.0,0.0,0.0,0.0,0.0,0.0,0.0,0.0,0.0,0.0,0.0,0.0,0.0,0.0,0.0,0.0,0.0,0.0,0.0,0
1704779936723259804,3129,0,,0,0,,0,0,0,0,0,0,36.90410333,118.16669461,25.5,0.0,1.394,0.0,0.07,0.32,92.17,194355.8,0.0,0.0,-0.055,1.393,0.0,0.0,0.0,0.0,0.0,0.0,0.0,0.0,0.0,0.0,0.0,0.0,0.0,0.0,0.0,0.0,0.0,0.0,0.0,0.0,0
1704779936822416976,3130,0,,0,0,,0,0,0,0,0,0,36.90410328,118.16669621,25.5,0.0,1.38,0.0,0.06,0.29,92.29,194355.9,0.0,0.0,-0.064,1.378,0.0,0.0,0.0,0.0,0.0,0.0,0.0,0.0,0.0,0.0,0.0,0.0,0.0,0.0,0.0,0.0,0.0,0.0,0.0,0.0,0
1704779936923043951,3131,0,,0,0,,0,0,0,0,0,0,36.90410322,118.16669774,25.5,0.0,1.358,0.0,0.04,0.33,92.42,194356.0,0.0,0.0,-0.075,1.356,0.0,0.0,0.0,0.0,0.0,0.0,0.0,0.0,0.0,0.0,0.0,0.0,0.0,0.0,0.0,0.0,0.0,0.0,0.0,0.0,0
